ID,DISTRICT CODE,DISTRICT,ADDRESS,LATITUDE,LONGITUDE
FUE_01_0001,1.0,CENTRO,PLAZA COMENDADORAS,40.4272429,-3.7086003
FUE_01_0002,1.0,CENTRO,JARDINES CONDE DUQUE,40.4287238,-3.7101008
FUE_01_0003,1.0,CENTRO,PLAZA DE LAS SALESAS,40.4242464,-3.6946026
FUE_01_0004,1.0,CENTRO,PLAZA VILLA DE PARIS,40.4252981,-3.6922023
FUE_01_0005,1.0,CENTRO,PLAZA VILLA DE PARIS,40.4255618,-3.6931763
FUE_01_0006,1.0,CENTRO,PLAZA CRISTINO MARTOS,40.4256456,-3.7120169
FUE_01_0007,1.0,CENTRO,PLAZA SAN ILDEFONSO,40.4241421,-3.7018126
FUE_01_0008,1.0,CENTRO,PARQUE CASINO DE LA REINA,40.4059482,-3.7049195
FUE_01_0009,1.0,CENTRO,PLAZA DE LOS CARROS,40.4116737,-3.711455
FUE_01_0012,1.0,CENTRO,PARQUE DE LA CORNISA,40.4098378,-3.7153448
FUE_01_0017,1.0,CENTRO,PASEO DEL PRADO,40.4127243,-3.6931979
FUE_01_0018,1.0,CENTRO,CAPITAN SALAZAR MARTINEZ N 11,40.4071271,-3.7102162
FUE_01_0020,1.0,CENTRO,PLAZA DOS DE MAYO,40.4269465,-3.7044044
FUE_01_0021,1.0,CENTRO,PARQUE DE ATENAS,40.4150604,-3.7205578
FUE_01_0024,1.0,CENTRO,JARDINES PLAZA GABRIEL MIRO,40.412665,-3.7148802
FUE_01_0027,1.0,CENTRO,"CALLE SEGOVIA, 30",40.4147755,-3.7189277
FUE_01_0028,1.0,CENTRO,PARQUE DE ATENAS,40.4147606,-3.7201468
FUE_01_0029,1.0,CENTRO,PARQUE CASINO DE LA REINA,40.4066592,-3.7046006
FUE_01_0030,1.0,CENTRO,PARQUE CASINO DE LA REINA,40.4425058,-3.7057139
FUE_01_0031,1.0,CENTRO,CL ARGANZUELA N:1,40.4088482,-3.7102571
FUE_01_0032,1.0,CENTRO,"CL MESON DE PAREDES, N 48",40.4093894,-3.7039254
FUE_01_0033,1.0,CENTRO,CL SAN JUSTO N:1,40.4138188,-3.7090393
FUE_01_0041,1.0,CENTRO,"C/ SANTA CRUZ DE MARCENADO, 18",40.4288758,-3.7096543
FUE_01_0042,1.0,CENTRO,PLAZA SANTA MARIA SOLEDAD TORRES ACOSTA,40.4218322,-3.7054888
FUE_01_0044,1.0,CENTRO,"CIUDAD RODRIGO, JUNTO ACCESO PZA. MAYOR",40.4157493,-3.7086386
FUE_01_0045,1.0,CENTRO,JARDINES ARQUITECTO RIBERA,40.4258724,-3.6996383
FUE_01_0047,1.0,CENTRO,PLAZA DE LAVAPIES,40.4089076,-3.7010206
FUE_01_0048,1.0,CENTRO,PLAZA DEL PRINCIPE ALFONSO N5,40.414841,-3.7004943
FUE_01_0049,1.0,CENTRO,PASEO DE RECOLETOS N 17,40.4214908,-3.6924701
FUE_01_0050,1.0,CENTRO,PLAZA JACINTO BENAVENTE N 2,40.4144869,-3.7031275
FUE_01_0051,1.0,CENTRO,"CALLE TRES CRUCES, 1",40.419109,-3.7032599
FUE_01_0052,1.0,CENTRO,C/ AUGUSTO FIGUEROA N 41,40.4220373,-3.6967302
FUE_01_0053,1.0,CENTRO,"PLAZA GUARDIAS DE CORPS, 4",40.4271838,-3.7104941
FUE_01_0055,1.0,CENTRO,"CABALLERO DE GRACIA, 40",40.4189242,-3.6975217
FUE_01_0056,1.0,CENTRO,PASEO DE RECOLETOS 1,40.4198082,-3.6932761
FUE_01_0057,1.0,CENTRO,TIRSO DE MOLINA 2,40.412335,-3.7036965
FUE_01_0058,1.0,CENTRO,TOLEDO 40,40.4125395,-3.7076008
FUE_01_0061,1.0,CENTRO,CALLE HUERTAS 71,40.4131045,-3.6953848
FUE_01_0062,1.0,CENTRO,CALLE SAN LUCAS 1,40.4238133,-3.6971036
FUE_01_0063,1.0,CENTRO,PARQUE CASINO DE LA REINA,40.4058599,-3.7055371
FUE_01_0064,1.0,CENTRO,PARQUE CASINO DE LA REINA,40.4059452,-3.7057367
FUE_01_0066,1.0,CENTRO,PLAZA VIRGEN DE LA PALOMA 1,40.4082096,-3.7119965
FUE_01_0068,1.0,CENTRO,CALLE SAN PEDRO 20,40.4114955,-3.6948415
FUE_01_0071,1.0,CENTRO,"C/ ATOCHA, 73",40.4122616,-3.6986661
FUE_01_0072,1.0,CENTRO,"C/ SANTA ISABEL, 34",40.4106288,-3.6981192
FUE_01_0073,1.0,CENTRO,"C/ DOCTOR MATA, 2",40.4089132,-3.6944487
FUE_01_0074,1.0,CENTRO,"C/ SANTA ISABEL, 52",40.4084931,-3.69335
FUE_01_0075,1.0,CENTRO,PLAZA DE LA CORRALA ,40.4080412,-3.7028827
FUE_01_0077,1.0,CENTRO,"CALLE CALATRAVA, 37",40.4097296,-3.7132736
FUE_01_0078,1.0,CENTRO,"PLAZA DE SAN FRANCISCO, 4",40.4108156,-3.7141863
FUE_01_0079,1.0,CENTRO,"P VIRGEN DEL PUERTO, 1",40.4196034,-3.7199109
FUE_01_0080,1.0,CENTRO,PLAZA DEL REY,40.420101,-3.695793
FUE_01_0081,1.0,CENTRO,PLAZA CONDE DE TORENO 1,40.4243663,-3.7091785
FUE_01_0082,1.0,CENTRO,CALLE AMANIEL 10,40.4257768,-3.7093502
FUE_01_0083,1.0,CENTRO,CALLE MAYOR 32,40.4161874,-3.7078227
FUE_01_0084,1.0,CENTRO,PLAZA DE SANTIAGO 4,40.4167042,-3.7108142
FUE_01_0085,1.0,CENTRO,"CALLE ALCALA, 7",40.4173884,-3.7013164
FUE_01_0086,1.0,CENTRO,CALLE MAESTRO GUERRERO 8A,40.4244243,-3.7107103
FUE_01_0087,1.0,CENTRO,CALLE LIBREROS 1,40.421459,-3.7067995
FUE_01_0088,1.0,CENTRO,CALLE HORTALEZA 37,40.4222757,-3.6996999
FUE_01_0089,1.0,CENTRO,CALLE CRUZ VERDE 16,40.4238529,-3.7071189
FUE_01_0090,1.0,CENTRO,CALLE SAN BERNARDO 55,40.4257768,-3.7071624
FUE_01_0091,1.0,CENTRO,CALLE RASTRILLO 1,40.4253847,-3.7038411
FUE_01_0092,1.0,CENTRO,"GLORIETA EMBAJADORES, 1",40.4055135,-3.702708
FUE_01_0093,1.0,CENTRO,CUESTA SANTO DOMINGO 12,40.4196945,-3.7092889
FUE_01_0094,1.0,CENTRO,PLAZA ENCARNACION 2,40.4197325,-3.711001
FUE_01_0095,1.0,CENTRO,"CALLE TOLEDO, 61 C/V C/ SAN MILLAN",40.4112274,-3.7080417
FUE_01_0096,1.0,CENTRO,"CALLE PRECIADOS, 35",40.4197195,-3.707154
FUE_01_0099,1.0,CENTRO,"PLAZA DE LA PAJA, 6",40.4133528,-3.7113671
FUE_01_0101,1.0,CENTRO,"CALLE ALMUDENA, 3",40.4155965,-3.7132505
FUE_01_0102,1.0,CENTRO,"CALLE SAN NICOLAS, 15",40.4166794,-3.7118789
FUE_01_0103,1.0,CENTRO,"PLAZA DEL BIOMBO, 1",40.4159043,-3.7112133
FUE_01_0104,1.0,CENTRO,"CALLE GRAFAL, 10",40.4130361,-3.7082475
FUE_01_0105,1.0,CENTRO,"CALLE TAMAYO Y BAUS, 5",40.4229473,-3.6931666
FUE_01_0109,1.0,CENTRO,"CALLE SANTA ISABEL, 47",40.4095051,-3.6959671
FUE_01_0110,1.0,CENTRO,"PASEO DEL PRADO, 8",40.4155886,-3.6948315
FUE_01_0111,1.0,CENTRO,"CALLE SAN AGUSTIN, 2",40.4153281,-3.6969334
FB_01_000052,1.0,CENTRO,JARDINES DE LA PLAZA DE ORIENTE,40.41756,-3.7118915
FB_01_000051,1.0,CENTRO,JARDINES DE SABATINI,40.4204798,-3.7137624
FB_900013,1.0,CENTRO,MADRID RIO,40.4168676,-3.7216504
FB_900014,1.0,CENTRO,MADRID RIO,40.4154456,-3.7221456
FUE_02_0001,2.0,ARGANZUELA,ED 3/3 MENDEZ ALVARO - DELICIAS,40.399242,-3.6848763
FUE_02_0002,2.0,ARGANZUELA,RAMIREZ DE PRADO,40.3989978,-3.6873947
FUE_02_0003,2.0,ARGANZUELA,Z.V. PUERTO DE  BEJAR,40.3886234,-3.6865894
FUE_02_0005,2.0,ARGANZUELA,PARQUE DEL BRONCE PVF,40.390326,-3.6874734
FUE_02_0007,2.0,ARGANZUELA,PARQUE DE DELICIAS,40.395487,-3.6883302
FUE_02_0009,2.0,ARGANZUELA,PZA. LUCA DE TENA,40.4020595,-3.6935279
FUE_02_0010,2.0,ARGANZUELA,PZA  LUCA DE TENA N 13,40.4020505,-3.6940827
FUE_02_0012,2.0,ARGANZUELA,C/PALOS DE LA FRONTERA N 42,40.4029032,-3.6947118
FUE_02_0013,2.0,ARGANZUELA,C/CANARIAS N 22,40.4022005,-3.6950381
FUE_02_0014,2.0,ARGANZUELA,PZA. RUTILIO GACIS,40.3942707,-3.696825
FUE_02_0015,2.0,ARGANZUELA,PZA. PENUELAS,40.4010498,-3.702649
FUE_02_0016,2.0,ARGANZUELA,PARQUE PENUELAS,40.4010743,-3.7052867
FUE_02_0017,2.0,ARGANZUELA,POL. DE YESERIAS FASES II Y III,40.3993583,-3.7076552
FUE_02_0019,2.0,ARGANZUELA,JARDIN DEL RASTRO,40.4054215,-3.7090263
FUE_02_0021,2.0,ARGANZUELA,JARDIN MAESTRO PADILLA,40.4043948,-3.7218641
FUE_02_0022,2.0,ARGANZUELA,ACACIAS - PASILLO VERDE,40.4026585,-3.7082319
FUE_02_0023,2.0,ARGANZUELA,ACACIAS - PASILLO VERDE,40.4026585,-3.7082319
FUE_02_0024,2.0,ARGANZUELA,PARQUE IMPERIAL PVF,40.404843,-3.7181203
FUE_02_0028,2.0,ARGANZUELA,ED 2/8 VALDELASIERRA,40.3973753,-3.7049079
FUE_02_0029,2.0,ARGANZUELA,HIERRO - ANTRACITA,40.3894166,-3.6902372
FUE_02_0030,2.0,ARGANZUELA,HIERRO - ANTRACITA,40.3891097,-3.6900594
FUE_02_0034,2.0,ARGANZUELA,PARQUE ENRIQUE TIERNO GALVAN,40.3860749,-3.6846907
FUE_02_0035,2.0,ARGANZUELA,PARQUE MIRADOR TIERNO GALVAN PVF,40.3938613,-3.6847016
FUE_02_0037,2.0,ARGANZUELA,PARQUE ENRIQUE TIERNO GALVAN,40.3903443,-3.6818943
FUE_02_0038,2.0,ARGANZUELA,PARQUE ENRIQUE TIERNO GALVAN,40.3876895,-3.6846258
FUE_02_0045,2.0,ARGANZUELA,JARDINES FERNANDO POO - TORRES MIRANDA,40.3978708,-3.6981919
FUE_02_0046,2.0,ARGANZUELA,JARDIN PARROCO SANCHEZ CAMARA ED 2-15,40.4017881,-3.7045037
FUE_02_0047,2.0,ARGANZUELA,PARQUE PENUELAS,40.4000401,-3.7059459
FUE_02_0050,2.0,ARGANZUELA,PASEO YESERIAS,40.3993984,-3.7107117
FUE_02_0052,2.0,ARGANZUELA,"AV. PALNETARIO, 11",40.3936248,-3.6819368
FUE_02_0053,2.0,ARGANZUELA,"CALLE GRANITO, 20",40.3934635,-3.6923876
FUE_02_0054,2.0,ARGANZUELA,"CALLE AGUILON,11",40.3974616,-3.7003397
FUE_02_0055,2.0,ARGANZUELA,CALLE EROS N 10,40.3932382,-3.6798104
FUE_02_0056,2.0,ARGANZUELA,CALLE AMALTEA N 6,40.3949172,-3.6823618
FUE_02_0057,2.0,ARGANZUELA,CALLE JACARANDA 13,40.3973938,-3.6792176
FUE_02_0058,2.0,ARGANZUELA,"PASEO DE YESERIAS, 1",40.4007368,-3.7129266
FUE_02_0059,2.0,ARGANZUELA,"CALLE TOLEDO, 178",40.4020561,-3.7143668
FUE_02_0060,2.0,ARGANZUELA,"PASEO JUAN ANTONIO VALLEJO NAJERA-BOTAS, 1",40.4009185,-3.6999534
FUE_02_0061,2.0,ARGANZUELA,C/ VILLOSLADA N 9,40.4037155,-3.7111664
FUE_02_0062,2.0,ARGANZUELA,"TRAVESIA DE SAN ISIDORO DE SEVILLA, 7-9",40.4037155,-3.7111664
FUE_02_0063,2.0,ARGANZUELA,"CALLE PARROCO EUSEBIO CUENCA, FRENTE N 64",40.3934609,-3.6876176
FUE_02_0064,2.0,ARGANZUELA,"PARQUE ENRIQUE TIERNO GALVAN, AV. PLANETARIO 18",40.3913401,-3.6858563
FUE_02_0065,2.0,ARGANZUELA,"CALLE MORENO NIETO,5",40.4117496,-3.7187215
FB_900020,2.0,ARGANZUELA,MADRID RIO,40.4086277,-3.7213938
FB_900036,2.0,ARGANZUELA,MADRID RIO,40.3994346,-3.7112629
FB_900037,2.0,ARGANZUELA,MADRID RIO,40.3994329,-3.7112405
FB_900038,2.0,ARGANZUELA,MADRID RIO,40.3994329,-3.7112511
FB_900039,2.0,ARGANZUELA,MADRID RIO,40.3985716,-3.7125641
FB_900040,2.0,ARGANZUELA,MADRID RIO,40.3985662,-3.7125723
FB_900041,2.0,ARGANZUELA,MADRID RIO,40.3985598,-3.7125805
FB_900042,2.0,ARGANZUELA,MADRID RIO,40.3983593,-3.711195
FB_900043,2.0,ARGANZUELA,MADRID RIO,40.3983549,-3.7111867
FB_900044,2.0,ARGANZUELA,MADRID RIO,40.3983495,-3.7111784
FB_900047,2.0,ARGANZUELA,MADRID RIO,40.3963013,-3.7074415
FB_900048,2.0,ARGANZUELA,MADRID RIO,40.3962931,-3.7074462
FB_900049,2.0,ARGANZUELA,MADRID RIO,40.3962859,-3.7074496
FB_900050,2.0,ARGANZUELA,MADRID RIO,40.3973554,-3.7071344
FB_900051,2.0,ARGANZUELA,MADRID RIO,40.3973509,-3.7071261
FB_900052,2.0,ARGANZUELA,MADRID RIO,40.3973607,-3.7071427
FB_900056,2.0,ARGANZUELA,MADRID RIO,40.3923741,-3.7006584
FB_900057,2.0,ARGANZUELA,MADRID RIO,40.3923803,-3.7006655
FB_900058,2.0,ARGANZUELA,MADRID RIO,40.3925544,-3.7009265
FB_900059,2.0,ARGANZUELA,MADRID RIO,40.3925499,-3.7009359
FB_900060,2.0,ARGANZUELA,MADRID RIO,40.3925453,-3.7009453
FB_900067,2.0,ARGANZUELA,MADRID RIO,40.3843184,-3.6887583
FB_900068,2.0,ARGANZUELA,MADRID RIO,40.3932601,-3.6984983
FUE_03_0001,3.0,RETIRO,PARQUE DE ROMA,40.4273744,-3.6896988
FUE_03_0002,3.0,RETIRO,PARQUE DE ROMA,40.4158555,-3.6614183
FUE_03_0005,3.0,RETIRO,PARQUE DE ROMA,40.414879,-3.6619936
FUE_03_0006,3.0,RETIRO,PARQUE DE ROMA,40.4147358,-3.6642318
FUE_03_0007,3.0,RETIRO,PARQUE DE ROMA,40.4187564,-3.6649485
FUE_03_0008,3.0,RETIRO,JARDINES FEDERICO MORENO TORROBA,40.4045317,-3.667065
FUE_03_0010,3.0,RETIRO,JARDINES P JOHN LENNON,40.4167259,-3.6658358
FUE_03_0011,3.0,RETIRO,PARQUE MARTIN LUTHER KING,40.4027614,-3.6681148
FUE_03_0012,3.0,RETIRO,PARQUE MARTIN LUTHER KING,40.4037045,-3.6683728
FUE_03_0013,3.0,RETIRO,JARDINES CONDE CARTAGENA - ABTAO,40.4076512,-3.6743227
FUE_03_0017,3.0,RETIRO,PARQUE DE COCHERAS,40.4007003,-3.6762858
FUE_03_0018,3.0,RETIRO,POLIDEPORTIVO DAOIZ Y VELARDE,40.4009825,-3.6786059
FUE_03_0021,3.0,RETIRO,STA. SABINA - DR. ESQUERDO,40.4049836,-3.6704375
FUE_03_0023,3.0,RETIRO,PARQUE ANUNCIACION,40.4121932,-3.6757658
FUE_03_0028,3.0,RETIRO,PZA. VAQUERIAS,40.4187969,-3.6669902
FUE_03_0032,3.0,RETIRO,PIO BAROJA - MENENDEZ PELAYO,40.4129764,-3.6765722
FUE_03_0035,3.0,RETIRO,JARDINES JESUS APRENDIZ,40.4095786,-3.6715928
FUE_03_0036,3.0,RETIRO,C/ FEDERICO MORENO TORROBA N3,40.4059506,-3.6670281
FUE_03_0042,3.0,RETIRO,CAVANILLES N 46 PASAJE,40.405075,-3.6747108
FUE_03_0045,3.0,RETIRO,CALLE ANTONIO NEBRIJA 7,40.4030441,-3.6838295
FUE_03_0048,3.0,RETIRO,CALLE BARRILERO 2,40.3977712,-3.6736563
FUE_03_0049,3.0,RETIRO,PASAJE DEL LINCE 8,40.4088638,-3.6679883
FUE_03_0050,3.0,RETIRO,AV. MEDITERRANEO 2,40.4072561,-3.678086
FUE_03_0051,3.0,RETIRO,CALLE DOCE DE OCTUBRE 30,40.4160638,-3.6731332
FUE_03_0052,3.0,RETIRO,"PLAZA DE CONDE DE CASAL, 10",40.4064565,-3.6707864
FUE_03_0053,3.0,RETIRO,CALLE FELIPE IV FRENTE N 1,40.4148807,-3.6929108
FUE_03_0054,3.0,RETIRO,"CALLE ESTRELLA POLAR, 13",40.4112275,-3.6657637
FUE_03_0055,3.0,RETIRO,"CALLE O'DONNELL, 48",40.4212344,-3.6722118
FUE_03_0056,3.0,RETIRO,"CALLE MENENDEZ PELAYO, 9",40.4214976,-3.6797714
FUE_03_0057,3.0,RETIRO,"CALLE JUAN VALERA, 24",40.4082079,-3.6825541
FUE_03_0058,3.0,RETIRO,CALLE SIRIO 2,40.4132758,-3.6622745
FUE_03_0059,3.0,RETIRO,CALLE GRANADA 55 C,40.4033449,-3.6740185
FB_01_000001,3.0,RETIRO,JARDINES DEL BUEN RETIRO,40.4182968,-3.6854724
FB_01_000002,3.0,RETIRO,JARDINES DEL BUEN RETIRO,40.4197015,-3.6865739
FB_01_000003,3.0,RETIRO,JARDINES DEL BUEN RETIRO,40.4187607,-3.6864919
FB_01_000004,3.0,RETIRO,JARDINES DEL BUEN RETIRO,40.4182968,-3.6854724
FB_01_000005,3.0,RETIRO,JARDINES DEL BUEN RETIRO,40.4204082,-3.6842645
FB_01_000006,3.0,RETIRO,JARDINES DEL BUEN RETIRO,40.4206781,-3.6824285
FB_01_000007,3.0,RETIRO,JARDINES DEL BUEN RETIRO,40.419855,-3.6802814
FB_01_000008,3.0,RETIRO,JARDINES DEL BUEN RETIRO,40.4191014,-3.6811821
FB_01_000009,3.0,RETIRO,JARDINES DEL BUEN RETIRO,40.4186767,-3.6799354
FB_01_000010,3.0,RETIRO,JARDINES DEL BUEN RETIRO,40.4163972,-3.6886032
FB_01_000011,3.0,RETIRO,JARDINES DEL BUEN RETIRO,40.413941,-3.6882433
FB_01_000012,3.0,RETIRO,JARDINES DEL BUEN RETIRO,40.4116836,-3.6867574
FB_01_000013,3.0,RETIRO,JARDINES DEL BUEN RETIRO,40.411125,-3.6875012
FB_01_000014,3.0,RETIRO,JARDINES DEL BUEN RETIRO,40.4096633,-3.6862541
FB_01_000015,3.0,RETIRO,JARDINES DEL BUEN RETIRO,40.4107329,-3.6832721
FB_01_000016,3.0,RETIRO,JARDINES DEL BUEN RETIRO,40.4111445,-3.6809841
FB_01_000017,3.0,RETIRO,JARDINES DEL BUEN RETIRO,40.4113589,-3.6800262
FB_01_000018,3.0,RETIRO,JARDINES DEL BUEN RETIRO,40.4093984,-3.680551
FB_01_000019,3.0,RETIRO,JARDINES DEL BUEN RETIRO,40.4084932,-3.6786052
FB_01_000020,3.0,RETIRO,JARDINES DEL BUEN RETIRO,40.413406,-3.6814007
FB_01_000021,3.0,RETIRO,JARDINES DEL BUEN RETIRO,40.415096,-3.6790639
FB_01_000022,3.0,RETIRO,JARDINES DEL BUEN RETIRO,40.4141435,-3.6827393
FB_01_000023,3.0,RETIRO,JARDINES DEL BUEN RETIRO,40.4155134,-3.6840387
FB_01_000024,3.0,RETIRO,JARDINES DEL BUEN RETIRO,40.4157821,-3.683524
FB_01_000025,3.0,RETIRO,JARDINES DEL BUEN RETIRO,40.417036,-3.6820996
FB_01_000026,3.0,RETIRO,JARDINES DEL BUEN RETIRO,40.4173748,-3.6808852
FB_01_000027,3.0,RETIRO,JARDINES DEL BUEN RETIRO,40.4163646,-3.6814531
FB_01_000028,3.0,RETIRO,JARDINES DEL BUEN RETIRO,40.4156484,-3.6809644
FB_01_000029,3.0,RETIRO,JARDINES DEL BUEN RETIRO,40.4166923,-3.6800703
FB_01_000030,3.0,RETIRO,JARDINES DEL BUEN RETIRO,40.4171442,-3.67921
FB_01_000031,3.0,RETIRO,JARDINES DEL BUEN RETIRO,40.4166595,-3.678555
FUE_04_0001,4.0,SALAMANCA,PARQUE BREOGAN,40.4370811,-3.6602892
FUE_04_0002,4.0,SALAMANCA,PARQUE BREOGAN,40.436444,-3.6606938
FUE_04_0004,4.0,SALAMANCA,PARQUE DE LAS AVENIDAS,40.4394896,-3.6599179
FUE_04_0005,4.0,SALAMANCA,PARQUE DE LAS AVENIDAS,40.440112,-3.6602743
FUE_04_0006,4.0,SALAMANCA,PARQUE DE LAS AVENIDAS,40.4417138,-3.6599521
FUE_04_0007,4.0,SALAMANCA,JARDINES GREGORIO ORDONEZ,40.4332578,-3.6787731
FUE_04_0008,4.0,SALAMANCA,JARDINES GREGORIO ORDONEZ,40.4330577,-3.6790078
FUE_04_0009,4.0,SALAMANCA,PARQUE DE MARIA EVA DUARTE DE PERON,40.4304716,-3.6680058
FUE_04_0010,4.0,SALAMANCA,PARQUE DE MARIA EVA DUARTE DE PERON,40.4306639,-3.6677244
FUE_04_0012,4.0,SALAMANCA,PZA. AMERICA ESPANOLA,40.4293423,-3.6619988
FUE_04_0014,4.0,SALAMANCA,PARQUE SANCHO DAVILA,40.4272341,-3.6611233
FUE_04_0016,4.0,SALAMANCA,PZA.  SAN CAYETANO,40.434204,-3.6705961
FUE_04_0017,4.0,SALAMANCA,CALLE VELAZQUEZ 75,40.4315037,-3.6837338
FUE_04_0018,4.0,SALAMANCA,"DIEGO DE LEON, 56",40.4344473,-3.6775785
FUE_04_0020,4.0,SALAMANCA,GTA. CAMPANAR,40.431603,-3.6669982
FUE_04_0022,4.0,SALAMANCA,VIZCONDE DE MATAMALA - RAMON DE AGUINAGA - RUFINO BLANCO,40.426779,-3.6654202
FUE_04_0023,4.0,SALAMANCA,PZA.  SAN CAYETANO,40.4341302,-3.6700764
FUE_04_0026,4.0,SALAMANCA,JARDIN DE LA VIRGEN DEL PILAR,40.4323235,-3.6779335
FUE_04_0027,4.0,SALAMANCA,PASEO DE LA CASTELLANA N 58 (FTE N 64),40.4370207,-3.6898019
FUE_04_0028,4.0,SALAMANCA,PASEO DE LA CASTELLANA N 22 (FTE N 22 EN EL BULEVAR),40.429998,-3.6890582
FUE_04_0029,4.0,SALAMANCA,PASEO DE LA CASTELLANA N 2 (FTE N 2 EN EL BULEVAR),40.4266776,-3.6899086
FUE_04_0030,4.0,SALAMANCA,PASEO DE LA CASTELLANA N 18,40.4286717,-3.6893867
FUE_04_0033,4.0,SALAMANCA,PASEO DE LA CASTELLANA N 8 (FTE N 8 EN EL BULEVAR),40.4273744,-3.6896988
FUE_04_0035,4.0,SALAMANCA,AVENIDA DE LOS TOREROS ,40.432625,-3.6618744
FUE_04_0037,4.0,SALAMANCA,ELVIRA N 11,40.4227054,-3.6652901
FUE_04_0038,4.0,SALAMANCA,AVDA FELIPE II N 5,40.4241632,-3.6753595
FUE_04_0039,4.0,SALAMANCA,"PLAZA AMERICA ESPANOLA, 5",40.4289538,-3.6615766
FUE_04_0040,4.0,SALAMANCA,PARQUE RESIDENCIAL ISABEL II,40.4269937,-3.6650656
FUE_04_0042,4.0,SALAMANCA,PILAR DE ZARAGOZA 91,40.4377756,-3.6741799
FUE_04_0043,4.0,SALAMANCA,"CALLE TOMAS LOPEZ, 7",40.426554,-3.6700565
FUE_04_0045,4.0,SALAMANCA,"CALLE FRANCISCO SILVELA, 12",40.4304404,-3.6704178
FUE_04_0046,4.0,SALAMANCA,C/ FRANCISCO SILVELA 52,40.4346184,-3.6742423
FUE_04_0047,4.0,SALAMANCA,C/ FRANCISCO SILVELA N 73,40.4362007,-3.6763978
FUE_04_0048,4.0,SALAMANCA,CALLE LA POVEDA N 1,40.439128,-3.6661099
FUE_04_0049,4.0,SALAMANCA,"C/ BRESCIA, 21",40.4366673,-3.6615718
FUE_04_0050,4.0,SALAMANCA,"AV. BAVIERA, 15",40.4429756,-3.6615976
FUE_04_0051,4.0,SALAMANCA,PARQUE SANCHO DAVILA,40.4273876,-3.6607702
FUE_04_0052,4.0,SALAMANCA,"AVENIDA BRUSELAS, 57",40.4395569,-3.6630516
FUE_04_0053,4.0,SALAMANCA,"AVENIDA BAVIERA, 2",40.4412537,-3.6647781
FUE_04_0054,4.0,SALAMANCA,JARDIN DE MARIA PACHECO,40.4276012,-3.6737827
FUE_04_0055,4.0,SALAMANCA,"CALLE LOPEZ DE HOYOS,  18",40.4374259,-3.6861933
FUE_04_0056,4.0,SALAMANCA,"CALLE PILAR DE ZARAGOZA, 54 C C/V CALLE JOSE PICON",40.4357689,-3.6711947
FUE_04_0057,4.0,SALAMANCA,CALLE ALCALA 62,40.4215896,-3.6824738
FUE_04_0059,4.0,SALAMANCA,PLAZA BOCANGEL,40.4268251,-3.662832
FB_01_000045,4.0,SALAMANCA,QUINTA DE LA FUENTE DEL BERRO,40.4230973,-3.662523
FB_01_000046,4.0,SALAMANCA,QUINTA DE LA FUENTE DEL BERRO,40.423012,-3.6614954
FB_01_000066,4.0,SALAMANCA,QUINTA DE LA FUENTE DEL BERRO,40.4232549,-3.6630599
FUE_05_0001,5.0,CHAMARTIN,P DE LA CASTELLANA II,40.4612365,-3.6895353
FUE_05_0004,5.0,CHAMARTIN,P DE LA CASTELLANA II,40.455179,-3.6901229
FUE_05_0005,5.0,CHAMARTIN,P DE LA CASTELLANA II,40.450642,-3.6905647
FUE_05_0006,5.0,CHAMARTIN,"PIO XII, 4",40.4619245,-3.6758157
FUE_05_0007,5.0,CHAMARTIN,PARQUE GLORIA FUERTES,40.4605565,-3.6761425
FUE_05_0008,5.0,CHAMARTIN,FINAL C/ COLOMBIA,40.4582218,-3.6689052
FUE_05_0009,5.0,CHAMARTIN,FINAL C/ COLOMBIA,40.4580082,-3.6684596
FUE_05_0011,5.0,CHAMARTIN,JARDINES DE JUAN DE LA COSA,40.4567166,-3.679389
FUE_05_0013,5.0,CHAMARTIN,PARQUE FELIX RGUEZ. DE LA FUENTE,40.4519362,-3.6645645
FUE_05_0014,5.0,CHAMARTIN,PARQUE FELIX RGUEZ. DE LA FUENTE,40.4524903,-3.6641727
FUE_05_0016,5.0,CHAMARTIN,PZA. CLARA DEL REY - CANILLAS,40.44412,-3.6687727
FUE_05_0018,5.0,CHAMARTIN,PZA. SAGRADO CORAZON DE JESUS,40.4446449,-3.6770468
FUE_05_0021,5.0,CHAMARTIN,"C/ NIEREMBERG, 8",40.4474378,-3.6715847
FUE_05_0022,5.0,CHAMARTIN,PRADILLO - MARCENADO,40.4490896,-3.6734396
FUE_05_0024,5.0,CHAMARTIN,PZA. DE PEDRO MUGURUZA,40.4626239,-3.6861179
FUE_05_0029,5.0,CHAMARTIN,"STA. HORTENSIA, 30",40.4438266,-3.6648945
FUE_05_0030,5.0,CHAMARTIN,PARQUE STA. M¦ MAGDALENA,40.4642582,-3.6707575
FUE_05_0031,5.0,CHAMARTIN,"PUERTO RICO, 52",40.4591471,-3.6741915
FUE_05_0032,5.0,CHAMARTIN,COL. SAN CRISTOBAL,40.4777145,-3.6851486
FUE_05_0034,5.0,CHAMARTIN,M30 - STA. HORTENSIA,40.4463622,-3.6622656
FUE_05_0035,5.0,CHAMARTIN,VINAROZ - G¦ LUNA,40.4458591,-3.676205
FUE_05_0041,5.0,CHAMARTIN,C/DOCTOR MARCO CORERA N2,40.4502553,-3.6765499
FUE_05_0045,5.0,CHAMARTIN,CALLE COLOMBIA 14,40.4563255,-3.6753335
FUE_05_0047,5.0,CHAMARTIN,JARDINES INSTITUTO STA. MARCA,40.4563616,-3.6728706
FUE_05_0048,5.0,CHAMARTIN,ALFONSO XIII - STA. M¦ MAGDALENA,40.4599813,-3.6691784
FUE_05_0049,5.0,CHAMARTIN,ALFONSO XIII - STA. M¦ MAGDALENA,40.4605999,-3.670045
FUE_05_0050,5.0,CHAMARTIN,CALLE MARCENADO 51,40.4501543,-3.6755402
FUE_05_0051,5.0,CHAMARTIN,PRADILLO  FRENTE N 30 (PISTAS DE FUTBOL),40.4489872,-3.6726514
FUE_05_0052,5.0,CHAMARTIN,C/ARQUITECTO GAUDI N 11,40.4632944,-3.6680518
FUE_05_0063,5.0,CHAMARTIN,C/ TRAVESIA SANTA MARIA MAGDALENA N 5,40.4617957,-3.6715313
FUE_05_0073,5.0,CHAMARTIN,PLAZA GARCIA IBARROLA,40.4657375,-3.6697609
FUE_05_0076,5.0,CHAMARTIN,CALLE CORAZON DE MARIA,40.4414261,-3.6697227
FUE_05_0078,5.0,CHAMARTIN,CALLE AGUSTIN DE FOXA 12,40.4682696,-3.6869916
FUE_05_0079,5.0,CHAMARTIN,CALLE VICTOR DE LA SERNA 26,40.4547563,-3.671285
FUE_05_0080,5.0,CHAMARTIN,CALLE CLARA DEL REY 61,40.4462876,-3.6681147
FUE_05_0081,5.0,CHAMARTIN,FELIPE CAMPOS,40.4430112,-3.6793578
FUE_05_0082,5.0,CHAMARTIN,"CALLE CORAZON DE MARIA, 78",40.4480495,-3.6654098
FUE_05_0084,5.0,CHAMARTIN,CALLE MARCENADO 51,40.4502058,-3.6751046
FUE_05_0085,5.0,CHAMARTIN,"JARDINES DE PABLO SOROZABAL, CALLE EMILIO CAMPION, 6",40.4458229,-3.6788527
FUE_06_0003,6.0,TETUAN,PARQUE AGUSTIN RODRIGUEZ SAHAGUN,40.4666029,-3.7100594
FUE_06_0006,6.0,TETUAN,PARQUE AGUSTIN RODRIGUEZ SAHAGUN,40.4640976,-3.7080996
FUE_06_0011,6.0,TETUAN,PARQUE DE LA VENTILLA,40.4736039,-3.6958511
FUE_06_0012,6.0,TETUAN,PARQUE DE LA VENTILLA,40.4736799,-3.6934912
FUE_06_0013,6.0,TETUAN,PARQUE DE LA VENTILLA,40.4735453,-3.6921265
FUE_06_0016,6.0,TETUAN,MARTINEZ,40.4589835,-3.7032871
FUE_06_0017,6.0,TETUAN,PINOS ALTA FRENTE N 62,40.4682084,-3.6988645
FUE_06_0018,6.0,TETUAN,PLAZA DE SAN AMARO,40.4553136,-3.6967584
FUE_06_0020,6.0,TETUAN,AV: PRESIDENTE CARMONA N 5,40.4534505,-3.6972146
FUE_06_0021,6.0,TETUAN,JARDINES DE PERON,40.4526194,-3.6957551
FUE_06_0023,6.0,TETUAN,"AVDA. ASTURIAS,74",40.4732042,-3.6999499
FUE_06_0024,6.0,TETUAN,"AVDA. ASTURIAS,74",40.4728162,-3.6999831
FUE_06_0029,6.0,TETUAN,PARQUE AGUSTIN RODRIGUEZ SAHAGUN,40.4705944,-3.70571
FUE_06_0030,6.0,TETUAN,PARQUE AGUSTIN RODRIGUEZ SAHAGUN,40.4712756,-3.7049836
FUE_06_0031,6.0,TETUAN,"CALLE SINESIO DELGADO, 23",40.4708601,-3.7104597
FUE_06_0032,6.0,TETUAN,"CALLE SINESIO DELGADO, 32",40.4705434,-3.7092829
FUE_06_0033,6.0,TETUAN,PARQUE AGUSTIN RODRIGUEZ SAHAGUN,40.4713799,-3.7057145
FUE_06_0035,6.0,TETUAN,"CALLE MARTIRES DE LA VENTILLA, 32",40.4706212,-3.6908978
FUE_06_0038,6.0,TETUAN,PLAZA DE LADERA,40.4675524,-3.7034492
FUE_06_0040,6.0,TETUAN,PLAZA DE SAN GERMAN,40.4575238,-3.6981137
FUE_06_0041,6.0,TETUAN,PLAZA DE SAN GERMAN,40.4578452,-3.6986717
FUE_06_0042,6.0,TETUAN,AVENIDA PABLO IGLESIAS 62,40.4515711,-3.710773
FUE_06_0045,6.0,TETUAN,JARDINES DE NUMANCIA,40.4541827,-3.7119276
FUE_06_0048,6.0,TETUAN,"PLAZA C/ PLATANO, 34",40.4684698,-3.7005722
FUE_06_0049,6.0,TETUAN,PLAZA PINOS ALTA 21,40.4656533,-3.6955588
FUE_06_0050,6.0,TETUAN,"PARQUE C/ SIERRA BULLONES, 25",40.4666408,-3.6986346
FUE_06_0051,6.0,TETUAN,PARQUE AGUSTIN RODRIGUEZ SAHAGUN,40.469935,-3.709761
FUE_06_0053,6.0,TETUAN,CL BERRUGUETE N:66,40.4594794,-3.705076
FUE_06_0058,6.0,TETUAN,BRAVO MURILLO 239,40.4579522,-3.701296
FUE_06_0065,6.0,TETUAN,CL BRAVO MURILLO N:315,40.4631906,-3.6969001
FUE_06_0066,6.0,TETUAN,CL BRAVO MURILLO N:269,40.4597705,-3.6993431
FUE_06_0070,6.0,TETUAN,"CALLE CAPITAN BLANCO ARGIBAY, 63",40.4661295,-3.701468
FUE_06_0073,6.0,TETUAN,CL AGUILENAS 15,40.4668944,-3.6944352
FUE_06_0074,6.0,TETUAN,CL BRAVO MURILLO N:188,40.4545836,-3.7026826
FUE_06_0075,6.0,TETUAN,CL BRAVO MURILLO N:144,40.4505089,-3.7033247
FUE_06_0076,6.0,TETUAN,CL BRAVO MURILLO N:337,40.4644422,-3.6955492
FUE_06_0079,6.0,TETUAN,"CL CAPITAN BLANCO ARGIBAY, 25",40.4652162,-3.6983036
FUE_06_0080,6.0,TETUAN,"CL HERNANI, 18",40.4482803,-3.7022543
FUE_06_0082,6.0,TETUAN,C/ MARQUES DE VIANA 58,40.4632529,-3.7032815
FUE_06_0084,6.0,TETUAN,"GLORIETA DE CUATRO CAMINOS, 6-7",40.4472656,-3.7036021
FUE_06_0085,6.0,TETUAN,"C/ TENERIFE, 29",40.4515286,-3.7064008
FUE_06_0086,6.0,TETUAN,"C/ LUIS ESTEBAN, 27",40.4732923,-3.6901008
FUE_06_0088,6.0,TETUAN,"C/ FRANCOS RODRIGUEZ, 67",40.4574105,-3.7103808
FUE_06_0089,6.0,TETUAN,CALLE PADRE RUBIO 79,40.4722938,-3.6974276
FUE_06_0090,6.0,TETUAN,CAPITAN BLANCO ARGIBAY FRENTE 147,40.4679328,-3.7070875
FUE_06_0091,6.0,TETUAN,"CALLE JOAQUIN DICENTA, 3 CV PADRE RUBIO",40.4715334,-3.6951193
FUE_06_0092,6.0,TETUAN,PARQUE AGUSTIN RODRIGUEZ SAHAGUN,40.4686628,-3.7110108
FUE_06_0096,6.0,TETUAN,"CALLE COSTA VERDE, 3",40.4680015,-3.6943498
FUE_06_0097,6.0,TETUAN,ROSARIO ROMERO FRENTE N 20,40.4699695,-3.6973872
FUE_07_0003,7.0,CHAMBERI,PARQUE DE SAN JOSE DE CALASANZ,40.4376507,-3.7147454
FUE_07_0004,7.0,CHAMBERI,TENIENTE ALCALDE PEREZ PILLADO ,40.4404562,-3.7069956
FUE_07_0006,7.0,CHAMBERI,"PO CASTELLANA, DE LA N:11",40.4274654,-3.6900423
FUE_07_0007,7.0,CHAMBERI,"PO CASTELLANA, DE LA N:19",40.4287733,-3.6896989
FUE_07_0008,7.0,CHAMBERI,"PO CASTELLANA, DE LA N:25",40.4298932,-3.689412
FUE_07_0009,7.0,CHAMBERI,"PO CASTELLANA, DE LA N:37",40.4342261,-3.6887629
FUE_07_0010,7.0,CHAMBERI,"PO CASTELLANA, DE LA N:31",40.4316923,-3.6889213
FUE_07_0011,7.0,CHAMBERI,"PO CASTELLANA, DE LA N:51",40.437048,-3.6903168
FUE_07_0013,7.0,CHAMBERI,"PO CASTELLANA, DE LA N:61",40.4394512,-3.6914254
FUE_07_0014,7.0,CHAMBERI,PLAZA DE OLAVIDE,40.4326156,-3.7011223
FUE_07_0016,7.0,CHAMBERI,PARQUE ENRIQUE HERREROS,40.4389565,-3.7045016
FUE_07_0018,7.0,CHAMBERI,"PLAZA DEL CONDE DEL VALLE DE SUCHIL, 2",40.4302996,-3.7073192
FUE_07_0019,7.0,CHAMBERI,PLAZA CHAMBERI S/N,40.4325019,-3.697264
FUE_07_0020,7.0,CHAMBERI,"CL GARCIA DE PAREDES, 21",40.4369107,-3.7009118
FUE_07_0021,7.0,CHAMBERI,"CALLE PONZANO, 108",40.4462689,-3.6986106
FUE_07_0022,7.0,CHAMBERI,GLORIETA DE BILBAO N 5,40.4292428,-3.7017839
FUE_07_0023,7.0,CHAMBERI,CALLE BLASCO DE GARAY 31,40.4331017,-3.7117531
FUE_07_0024,7.0,CHAMBERI,GLORIETA RUIZ JIMENEZ 4,40.4299708,-3.7055411
FUE_07_0025,7.0,CHAMBERI,GLORIETA QUEVEDO 6,40.4339569,-3.7044675
FUE_07_0026,7.0,CHAMBERI,GLORIETA PINTOR SOROLLA 1,40.4346832,-3.6987708
FUE_07_0027,7.0,CHAMBERI,CALLE RUBEN DARIO 5,40.432686,-3.6913004
FUE_07_0028,7.0,CHAMBERI,CALLE BRETON DE LOS HERREROS 46,40.4393278,-3.6945225
FUE_07_0029,7.0,CHAMBERI,GLORIETA CUATRO CAMINOS 1,40.4465508,-3.7040481
FUE_07_0030,7.0,CHAMBERI,AVENIDA REINA VICTORIA 55,40.4463268,-3.7123684
FUE_07_0031,7.0,CHAMBERI,PARQUE JOSE LUIS SAMPEDRO,40.4335104,-3.7111462
FUE_07_0032,7.0,CHAMBERI,PARQUE JOSE LUIS SAMPEDRO,40.4334116,-3.71054
FUE_07_0033,7.0,CHAMBERI,C/ FUENCARRAL 133,40.4317077,-3.7036459
FUE_07_0034,7.0,CHAMBERI,RAIMUNDO FERNANDEZ VILLAVERDE 50,40.4460635,-3.6966825
FUE_07_0035,7.0,CHAMBERI,RAIMUNDO FERNANDEZ VILLAVERDE 50,40.4459178,-3.6961575
FUE_07_0036,7.0,CHAMBERI,CALLE SANTA ENGRACIA 78,40.4367929,-3.6994018
FUE_07_0037,7.0,CHAMBERI,AV. FILIPINAS 7,40.4406787,-3.7086734
FUE_08_0001,8.0,FUENCARRAL-EL PARDO,PARQUE GABRIELA MISTRAL,40.4844662,-3.7343681
FUE_08_0002,8.0,FUENCARRAL-EL PARDO,PARQUE GABRIELA MISTRAL,40.4814356,-3.7372349
FUE_08_0003,8.0,FUENCARRAL-EL PARDO,A.V.C. LAS TABLAS,40.512455,-3.6677145
FUE_08_0004,8.0,FUENCARRAL-EL PARDO,"AVDA MONTECARMELO, 10",40.508796,-3.7032275
FUE_08_0005,8.0,FUENCARRAL-EL PARDO,A.V.C. MONTECARMELO,40.5091547,-3.6906404
FUE_08_0006,8.0,FUENCARRAL-EL PARDO,"A.V.C. MONTECARMELO 
(P.K. 56,940)",40.5056435,-3.7101618
FUE_08_0008,8.0,FUENCARRAL-EL PARDO,A.V.C. LAS TABLAS,40.5031402,-3.6613976
FUE_08_0009,8.0,FUENCARRAL-EL PARDO,A.V.C. LAS TABLAS,40.5028501,-3.6614738
FUE_08_0010,8.0,FUENCARRAL-EL PARDO,"SIERRA DE ATAPUERCA, 49",40.5086157,-3.663924
FUE_08_0011,8.0,FUENCARRAL-EL PARDO,A.V.C. ARROYOFRESNO,40.4968238,-3.7193197
FUE_08_0015,8.0,FUENCARRAL-EL PARDO,C/GABRIELA MISTRAL N4,40.4799479,-3.7364268
FUE_08_0017,8.0,FUENCARRAL-EL PARDO,A.V.C. FUENTELARREINA,40.4789646,-3.7394517
FUE_08_0020,8.0,FUENCARRAL-EL PARDO,PARQUE FUENTELARREINA,40.4820188,-3.7319023
FUE_08_0025,8.0,FUENCARRAL-EL PARDO,PARQUE RAMON GOMEZ DE LA SERNA,40.4834454,-3.7280888
FUE_08_0026,8.0,FUENCARRAL-EL PARDO,PARQUE RAMON GOMEZ DE LA SERNA,40.4836338,-3.7282249
FUE_08_0027,8.0,FUENCARRAL-EL PARDO,Z.V. JULIO CALVO,40.4821077,-3.7226669
FUE_08_0029,8.0,FUENCARRAL-EL PARDO,"E.D. 8-4 ""LACOMA""",40.4833608,-3.7223169
FUE_08_0030,8.0,FUENCARRAL-EL PARDO,Z.V. LA COMA,40.4852108,-3.7250261
FUE_08_0034,8.0,FUENCARRAL-EL PARDO,PARQUE VALLE DE ENMEDIO Y ALREDEDORES,40.4886619,-3.7221948
FUE_08_0035,8.0,FUENCARRAL-EL PARDO,PARQUE VALLE DE ENMEDIO Y ALREDEDORES,40.4882387,-3.7196114
FUE_08_0038,8.0,FUENCARRAL-EL PARDO,PARC. NOROESTE,40.4814461,-3.7181708
FUE_08_0039,8.0,FUENCARRAL-EL PARDO,PARC. NOROESTE,40.4796601,-3.7191921
FUE_08_0040,8.0,FUENCARRAL-EL PARDO,PARQUE DE LA SUPERMANZANA 5,40.4812267,-3.7111855
FUE_08_0042,8.0,FUENCARRAL-EL PARDO,BETANZOS - FERMIN CABALLERO,40.4811834,-3.7137018
FUE_08_0044,8.0,FUENCARRAL-EL PARDO,SUPERMANZANA 6 B PILAR C/A. LOPEZ AGUADO,40.4831953,-3.6996464
FUE_08_0045,8.0,FUENCARRAL-EL PARDO,POL. MANILA Y POL. CLAUDIETA,40.4814688,-3.6968994
FUE_08_0046,8.0,FUENCARRAL-EL PARDO,"DOCTOR RAMON CASTROVIEJO, 3",40.4799331,-3.713322
FUE_08_0047,8.0,FUENCARRAL-EL PARDO,"AVDA. DE BETANZOS,77",40.480294,-3.7135094
FUE_08_0048,8.0,FUENCARRAL-EL PARDO,AVDA. DE LA ILUSTRACION,40.4807362,-3.7118982
FUE_08_0052,8.0,FUENCARRAL-EL PARDO,POL. 23-B V.V.V. (5¦ FASE),40.4735465,-3.7181038
FUE_08_0053,8.0,FUENCARRAL-EL PARDO,POL. 24 V.V.V.,40.4740007,-3.7204507
FUE_08_0056,8.0,FUENCARRAL-EL PARDO,PARQUE DE LA ALCAZABA,40.4750327,-3.7070895
FUE_08_0057,8.0,FUENCARRAL-EL PARDO,PARQUE DE LA ALCAZABA,40.4752877,-3.7056061
FUE_08_0062,8.0,FUENCARRAL-EL PARDO,PARQUE DE LA ALCAZABA,40.4728517,-3.7074504
FUE_08_0063,8.0,FUENCARRAL-EL PARDO,"SINESIO DELGADO, 22",40.4751443,-3.7000977
FUE_08_0064,8.0,FUENCARRAL-EL PARDO,SINESIO DELGADO,40.4744023,-3.7019256
FUE_08_0065,8.0,FUENCARRAL-EL PARDO,SINESIO DELGADO,40.4711742,-3.712211
FUE_08_0066,8.0,FUENCARRAL-EL PARDO,CELANOVA - BETANZOS,40.4718203,-3.7131398
FUE_08_0067,8.0,FUENCARRAL-EL PARDO,PARQUE ARROYO DE LOS PINOS,40.4726601,-3.7236264
FUE_08_0070,8.0,FUENCARRAL-EL PARDO,PZA. - C/ MELCHOR FERNANDEZ ALMAGRO,40.4752915,-3.7108882
FUE_08_0071,8.0,FUENCARRAL-EL PARDO,CALLE FINISTERRE N 19,40.4779597,-3.7023287
FUE_08_0075,8.0,FUENCARRAL-EL PARDO,POLIDEPORTIVO B DEL PILAR,40.4789539,-3.6923463
FUE_08_0076,8.0,FUENCARRAL-EL PARDO,PARQUE DEL NORTE,40.4809457,-3.6956847
FUE_08_0077,8.0,FUENCARRAL-EL PARDO,PARQUE DEL NORTE,40.4812817,-3.6998999
FUE_08_0078,8.0,FUENCARRAL-EL PARDO,PARQUE DEL NORTE,40.4809825,-3.6985857
FUE_08_0081,8.0,FUENCARRAL-EL PARDO,PARQUE DEL NORTE,40.4802335,-3.6947933
FUE_08_0083,8.0,FUENCARRAL-EL PARDO,PARQUE DEL NORTE,40.4811089,-3.7013069
FUE_08_0084,8.0,FUENCARRAL-EL PARDO,PARQUE DEL NORTE,40.482074,-3.6994451
FUE_08_0085,8.0,FUENCARRAL-EL PARDO,PARQUE DEL NORTE,40.4815699,-3.6995455
FUE_08_0086,8.0,FUENCARRAL-EL PARDO,PARQUE DEL NORTE,40.4815085,-3.6984042
FUE_08_0087,8.0,FUENCARRAL-EL PARDO,"CALLE SANGENJO, 31",40.4858424,-3.6996546
FUE_08_0088,8.0,FUENCARRAL-EL PARDO,PARQUE DE LA SUPERMANZANA 7,40.4849319,-3.7020485
FUE_08_0090,8.0,FUENCARRAL-EL PARDO,POL. 26 V.V.V. S.ESTE,40.4887613,-3.7014129
FUE_08_0093,8.0,FUENCARRAL-EL PARDO,POL. ALMACENES E.D. 8-3,40.490759,-3.6894091
FUE_08_0094,8.0,FUENCARRAL-EL PARDO,POLG. INDUSTRIAL FUENCARRAL - MALMEA,40.4901411,-3.6839133
FUE_08_0097,8.0,FUENCARRAL-EL PARDO,PARQUE ARROYO FRESNO,40.4919077,-3.7229588
FUE_08_0098,8.0,FUENCARRAL-EL PARDO,PARQUE ARROYO FRESNO,40.4944715,-3.7188995
FUE_08_0100,8.0,FUENCARRAL-EL PARDO,PARQUE NURIA,40.4945935,-3.7115316
FUE_08_0101,8.0,FUENCARRAL-EL PARDO,POLG.Z.N.CONSOL. Y N.CONSOL. (PIP),40.4923387,-3.7073032
FUE_08_0102,8.0,FUENCARRAL-EL PARDO,POLG.Z.N.CONSOL. Y N.CONSOL. (PIP),40.4935608,-3.708406
FUE_08_0103,8.0,FUENCARRAL-EL PARDO,POBLADO A,40.4909002,-3.6967703
FUE_08_0104,8.0,FUENCARRAL-EL PARDO,HERRERA ORIA Y MANRESA (POLD. FUENCARRAL),40.4911968,-3.6942474
FUE_08_0108,8.0,FUENCARRAL-EL PARDO,LOS TRES OLIVOS,40.5022884,-3.6925531
FUE_08_0109,8.0,FUENCARRAL-EL PARDO,PARQUE SANTA ANA 2¦ FASE,40.4971251,-3.6944034
FUE_08_0111,8.0,FUENCARRAL-EL PARDO,PARQUE SANTA ANA 2¦ FASE,40.4977066,-3.6946393
FUE_08_0114,8.0,FUENCARRAL-EL PARDO,POBLADO DIRIGIDO DE FUENCARRAL,40.4919299,-3.6919415
FUE_08_0115,8.0,FUENCARRAL-EL PARDO,CALLE ANGEL MUGICA N 9,40.4851401,-3.6859371
FUE_08_0117,8.0,FUENCARRAL-EL PARDO,PARQUE POL. 26 (C/ CARDENAL HERRERA ORIA),40.4852683,-3.7081392
FUE_08_0118,8.0,FUENCARRAL-EL PARDO,COLONIA MINGORRUBIO 4¦ FASE,40.5324431,-3.7798726
FUE_08_0119,8.0,FUENCARRAL-EL PARDO,COLONIA MINGORRUBIO 4¦ FASE,40.5305974,-3.7798359
FUE_08_0120,8.0,FUENCARRAL-EL PARDO,COLONIA MINGORRUBIO 1¦ FASE,40.5330997,-3.7820303
FUE_08_0121,8.0,FUENCARRAL-EL PARDO,COLONIA MINGORRUBIO 1¦ FASE,40.5347283,-3.7819173
FUE_08_0127,8.0,FUENCARRAL-EL PARDO,PARQUE DE LA ALCAZABA,40.4758671,-3.7052713
FUE_08_0129,8.0,FUENCARRAL-EL PARDO,PARQUE DEL NORTE,40.4804293,-3.6963807
FUE_08_0130,8.0,FUENCARRAL-EL PARDO,PZA. - C/ ISLA AROSA C/ FERMIN CABALLERO,40.4814946,-3.7162125
FUE_08_0131,8.0,FUENCARRAL-EL PARDO,PARQUE DEL PUEBLO DE EL PARDO,40.5197323,-3.7762772
FUE_08_0133,8.0,FUENCARRAL-EL PARDO,SUPERMANZANA 6 B PILAR C/A. LOPEZ AGUADO,40.4817192,-3.7030916
FUE_08_0137,8.0,FUENCARRAL-EL PARDO,CL SANDALIO LOPEZ N:1,40.4928446,-3.6891253
FUE_08_0141,8.0,FUENCARRAL-EL PARDO,C/ ALGARROBO 34,40.5013782,-3.7022617
FUE_08_0143,8.0,FUENCARRAL-EL PARDO,PARQUE DEL NORTE,40.4799772,-3.6910703
FUE_08_0144,8.0,FUENCARRAL-EL PARDO,PARQUE DEL NORTE,40.4802601,-3.692424
FUE_08_0146,8.0,FUENCARRAL-EL PARDO,CALLE SIERRA DE ATAPUERCA,40.5061777,-3.666223
FUE_08_0147,8.0,FUENCARRAL-EL PARDO,CALLE MARIA DE MAEZTU 148,40.4966663,-3.7217245
FUE_08_0148,8.0,FUENCARRAL-EL PARDO,CALLE MARIA DE MAEZTU 118,40.4946076,-3.7231167
FUE_08_0149,8.0,FUENCARRAL-EL PARDO,CALLE MARIA DE MAEZTU 110,40.4933319,-3.7247266
FUE_08_0150,8.0,FUENCARRAL-EL PARDO,C/JOAQUIN LORENZO FRENTE AL N 32,40.4719139,-3.7279759
FUE_08_0151,8.0,FUENCARRAL-EL PARDO,CALLE SANTO DOMINGO DE LA CALZADA,40.5074829,-3.6807133
FUE_08_0152,8.0,FUENCARRAL-EL PARDO,PARQUE DE LA ALCAZABA,40.4732627,-3.7066402
FUE_08_0153,8.0,FUENCARRAL-EL PARDO,"яCALLE FERMIN CABALLERO, 84",40.4797668,-3.7175236
FUE_08_0154,8.0,FUENCARRAL-EL PARDO,CALLE MONFORTE DE LEMOS 34,40.4787026,-3.7084618
FUE_08_0155,8.0,FUENCARRAL-EL PARDO,CALLE MENCHU AJALMIL 2,40.4924162,-3.7265506
FUE_08_0156,8.0,FUENCARRAL-EL PARDO,CALLE MADRE TERESA DE CALCUTA 61,40.4911602,-3.7280357
FUE_08_0157,8.0,FUENCARRAL-EL PARDO,AV. CAMINO DE SANTIAGO N 25,40.5022931,-3.6736062
FUE_08_0158,8.0,FUENCARRAL-EL PARDO,CALLE DE SAN JUAN DE ORTEGA N 86,40.5077902,-3.6755751
FUE_08_0159,8.0,FUENCARRAL-EL PARDO,"MONASTERIO DE OSEIRA, 2",40.5081151,-3.6980729
FUE_08_0160,8.0,FUENCARRAL-EL PARDO,AVENIDA VENTISQUERO DE LA CONDESA 2,40.4833708,-3.7153918
FUE_08_0161,8.0,FUENCARRAL-EL PARDO,CALLE PUENTE LA REINA N 48,40.5027337,-3.677338
FUE_08_0162,8.0,FUENCARRAL-EL PARDO,PZA. TRES OLIVOS 26,40.5012584,-3.6901867
FUE_08_0163,8.0,FUENCARRAL-EL PARDO,CALLE BRAILLE 7,40.4954887,-3.6925175
FUE_08_0164,8.0,FUENCARRAL-EL PARDO,CALLE ALONSO QUIJANO 45,40.5018806,-3.6880966
FUE_08_0165,8.0,FUENCARRAL-EL PARDO,CALLE BERDUN 2,40.5071786,-3.6790942
FUE_08_0166,8.0,FUENCARRAL-EL PARDO,AV. CAMINO DE SANTIAGO 50,40.5082825,-3.6697717
FUE_08_0167,8.0,FUENCARRAL-EL PARDO,PASEO ALAMEDILLAS 6,40.4982422,-3.6957184
FUE_08_0168,8.0,FUENCARRAL-EL PARDO,CALLE VILLAVA 15,40.500742,-3.6762848
FUE_08_0169,8.0,FUENCARRAL-EL PARDO,CALLE JOAQUIN LORENZO 5B,40.4719141,-3.7214262
FUE_08_0170,8.0,FUENCARRAL-EL PARDO,AV. PADRE CIPRIANO FRENTE N 23,40.5184012,-3.7780992
FUE_08_0171,8.0,FUENCARRAL-EL PARDO,MARIA DE MAEZTU 7,40.4882524,-3.7312902
FUE_08_0172,8.0,FUENCARRAL-EL PARDO,CALLE SAN MILLAN DE LA COGOLLA N 14,40.5027895,-3.6679269
FUE_08_0173,8.0,FUENCARRAL-EL PARDO,C/SANGENJO N29,40.4857749,-3.7002034
FUE_08_0174,8.0,FUENCARRAL-EL PARDO,"CALLE MARIA DE MAEZTU,1",40.4872946,-3.7328584
FUE_08_0175,8.0,FUENCARRAL-EL PARDO,"CALLE PALAS DE REY, 17",40.5103358,-3.6725856
FUE_08_0176,8.0,FUENCARRAL-EL PARDO,"CALLE SAN JUAN DE ORTEGA, 20 E",40.5035581,-3.6749269
FUE_08_0179,8.0,FUENCARRAL-EL PARDO,"C/PICO BALAITUS, 16 C/V PZA. PICO SALVAGUARDA,5",40.4825496,-3.7204697
FUE_08_0180,8.0,FUENCARRAL-EL PARDO,"C/ PICO MAJALASNA, 3",40.4833248,-3.7214388
FUE_08_0181,8.0,FUENCARRAL-EL PARDO,"C/VILLACASTIN 14 POSTERIOR C/V CALLE HONTALBILLA, 12",40.4923158,-3.6901314
FUE_08_0183,8.0,FUENCARRAL-EL PARDO,"AV. MONASTERIO DE EL ESCORIAL, 80",40.5088683,-3.6935057
FUE_08_0184,8.0,FUENCARRAL-EL PARDO,"COSTA BRAVA, 30",40.4971574,-3.7132303
FUE_08_0185,8.0,FUENCARRAL-EL PARDO,"C/ MANUEL VILLARTA, C.V. C/ ISLAS PALAOS",40.4963644,-3.6858494
FUE_08_0186,8.0,FUENCARRAL-EL PARDO,"PASEO SAN MILLAN DE LA COGOLLA, 5 B",40.504393,-3.6700356
FUE_08_0187,8.0,FUENCARRAL-EL PARDO,AVD BETANZOS 37,40.4730161,-3.7122776
FB_140001,8.0,FUENCARRAL-EL PARDO,DISTRITO C - LAS TABLAS,40.5164617,-3.6675316
FB_140002,8.0,FUENCARRAL-EL PARDO,DISTRITO C - LAS TABLAS,40.5118457,-3.6621919
FB_140003,8.0,FUENCARRAL-EL PARDO,DISTRITO C - LAS TABLAS,40.5127518,-3.6598648
F4T01,8.0,FUENCARRAL-EL PARDO,CUATRO TORRES,40.4769654,-3.6874869
F4T02,8.0,FUENCARRAL-EL PARDO,CUATRO TORRES,40.4771316,-3.6880464
F4T03,8.0,FUENCARRAL-EL PARDO,CUATRO TORRES,40.4773054,-3.687892
F4T04,8.0,FUENCARRAL-EL PARDO,CUATRO TORRES,40.4780136,-3.6878369
F4T05,8.0,FUENCARRAL-EL PARDO,CUATRO TORRES,40.4777674,-3.6878188
F4T06,8.0,FUENCARRAL-EL PARDO,CUATRO TORRES,40.4779365,-3.6874394
F4T07,8.0,FUENCARRAL-EL PARDO,CUATRO TORRES,40.4777063,-3.6874761
F4T08,8.0,FUENCARRAL-EL PARDO,CUATRO TORRES,40.4777347,-3.6872076
F4T09,8.0,FUENCARRAL-EL PARDO,CUATRO TORRES,40.4777347,-3.6872076
F4T10,8.0,FUENCARRAL-EL PARDO,CUATRO TORRES,40.4777347,-3.6872076
F4T11,8.0,FUENCARRAL-EL PARDO,CUATRO TORRES,40.4777347,-3.6872076
FUE_09_0001,9.0,MONCLOA-ARAVACA,CALLE 30,40.4741433,-3.743302
FUE_09_0002,9.0,MONCLOA-ARAVACA,TALUD PTE. DE LOS FRANCESES,40.4338883,-3.7354707
FUE_09_0003,9.0,MONCLOA-ARAVACA,P ANICETO MARINAS,40.4260951,-3.7279446
FUE_09_0004,9.0,MONCLOA-ARAVACA,P ANICETO MARINAS,40.4284864,-3.7309212
FUE_09_0005,9.0,MONCLOA-ARAVACA,P ANICETO MARINAS,40.4330739,-3.7352043
FUE_09_0006,9.0,MONCLOA-ARAVACA,RIBERA DEL MANZANARES - MARGEN DERECHA,40.4310742,-3.734949
FUE_09_0008,9.0,MONCLOA-ARAVACA,RIBERA DEL MANZANARES - MARGEN DERECHA,40.4253026,-3.7279646
FUE_09_0009,9.0,MONCLOA-ARAVACA,RIBERA DEL MANZANARES - MARGEN DERECHA,40.4239551,-3.7261709
FUE_09_0010,9.0,MONCLOA-ARAVACA,COL. DEL MANZANARES,40.425994,-3.7313208
FUE_09_0011,9.0,MONCLOA-ARAVACA,COL. DEL MANZANARES,40.4261789,-3.7318184
FUE_09_0016,9.0,MONCLOA-ARAVACA,LA HORCA,40.4544428,-3.7903485
FUE_09_0017,9.0,MONCLOA-ARAVACA,P ERMITA - VILLA ADRIANA,40.4618897,-3.7803464
FUE_09_0018,9.0,MONCLOA-ARAVACA,P ERMITA - VILLA ADRIANA,40.4620442,-3.7812269
FUE_09_0019,9.0,MONCLOA-ARAVACA,JARDIN DE LA PZA. DE LA IGLESIA ARAVACA,40.4567963,-3.7831915
FUE_09_0020,9.0,MONCLOA-ARAVACA,JARDINES C/ DE LA BAJA DE LA IGLESIA,40.4561177,-3.7819561
FUE_09_0021,9.0,MONCLOA-ARAVACA,JARDINES PINILLA,40.4544603,-3.7788298
FUE_09_0022,9.0,MONCLOA-ARAVACA,PARQUE ARROYO POZUELO,40.4515357,-3.7705755
FUE_09_0023,9.0,MONCLOA-ARAVACA,PARQUE ARROYO POZUELO,40.4516384,-3.768614
FUE_09_0024,9.0,MONCLOA-ARAVACA,PARQUE ARROYO POZUELO,40.4520845,-3.7702594
FUE_09_0025,9.0,MONCLOA-ARAVACA,PARQUE ARROYO POZUELO,40.452753,-3.7772337
FUE_09_0026,9.0,MONCLOA-ARAVACA,PARQUE ARROYO POZUELO,40.4534999,-3.776105
FUE_09_0027,9.0,MONCLOA-ARAVACA,PARQUE DE LA BOMBILLA,40.4318035,-3.7317454
FUE_09_0028,9.0,MONCLOA-ARAVACA,PARQUE DE LA BOMBILLA,40.4327044,-3.7325224
FUE_09_0029,9.0,MONCLOA-ARAVACA,PARQUE DE LA BOMBILLA,40.4266603,-3.7263729
FUE_09_0030,9.0,MONCLOA-ARAVACA,PARQUE DE LA BOMBILLA,40.427644,-3.7278388
FUE_09_0032,9.0,MONCLOA-ARAVACA,ROSAS DE ARAVACA,40.451191,-3.7821372
FUE_09_0033,9.0,MONCLOA-ARAVACA,CERRO VALDECAHONDE,40.4477453,-3.7892072
FUE_09_0036,9.0,MONCLOA-ARAVACA,EL DISCO,40.4495597,-3.7875571
FUE_09_0037,9.0,MONCLOA-ARAVACA,EL DISCO,40.4502619,-3.7900145
FUE_09_0038,9.0,MONCLOA-ARAVACA,PINAR ROSA LUXEMBURGO,40.4509135,-3.7697781
FUE_09_0039,9.0,MONCLOA-ARAVACA,COL. ROSA LUXEMBURGO,40.449861,-3.7656287
FUE_09_0040,9.0,MONCLOA-ARAVACA,COL. ROSA LUXEMBURGO,40.4497578,-3.774025
FUE_09_0041,9.0,MONCLOA-ARAVACA,COL. ROSA LUXEMBURGO,40.4507046,-3.7739983
FUE_09_0042,9.0,MONCLOA-ARAVACA,COL. ROSA LUXEMBURGO,40.4500939,-3.7724748
FUE_09_0043,9.0,MONCLOA-ARAVACA,COL. ROSA LUXEMBURGO,40.4501866,-3.7739802
FUE_09_0044,9.0,MONCLOA-ARAVACA,CALLE ROSA DE LUXEMBURGO 56,40.4514354,-3.7771309
FUE_09_0045,9.0,MONCLOA-ARAVACA,COL. ROSA LUXEMBURGO,40.4510048,-3.7777306
FUE_09_0046,9.0,MONCLOA-ARAVACA,COL. ROSA LUXEMBURGO,40.4519365,-3.7787758
FUE_09_0047,9.0,MONCLOA-ARAVACA,COL. ROSA LUXEMBURGO,40.4492799,-3.7693694
FUE_09_0050,9.0,MONCLOA-ARAVACA,"PO PINTOR ROSALES, DEL N:50",40.4290598,-3.7220761
FUE_09_0051,9.0,MONCLOA-ARAVACA,CALLE ISLA DE OZA CV CALLE ISLA DE ALEGRANZA,40.4634952,-3.7211754
FUE_09_0052,9.0,MONCLOA-ARAVACA,LAS ISLAS,40.461268,-3.7236326
FUE_09_0053,9.0,MONCLOA-ARAVACA,CALLE ISLA DE OZA N 61,40.4640913,-3.7207642
FUE_09_0055,9.0,MONCLOA-ARAVACA,PASEO DE PINTOR ROSALES ESQ PSO MORET,40.4325308,-3.7253705
FUE_09_0056,9.0,MONCLOA-ARAVACA,PASEO DE PINTOR ROSALES N 16,40.4260154,-3.7185694
FUE_09_0057,9.0,MONCLOA-ARAVACA,CIUDAD DE LOS POETAS,40.4665941,-3.7184548
FUE_09_0058,9.0,MONCLOA-ARAVACA,SACONIA,40.4675232,-3.7201319
FUE_09_0059,9.0,MONCLOA-ARAVACA,CIUDAD DE LOS POETAS,40.4664547,-3.7182323
FUE_09_0060,9.0,MONCLOA-ARAVACA,CIUDAD DE LOS POETAS,40.466967,-3.7169335
FUE_09_0061,9.0,MONCLOA-ARAVACA,CIUDAD DE LOS POETAS,40.4667879,-3.7161716
FUE_09_0062,9.0,MONCLOA-ARAVACA,CALLE PRINCESA 33,40.4282839,-3.7147217
FUE_09_0063,9.0,MONCLOA-ARAVACA,PAR VALDERROMAN,40.4703771,-3.7206548
FUE_09_0065,9.0,MONCLOA-ARAVACA,PARQUE DE FRANCOS RDGUEZ.,40.4529432,-3.7161562
FUE_09_0066,9.0,MONCLOA-ARAVACA,PARQUE DE FRANCOS RDGUEZ.,40.4536639,-3.7153416
FUE_09_0068,9.0,MONCLOA-ARAVACA,PARQUE DE FRANCOS RDGUEZ.,40.4535185,-3.714372
FUE_09_0073,9.0,MONCLOA-ARAVACA,RAFAEL VILLA,40.4717507,-3.8254494
FUE_09_0074,9.0,MONCLOA-ARAVACA,DR. FEDERICO RUBIO Y GALI,40.4570605,-3.7141553
FUE_09_0076,9.0,MONCLOA-ARAVACA,PARQUE DEL CEMENTERIO,40.4665386,-3.7880153
FUE_09_0078,9.0,MONCLOA-ARAVACA,PARQUE DEL CEMENTERIO,40.4669564,-3.78669
FUE_09_0079,9.0,MONCLOA-ARAVACA,CABELLERA DE BERENICE 42,40.4707636,-3.787764
FUE_09_0081,9.0,MONCLOA-ARAVACA,PARQUE FEDERICO AGUSTI,40.4738763,-3.8311625
FUE_09_0084,9.0,MONCLOA-ARAVACA,COL. VALDEZARZA,40.4623953,-3.7122069
FUE_09_0085,9.0,MONCLOA-ARAVACA,COL. VALDEZARZA,40.4647185,-3.7121059
FUE_09_0086,9.0,MONCLOA-ARAVACA,COL. VALDEZARZA,40.4648386,-3.7163765
FUE_09_0087,9.0,MONCLOA-ARAVACA,AMPLIACION PARQUE ARROYO  POZUELO,40.4530499,-3.7902695
FUE_09_0088,9.0,MONCLOA-ARAVACA,AMPLIACION PARQUE ARROYO  POZUELO,40.4522312,-3.792378
FUE_09_0089,9.0,MONCLOA-ARAVACA,AMPLIACION PARQUE ARROYO  POZUELO,40.4533845,-3.7883206
FUE_09_0090,9.0,MONCLOA-ARAVACA,CALLE  HUMERA 40. AMPLIACION PARQUE ARROYO  POZUELO,40.4527349,-3.7828812
FUE_09_0092,9.0,MONCLOA-ARAVACA,"GTA RIO ZANCARA, 1",40.4527672,-3.779448
FUE_09_0094,9.0,MONCLOA-ARAVACA,P ANICETO MARINAS,40.4238109,-3.725048
FUE_09_0095,9.0,MONCLOA-ARAVACA,INTBL. MOZART,40.4229872,-3.7225944
FUE_09_0096,9.0,MONCLOA-ARAVACA,CAMINO BARRIAL,40.4590011,-3.7966935
FUE_09_0099,9.0,MONCLOA-ARAVACA,CL ALTOZANO FRENTE AL N 4,40.4577755,-3.7802171
FUE_09_0101,9.0,MONCLOA-ARAVACA,CL SAN MARTIN DE PORRES N6,40.4681733,-3.7273152
FUE_09_0116,9.0,MONCLOA-ARAVACA,CL PEREZ DE VICTORIA,40.4572717,-3.7832076
FUE_09_0119,9.0,MONCLOA-ARAVACA,C/ RIBERA DE MANZANARES FRENTE AL N 123,40.4252854,-3.7352076
FUE_09_0121,9.0,MONCLOA-ARAVACA,CALLE ANICETO MARINAS FRENTE AL 106,40.4307669,-3.7337681
FUE_09_0123,9.0,MONCLOA-ARAVACA,CALLE VALDERRODRIGO N 46,40.4689546,-3.7196395
FUE_09_0125,9.0,MONCLOA-ARAVACA,PASEO DEL REY 26,40.4227437,-3.7196399
FUE_09_0127,9.0,MONCLOA-ARAVACA,CALLE VALLS FERRERA 5,40.4541624,-3.7157901
FUE_09_0129,9.0,MONCLOA-ARAVACA,CALLE ARGENTONA 23,40.4649131,-3.7639169
FUE_09_0131,9.0,MONCLOA-ARAVACA,AV. EUROPA 36,40.4451903,-3.7885376
FUE_09_0132,9.0,MONCLOA-ARAVACA,"P JUAN XXIII N 21, RECTOR ROYO-VILLANOVA 10C",40.4516923,-3.7144754
FUE_09_0133,9.0,MONCLOA-ARAVACA,"PASEO MORET 1, CV RUPERTO CHAPI",40.4349061,-3.7198673
FUE_09_0134,9.0,MONCLOA-ARAVACA,P COMANDANTE FORTEA FRENTE AL N 12,40.4249831,-3.7291675
FUE_09_0135,9.0,MONCLOA-ARAVACA,DOCTOR FEDERICO RUBIO Y GALI 102,40.455995,-3.7133788
FUE_09_0136,9.0,MONCLOA-ARAVACA,AV. VALDEMARIN 67,40.4700073,-3.7771848
FUE_09_0137,9.0,MONCLOA-ARAVACA,"RISCO DE LOS CLAVELES, 2  C/V A C/ ZARZA",40.4579498,-3.7864378
FUE_09_0138,9.0,MONCLOA-ARAVACA,"CALLE DE ANA TERESA, 2",40.4607679,-3.7802188
FB_900001,9.0,MONCLOA-ARAVACA,MADRID RIO,40.4279184,-3.7302117
FB_900002,9.0,MONCLOA-ARAVACA,MADRID RIO,40.4184166,-3.7227561
FB_900003,9.0,MONCLOA-ARAVACA,MADRID RIO,40.4215973,-3.7235387
FB_900004,9.0,MONCLOA-ARAVACA,MADRID RIO,40.4215891,-3.7235433
FB_900005,9.0,MONCLOA-ARAVACA,MADRID RIO,40.42106,-3.7234504
FB_900006,9.0,MONCLOA-ARAVACA,MADRID RIO,40.4210546,-3.7234421
FB_900007,9.0,MONCLOA-ARAVACA,MADRID RIO,40.4210484,-3.7234338
FB_900008,9.0,MONCLOA-ARAVACA,MADRID RIO,40.4111369,-3.7386352
FB_900009,9.0,MONCLOA-ARAVACA,MADRID RIO,40.4124506,-3.7353553
FB_900010,9.0,MONCLOA-ARAVACA,MADRID RIO,40.4130696,-3.7336472
FB_900011,9.0,MONCLOA-ARAVACA,MADRID RIO,40.414325,-3.7302922
FB_900012,9.0,MONCLOA-ARAVACA,MADRID RIO,40.4161503,-3.7254275
FB_26_1,9.0,MONCLOA-ARAVACA,PZA. ESPANA,40.4233984,-3.7156222
FB_26_2,9.0,MONCLOA-ARAVACA,PZA. ESPANA,40.4230216,-3.7147421
FB_26_3,9.0,MONCLOA-ARAVACA,PZA. ESPANA,40.4227943,-3.7134578
FB_26_4,9.0,MONCLOA-ARAVACA,PZA. ESPANA,40.4231674,-3.7130245
FB_26_5,9.0,MONCLOA-ARAVACA,PZA. ESPANA,40.4226825,-3.7128249
FUE_10_0001,10.0,LATINA,"ALUCHE - SESENA  A.P.D 10,3",40.3971227,-3.766709
FUE_10_0003,10.0,LATINA,"CALLE DE SOLEDAD CAZORLA, 23",40.3753993,-3.7707563
FUE_10_0006,10.0,LATINA,POBLADO DIRIGIDO LOS CARMENES,40.3960931,-3.7411656
FUE_10_0013,10.0,LATINA,PARQUE DE CERRO ALMODOVAR - 1¦ - 2¦ FASE,40.3951799,-3.7479925
FUE_10_0014,10.0,LATINA,PARQUE DE CERRO ALMODOVAR - 1¦ - 2¦ FASE,40.3932404,-3.74976
FUE_10_0015,10.0,LATINA,PARQUE DE CERRO ALMODOVAR - 1¦ - 2¦ FASE,40.3938367,-3.7470418
FUE_10_0016,10.0,LATINA,CALLE ALHAMBRA N 29,40.3996794,-3.743992
FUE_10_0017,10.0,LATINA,CUNA VERDE LA LATINA,40.4005774,-3.7389978
FUE_10_0018,10.0,LATINA,CUNA VERDE LA LATINA,40.4013653,-3.7375635
FUE_10_0019,10.0,LATINA,CUNA VERDE LA LATINA,40.3999645,-3.7559141
FUE_10_0020,10.0,LATINA,CUNA VERDE LA LATINA,40.401015,-3.756366
FUE_10_0022,10.0,LATINA,CUNA VERDE LA LATINA,40.4009776,-3.7582297
FUE_10_0024,10.0,LATINA,CUNA VERDE LA LATINA,40.4009351,-3.7590735
FUE_10_0025,10.0,LATINA,CUNA VERDE LA LATINA,40.4020631,-3.7585523
FUE_10_0029,10.0,LATINA,CUNA VERDE LA LATINA,40.4000547,-3.7473587
FUE_10_0032,10.0,LATINA,CUNA VERDE LA LATINA,40.4061622,-3.7257616
FUE_10_0035,10.0,LATINA,PARQUE DE ALUCHE - ARIAS NAVARRO,40.3954339,-3.7590399
FUE_10_0037,10.0,LATINA,Z.A. PAU CARABANCHEL - UNIDAD III,40.3701893,-3.7653923
FUE_10_0038,10.0,LATINA,Z.A. PAU CARABANCHEL - UNIDAD III,40.3683686,-3.7646875
FUE_10_0039,10.0,LATINA,Z.A. PARQUE CARAMUEL,40.4077979,-3.7295004
FUE_10_0040,10.0,LATINA,PZA. STA. CRISTINA - S. CRISPIN,40.4141924,-3.727259
FUE_10_0041,10.0,LATINA,COL. DEHESA DEL PPE.,40.3818007,-3.7910781
FUE_10_0043,10.0,LATINA,COL. DEHESA DEL PPE.,40.3810378,-3.7913974
FUE_10_0044,10.0,LATINA,COL. DEHESA DEL PPE.,40.3811841,-3.7899329
FUE_10_0045,10.0,LATINA,COL. DEHESA DEL PPE.,40.3799233,-3.7929101
FUE_10_0046,10.0,LATINA,COL. DEHESA DEL PPE.,40.378151,-3.7961167
FUE_10_0047,10.0,LATINA,COL. DEHESA DEL PPE.,40.3794339,-3.794841
FUE_10_0048,10.0,LATINA,COL. DEHESA DEL PPE.,40.3789893,-3.795329
FUE_10_0049,10.0,LATINA,COL. DEHESA DEL PPE.,40.3774065,-3.7970076
FUE_10_0050,10.0,LATINA,"CALLE NAVIA, 15",40.3859057,-3.766613
FUE_10_0054,10.0,LATINA,GTA. DE LOS CARMENES,40.3949765,-3.7444791
FUE_10_0057,10.0,LATINA,JARDINES DE LA ALHAMBRA - CARLOS FUENTES,40.4025115,-3.7442578
FUE_10_0058,10.0,LATINA,CINE,40.3943139,-3.7743332
FUE_10_0059,10.0,LATINA,PZA. DE PATRICIO MNEZ.,40.3964829,-3.770553
FUE_10_0060,10.0,LATINA,COL. MOLINO DE VIENTO,40.4090439,-3.7359867
FUE_10_0061,10.0,LATINA,PZA. FRANCISCANOS - NTRA. SRA. ROSARIO,40.4058608,-3.7519762
FUE_10_0064,10.0,LATINA,APARCAMIENTO C/ FTE. DE LIMA,40.383085,-3.7825447
FUE_10_0069,10.0,LATINA,PARQUE EUROPA 3¦ FASE - API 10-07,40.3822803,-3.7823594
FUE_10_0070,10.0,LATINA,Z.A. SECTOR SURBATAN,40.4026035,-3.7528796
FUE_10_0071,10.0,LATINA,JARDINES DE LA COL. CASILDA BUSTOS A,40.3815891,-3.7760449
FUE_10_0073,10.0,LATINA,POBLADO C - CARABANCHEL - ZONAS XIX-XXIV,40.374863,-3.7724576
FUE_10_0082,10.0,LATINA,PARQUE DE LAS CRUCES,40.3775002,-3.7583579
FUE_10_0083,10.0,LATINA,PARQUE DE LAS CRUCES,40.3751385,-3.7593614
FUE_10_0085,10.0,LATINA,PARQUE DE LAS CRUCES,40.3840601,-3.7607953
FUE_10_0086,10.0,LATINA,PARQUE DE LAS CRUCES,40.3835907,-3.7632471
FUE_10_0087,10.0,LATINA,EMPALME CAMPAMENTO,40.3915041,-3.7663533
FUE_10_0088,10.0,LATINA,EMPALME CAMPAMENTO,40.392435,-3.7671608
FUE_10_0089,10.0,LATINA,EMPALME CAMPAMENTO,40.3932365,-3.767624
FUE_10_0091,10.0,LATINA,PARQUE DE ALUCHE - ARIAS NAVARRO,40.3910585,-3.759905
FUE_10_0092,10.0,LATINA,PARQUE DE ALUCHE - ARIAS NAVARRO,40.3893514,-3.7601035
FUE_10_0094,10.0,LATINA,PARQUE DE ALUCHE - ARIAS NAVARRO,40.3915571,-3.7586285
FUE_10_0095,10.0,LATINA,ZA PARQUE CARAMUEL,40.4071186,-3.72773
FUE_10_0097,10.0,LATINA,JARAIZ DE LA VERA,40.4071972,-3.7438985
FUE_10_0098,10.0,LATINA,JARDINES DE LA COL. CASILDA BUSTOS A,40.38193,-3.7725425
FUE_10_0099,10.0,LATINA,CUNA VERDE LA LATINA,40.3997952,-3.7630364
FUE_10_0102,10.0,LATINA,GREGORIO VACAS FRENTE N14,40.4010024,-3.7468528
FUE_10_0103,10.0,LATINA,HIGUERAS ESQ. LUIS PANDO,40.4030621,-3.7455616
FUE_10_0104,10.0,LATINA,C/LATINA N 16,40.4013414,-3.7497614
FUE_10_0108,10.0,LATINA,CALLE CINE N 16,40.3940712,-3.7735647
FUE_10_0109,10.0,LATINA,CALLE CONCEJAL FRANCISCO JOSE JIMENEZ MARTIN CV C/BARBERAN Y COLLAR,40.3965556,-3.7606652
FUE_10_0111,10.0,LATINA,PASEO DE EXTREMADURA 156,40.4100219,-3.739045
FUE_10_0112,10.0,LATINA,CALLE VALLE INCLAN N 68,40.3759485,-3.7758132
FUE_10_0113,10.0,LATINA,CALLE ANSELMO LORENZO N 11,40.3823097,-3.7688782
FUE_10_0114,10.0,LATINA,AV. LAS AGUILAS N 68,40.3814725,-3.7794383
FUE_10_0116,10.0,LATINA,CUNA VERDE LA LATINA,40.4008358,-3.7349858
FUE_10_0117,10.0,LATINA,"PLAZA DEL PATRIARCA EIJO Y GARAY, 2",40.4071657,-3.7373797
FUE_10_0118,10.0,LATINA,CALLE DUQUESA DE PARCENT FRENTE N 116,40.3957104,-3.7519825
FUE_10_0120,10.0,LATINA,"CALLE MONTEHERMOSO, 18",40.3948933,-3.7736358
FUE_10_0122,10.0,LATINA,"CALLE RIOCABADO, 7",40.402665,-3.7383129
FUE_10_0123,10.0,LATINA,"CALLE CUART DE POBLET, 119",40.3973919,-3.750468
FUE_10_0125,10.0,LATINA,"CALLE FUERTE DE NAVIDAD, 34",40.380314,-3.7674953
FUE_10_0126,10.0,LATINA,"CALLE ARENAS DE SAN PEDRO, 29",40.3947538,-3.7795627
FUE_10_0127,10.0,LATINA,"CALLE CEBREROS, 78",40.4054302,-3.7491493
FB_900015,10.0,LATINA,MADRID RIO,40.4050263,-3.7231997
FB_900016,10.0,LATINA,MADRID RIO,40.409154,-3.7222421
FB_900017,10.0,LATINA,MADRID RIO,40.4103099,-3.722515
FB_900018,10.0,LATINA,MADRID RIO,40.4103109,-3.7225055
FB_900019,10.0,LATINA,MADRID RIO,40.4103127,-3.7224961
FUE_11_0004,11.0,CARABANCHEL,PARQUE EMPERATRIZ MARIA DE AUSTRIA,40.3753248,-3.7256113
FUE_11_0014,11.0,CARABANCHEL,PZA. NЄSRA. VALVANERA,40.3924847,-3.7404591
FUE_11_0017,11.0,CARABANCHEL,COL. EXPERIMENTALES,40.3893331,-3.7251161
FUE_11_0036,11.0,CARABANCHEL,"ANTONIO DE LEYVA 25, PARQUE DE COMILLAS",40.3938844,-3.7147177
FUE_11_0043,11.0,CARABANCHEL,LTRL. VIA LUSITANA,40.3783702,-3.7285773
FUE_11_0044,11.0,CARABANCHEL,LTRL. VIA LUSITANA,40.3775308,-3.7295902
FUE_11_0045,11.0,CARABANCHEL,LTRL. VIA LUSITANA,40.3744152,-3.7334168
FUE_11_0046,11.0,CARABANCHEL,LTRL. VIA LUSITANA,40.380676,-3.7257829
FUE_11_0064,11.0,CARABANCHEL,PARQUE EMPERATRIZ MARIA DE AUSTRIA,40.3760305,-3.7271355
FUE_11_0066,11.0,CARABANCHEL,"CALLE CAZALEGAS, 9",40.3770037,-3.7259552
FUE_11_0073,11.0,CARABANCHEL,PARQUE DE LA VOLATERIA Y ENTORNO,40.3729181,-3.7325458
FUE_11_0080,11.0,CARABANCHEL,"AVDA. POBLADOS, 104",40.3733397,-3.7378474
FUE_11_0081,11.0,CARABANCHEL,JARDIN LA CHOCOLATERA,40.3614289,-3.7642664
FUE_11_0082,11.0,CARABANCHEL,JARDIN CUARTEL GRANDE,40.3602331,-3.759819
FUE_11_0084,11.0,CARABANCHEL,PARQUE DE LAS CRUCES,40.374674,-3.7619317
FUE_11_0086,11.0,CARABANCHEL,"CALLE BLANCA, 14",40.3647272,-3.7526342
FUE_11_0087,11.0,CARABANCHEL,"AVDA CARABANCHEL, 53",40.361784,-3.7532911
FUE_11_0088,11.0,CARABANCHEL,PARQUE JACINTO VERDAGUER,40.3949571,-3.7167528
FUE_11_0091,11.0,CARABANCHEL,CALLE AZCOITIA 7,40.3741323,-3.7542846
FUE_11_0092,11.0,CARABANCHEL,PARQUE DE LAS CRUCES,40.3754608,-3.7561142
FUE_11_0094,11.0,CARABANCHEL,ALONDRA - AVECILLA,40.3879863,-3.7360428
FUE_11_0095,11.0,CARABANCHEL,AGUACATE- AVDA PESETA,40.3642084,-3.7438177
FUE_11_0108,11.0,CARABANCHEL,CALLE JOAQUIN TURINA 68,40.372741,-3.758677
FUE_11_0109,11.0,CARABANCHEL,PARQUE DEL PAN BENDITO,40.3743096,-3.7383824
FUE_11_0118,11.0,CARABANCHEL,COL. PARQUE EUGENIA DE MONTIJO,40.3781971,-3.7513902
FUE_11_0127,11.0,CARABANCHEL,PARQUE SAN ISIDRO,40.3981962,-3.7281086
FUE_11_0128,11.0,CARABANCHEL,C/ALGORTA CV C/OROYA,40.3918879,-3.7282419
FUE_11_0129,11.0,CARABANCHEL,C/ TORTA CV C/ PATRIMONIO DE LA HUMANIDAD,40.3643974,-3.7651044
FUE_11_0130,11.0,CARABANCHEL,C/ VIANA N 1,40.384855,-3.719751
FUE_11_0132,11.0,CARABANCHEL,CALLE NUESTRA SENORA DE LA ANTIGUA 52,40.3767253,-3.7407849
FUE_11_0134,11.0,CARABANCHEL,GLORIETA DEL EJERCITO S/N,40.3877276,-3.7449953
FUE_11_0135,11.0,CARABANCHEL,PLAZA DE LA EMPERATRIZ,40.3736834,-3.7512063
FUE_11_0136,11.0,CARABANCHEL,"CALLE ANTONIO ROMERO, 18",40.3744477,-3.7293246
FUE_11_0137,11.0,CARABANCHEL,"CALLE JOSEFA FERNANDEZ BUTERGA, 19",40.3912147,-3.7174659
FUE_11_0138,11.0,CARABANCHEL,"CALLE DE LA OCA, 69",40.3887735,-3.7400761
FUE_11_0139,11.0,CARABANCHEL,"CALLE GENERAL RICARDOS, 53",40.394967,-3.7205262
FUE_11_0140,11.0,CARABANCHEL,"CALLE SUINTILA, 6",40.394615,-3.7285906
FUE_11_0141,11.0,CARABANCHEL,PARQUE SAN ISIDRO,40.3974384,-3.7310622
FUE_11_0142,11.0,CARABANCHEL,"CALLE GUITARRA, 7",40.371547,-3.752919
FB_900021,11.0,CARABANCHEL,MADRID RIO,40.4010074,-3.7223318
FB_900022,11.0,CARABANCHEL,MADRID RIO,40.399417,-3.7176154
FB_900023,11.0,CARABANCHEL,MADRID RIO,40.3954623,-3.7070392
FB_900024,11.0,CARABANCHEL,MADRID RIO,40.3970066,-3.7131781
FB_900025,11.0,CARABANCHEL,MADRID RIO,40.3963619,-3.7097517
FB_900026,11.0,CARABANCHEL,MADRID RIO,40.3963691,-3.7097471
FB_900027,11.0,CARABANCHEL,MADRID RIO,40.3978899,-3.7129623
FB_900028,11.0,CARABANCHEL,MADRID RIO,40.3978845,-3.7129552
FB_900029,11.0,CARABANCHEL,MADRID RIO,40.3978774,-3.712948
FB_900030,11.0,CARABANCHEL,MADRID RIO,40.3970304,-3.7113601
FB_900031,11.0,CARABANCHEL,MADRID RIO,40.3970376,-3.7113543
FB_900032,11.0,CARABANCHEL,MADRID RIO,40.3970439,-3.7113497
FB_900033,11.0,CARABANCHEL,MADRID RIO,40.3949087,-3.705491
FB_900034,11.0,CARABANCHEL,MADRID RIO,40.3949122,-3.7055016
FB_900035,11.0,CARABANCHEL,MADRID RIO,40.3949157,-3.7055111
FUE_12_0006,12.0,USERA,FRONTON B ZOFIO,40.3801751,-3.7179797
FUE_12_0028,12.0,USERA,PARQUE DE PRADOLONGO,40.3735369,-3.7057894
FUE_12_0029,12.0,USERA,COL. DE ALMENDRALES,40.3820709,-3.698985
FUE_12_0030,12.0,USERA,ESPACIOS LIBRES B  ZOFIO II,40.382511,-3.7167106
FUE_12_0031,12.0,USERA,ESPACIOS LIBRES B  ZOFIO II,40.3831497,-3.7156977
FUE_12_0033,12.0,USERA,POBLADO DIRIGIDO ORCASITAS,40.3713623,-3.7128283
FUE_12_0039,12.0,USERA,"CALLE IBARRA, 15. PLAZA DE SESTAO",40.3699679,-3.7164701
FUE_12_0040,12.0,USERA,POBLADO DIRIGIDO ORCASITAS,40.3692521,-3.7180307
FUE_12_0043,12.0,USERA,A.V.C. GTA. DE MALAGA - NUEVO PRADOLONGO,40.3731359,-3.6974381
FUE_12_0048,12.0,USERA,POBLADO DIRIGIDO ORCASITAS,40.37211,-3.7129793
FUE_12_0049,12.0,USERA,COL. MESETA DE ORCASITAS II,40.3698305,-3.7045654
FUE_12_0050,12.0,USERA,COL. LA CHIMENEA,40.3876956,-3.7034612
FUE_12_0052,12.0,USERA,PARQUE OLOF PALME,40.3829231,-3.7115702
FUE_12_0057,12.0,USERA,PLAZA DE ERMUA N 1,40.3719977,-3.7162166
FUE_12_0061,12.0,USERA,"ANTONIO SALVADOR, 64",40.3850328,-3.7037834
FUE_12_0067,12.0,USERA,"CALLE ANTONIO LOPEZ, 221",40.3814889,-3.6953396
FUE_12_0069,12.0,USERA,AVENIDA DE LOS POBLADOS N 144,40.3723149,-3.7090092
FUE_12_0070,12.0,USERA,PARQUE DE PRADOLONGO,40.3723098,-3.7042632
FUE_12_0072,12.0,USERA,CALLE ORCASUR 53,40.3659403,-3.7013861
FUE_12_0073,12.0,USERA,CALLE GINEBRO FRENTE N 10,40.3664041,-3.6960648
FUE_12_0074,12.0,USERA,PARQUE DE PRADOLONGO,40.3753539,-3.7117204
FUE_12_0075,12.0,USERA,PARQUE DE PRADOLONGO,40.3775015,-3.7086293
FUE_12_0076,12.0,USERA,PARQUE DE PRADOLONGO,40.3763909,-3.7068333
FUE_12_0077,12.0,USERA,PARQUE DE PRADOLONGO,40.3773759,-3.7047989
FUE_12_0078,12.0,USERA,PARQUE DE PRADOLONGO,40.3762526,-3.7029422
FUE_12_0079,12.0,USERA,PARQUE DE PRADOLONGO,40.3723295,-3.7067846
FUE_12_0080,12.0,USERA,"AVENIDA RAFAELA YBARRA, 4",40.3836909,-3.7117035
FUE_12_0081,12.0,USERA,"CALLE CERECINOS, 1",40.3846276,-3.7133474
FUE_12_0082,12.0,USERA,"CALLE PARQUE DE LA PALOMA, 1",40.3779958,-3.7130346
FUE_12_0083,12.0,USERA,"CALLE ANTONIO LOPEZ, 237",40.380261,-3.6958498
FUE_12_0084,12.0,USERA,"CALLE CORINDON, 10",40.3671623,-3.6891611
FUE_12_0085,12.0,USERA,"CALLE CALESAS, 6",40.3910913,-3.7050199
FB_100001,12.0,USERA,PARQUE LINEAL DEL MANZANARES,40.3786813,-3.6896833
FB_100002,12.0,USERA,PARQUE LINEAL DEL MANZANARES,40.377721,-3.6890716
FB_100003,12.0,USERA,PARQUE LINEAL DEL MANZANARES,40.374769,-3.6885738
FB_100004,12.0,USERA,PARQUE LINEAL DEL MANZANARES,40.374753,-3.6871684
FB_100011,12.0,USERA,PARQUE LINEAL DEL MANZANARES,40.3731876,-3.6886237
FB_100012,12.0,USERA,PARQUE LINEAL DEL MANZANARES,40.3723524,-3.6881817
FB_900062,12.0,USERA,MADRID RIO,40.3925618,-3.7019329
FB_900063,12.0,USERA,MADRID RIO,40.3860459,-3.6962053
FB_900064,12.0,USERA,MADRID RIO,40.3821343,-3.6919816
FB_900065,12.0,USERA,MADRID RIO,40.3821415,-3.6919829
FB_900066,12.0,USERA,MADRID RIO,40.3821496,-3.6919842
FB_900069,12.0,USERA,MADRID RIO,40.3853055,-3.695446
FUE_13_0055,13.0,PUENTE DE VALLECAS,AVENIDA RONDA SUR FRENTE N 229 PARQUE DE ENTREVIAS,40.3729835,-3.6649362
FUE_13_0056,13.0,PUENTE DE VALLECAS,PARQUE AZORIN JUNTO AVENIDA DE LA ALBUFERA,40.3914198,-3.6543895
FUE_13_0059,13.0,PUENTE DE VALLECAS,PARQUE PIO FELIPE JUNTO A CALLE RAMON PEREZ DE AYALA,40.3993771,-3.6544061
FUE_13_0062,13.0,PUENTE DE VALLECAS,PARQUE PIO FELIPE JUNTO A PISTAS DEPORTIVAS,40.3996902,-3.6563611
FUE_13_0063,13.0,PUENTE DE VALLECAS,PUERTO DE BALBARAN JUNTO A PISTAS,40.377738,-3.6611481
FUE_13_0066,13.0,PUENTE DE VALLECAS,CALLE RAMON PEREZ DE AYALA 80C,40.3995221,-3.6523471
FUE_13_0067,13.0,PUENTE DE VALLECAS,C/EL BOSCO ENTRE LAS CALLES PIO FELIPE Y C/ TRAVESIA DE HUMANES,40.3974428,-3.646898
FUE_13_0068,13.0,PUENTE DE VALLECAS,PARQUE AZORIN JUNTO A FUENTES ORNAMENTALES,40.3903112,-3.6543346
FUE_13_0076,13.0,PUENTE DE VALLECAS,PARQUE LINEAL DE PALOMERAS EN ACCESO AV. BVUENOS AIRES JUNTO ANILLO CICLISTA,40.3887119,-3.6342187
FUE_13_0077,13.0,PUENTE DE VALLECAS,CALLE BENAMEJI,40.3769951,-3.6698622
FUE_13_0078,13.0,PUENTE DE VALLECAS,AVENIDA DE LAS GLORIETAS CON CALLE PADRE LLANOS,40.3729791,-3.6576757
FUE_13_0083,13.0,PUENTE DE VALLECAS,C/ LAGARTERA. N: 198,40.38016,-3.6712923
FUE_13_0085,13.0,PUENTE DE VALLECAS,AVENIDA ENTREVIAS 46,40.3820942,-3.6691842
FUE_13_0086,13.0,PUENTE DE VALLECAS,PARQUE PAYASO FOFO EXPLANADA NORTE. C/ PAYASO FOFO N 9,40.3905749,-3.658765
FUE_13_0090,13.0,PUENTE DE VALLECAS,"PARQUE C/ TANGER, 2 CV C/GUILLERMO PINGARRON",40.3862279,-3.6477868
FUE_13_0093,13.0,PUENTE DE VALLECAS,"AVD DE ENTREVIAS, 140",40.3768011,-3.6602062
FUE_13_0098,13.0,PUENTE DE VALLECAS,PARQUE AMOS ACERO,40.3893255,-3.6675566
FUE_13_0106,13.0,PUENTE DE VALLECAS,CALLE  DOCTOR BELLIDO CON PUERTO DE LA MORCUERA  (ZONA CANINA),40.384156,-3.6678884
FUE_13_0107,13.0,PUENTE DE VALLECAS,CALLE  DOCTOR BELLIDO CON PUERTO DE LA MORCUERA,40.3842791,-3.6677385
FUE_13_0108,13.0,PUENTE DE VALLECAS,PARQUE DE LAS VINAS PLATAFORMA INFERIOR,40.3872424,-3.6718438
FUE_13_0109,13.0,PUENTE DE VALLECAS,CALLE DE PONT DEL MOLLINS CON CALLE DE LA ESCALA,40.3921604,-3.6449347
FUE_13_0121,13.0,PUENTE DE VALLECAS,"CALLE SANTA RAFAELA MARIA DEL SAGRADO CORAZON, 9",40.378934,-3.6724205
FUE_13_0127,13.0,PUENTE DE VALLECAS,PARQUE DE LAS VINAS PLATAFORMA INFERIOR,40.386561,-3.6721954
FUE_13_0128,13.0,PUENTE DE VALLECAS,CALLE PENA UBINA FRENTE AL N 6,40.395351,-3.671259
FUE_13_0129,13.0,PUENTE DE VALLECAS,SANTANDERINA N 1 (FTE N 7),40.3737606,-3.6595762
FUE_13_0130,13.0,PUENTE DE VALLECAS,"CALLE LA DILIGENCIA, 8A",40.383563,-3.660358
FUE_13_0139,13.0,PUENTE DE VALLECAS,VILLALOBOS 63,40.3815474,-3.6489187
FUE_13_0141,13.0,PUENTE DE VALLECAS,SIERRA TOLEDANA N 33,40.4027248,-3.6602524
FUE_13_0151,13.0,PUENTE DE VALLECAS,PLAZA DE SAN DIEGO,40.3846607,-3.6537887
FUE_13_0154,13.0,PUENTE DE VALLECAS,PARQUE GARRIGUES WALKER,40.3692561,-3.6600108
FUE_13_0155,13.0,PUENTE DE VALLECAS,PARQUE DEL CAMPO DE LA PALOMA,40.3842584,-3.6438943
FUE_13_0157,13.0,PUENTE DE VALLECAS,SIERRA TOLEDANA 1,40.3993758,-3.6604455
FUE_13_0158,13.0,PUENTE DE VALLECAS,PEDRO LABORDE 31,40.3866053,-3.6483072
FUE_13_0159,13.0,PUENTE DE VALLECAS,PARQUE DEL CAMPO DE LA PALOMA,40.3837754,-3.6439505
FUE_13_0160,13.0,PUENTE DE VALLECAS,PARQUE DEL CAMPO DE LA PALOMA,40.3833738,-3.6450128
FUE_13_0161,13.0,PUENTE DE VALLECAS,PARQUE DEL CAMPO DE LA PALOMA,40.3841541,-3.645282
FUE_13_0162,13.0,PUENTE DE VALLECAS,PARQUE DEL CAMPO DE LA PALOMA,40.3843499,-3.6443613
FUE_13_0163,13.0,PUENTE DE VALLECAS,"PARQUE PAYASO FOFO (MADRID SUR), C/ PUERTO DE COSTABONA FRENTE N 9",40.3847384,-3.660068
FUE_13_0164,13.0,PUENTE DE VALLECAS,PLAZA PUERTO RUBIO N 1,40.3966833,-3.6675665
FUE_13_0165,13.0,PUENTE DE VALLECAS,AVENIDA DE LAS PALOMERAS N 2,40.3891283,-3.6597494
FUE_13_0166,13.0,PUENTE DE VALLECAS,AVENIDA DE LAS PALOMERAS N 2,40.3889334,-3.6593919
FUE_13_0169,13.0,PUENTE DE VALLECAS,"CALLE MIGUEL SAN NARCISO, 8",40.3867385,-3.6557214
FUE_13_0170,13.0,PUENTE DE VALLECAS,"RONDA SUR, 6 D",40.3748946,-3.6727906
FUE_13_0171,13.0,PUENTE DE VALLECAS,"CALLE EL YESERO, 3",40.3810888,-3.6310926
FUE_13_0172,13.0,PUENTE DE VALLECAS,"PARQUE CAMPO DE LA PALOMA, AV: RAFAEL ALBERTI, 51",40.3830147,-3.6447735
FUE_13_0173,13.0,PUENTE DE VALLECAS,PARQUE CAMPO DEL TORO,40.3906117,-3.6379301
FUE_13_0174,13.0,PUENTE DE VALLECAS,PARQUE GARRIGUES WALKER,40.3687805,-3.660475
FB_100005,13.0,PUENTE DE VALLECAS,PARQUE LINEAL DEL MANZANARES,40.3750304,-3.6849071
FB_100006,13.0,PUENTE DE VALLECAS,PARQUE LINEAL DEL MANZANARES,40.3740533,-3.6849974
FB_100007,13.0,PUENTE DE VALLECAS,PARQUE LINEAL DEL MANZANARES,40.3767562,-3.6884515
FB_100008,13.0,PUENTE DE VALLECAS,PARQUE LINEAL DEL MANZANARES,40.378774,-3.6866791
FB_100009,13.0,PUENTE DE VALLECAS,PARQUE LINEAL DEL MANZANARES,40.3760119,-3.6851515
FB_100010,13.0,PUENTE DE VALLECAS,PARQUE LINEAL DEL MANZANARES,40.3726761,-3.6844875
FUE_14_0052,14.0,MORATALAZ,CORREGIDOR MENDO DE ZUNIGA N 24 CON CORREGIDOR DIEGO DE VALDERRABANOS,40.4095535,-3.6587325
FUE_14_0054,14.0,MORATALAZ,CALLE GARCIA TAPIA Y C/ CARMEN AMAYA JUNTO A PISTAS DEPORTIVAS,40.4127664,-3.6562656
FUE_14_0058,14.0,MORATALAZ,"ARROYO DE FONTARRON, 437",40.3956562,-3.6355262
FUE_14_0069,14.0,MORATALAZ,"ARROYO DE FONTARRON, 389",40.3949501,-3.6374896
FUE_14_0070,14.0,MORATALAZ,"ARROYO DE FONTARRON, 399",40.3947097,-3.635729
FUE_14_0078,14.0,MORATALAZ,"AVENIDA MORATALAZ, 58",40.405438,-3.6529292
FUE_14_0081,14.0,MORATALAZ,ARBORETO DEL CENTRO CULTURAL EL TORITO,40.4057315,-3.6467123
FUE_14_0082,14.0,MORATALAZ,PLAZA DEL CORREGIDOR ALONSO DE AGUILAR ,40.4063776,-3.6582885
FUE_14_0083,14.0,MORATALAZ,CALLE  MANUEL MARIA DE ARRILLAGA  Y AIII JUNTO A CAMPO DE FUTBOL,40.4065835,-3.6620987
FUE_14_0085,14.0,MORATALAZ,PARQUE ALCALDE JESUS PEREZ QUIJANO,40.39921,-3.6278381
FUE_14_0093,14.0,MORATALAZ,"CORREGIDOR DIEGO DE VALDERRABANO, 1",40.4073885,-3.6622613
FUE_14_0099,14.0,MORATALAZ,C/ FUENTE CARRANTONA 4,40.3979333,-3.6379997
FUE_14_0103,14.0,MORATALAZ,LUIS DE HOYOS SAINZ N 170,40.4039175,-3.629039
FUE_14_0104,14.0,MORATALAZ,AV. MORATALAZ N 91,40.4060426,-3.6555709
FUE_14_0105,14.0,MORATALAZ,AV. MORATALAZ N 21,40.4077636,-3.6600322
FUE_14_0108,14.0,MORATALAZ,"CALLE ARROYO BELINCOSO, 13",40.4102194,-3.6532659
FUE_14_0109,14.0,MORATALAZ,"AVENIDA DE MORATALAZ, 183",40.409035,-3.6447229
FUE_14_0110,14.0,MORATALAZ,"CALLE ANTONIO CUMELLA, 22",40.4102922,-3.6360343
FUE_14_0111,14.0,MORATALAZ,"CALLE LYON, 11",40.4083787,-3.628183
FUE_14_0112,14.0,MORATALAZ,"CALLE VALDEBERNARDO, 133",40.4025639,-3.6331832
FUE_14_0113,14.0,MORATALAZ,"CALLE HACIENDA DE PAVONES, 209",40.401796,-3.636718
FUE_14_0115,14.0,MORATALAZ,"AV. DOCTOR GARCIA TAPIA, 136",40.4085733,-3.6391056
FUE_14_0116,14.0,MORATALAZ,"CALLE MOLINA DE SEGURA,7",40.4068561,-3.6379887
FUE_14_0117,14.0,MORATALAZ,PARQUE MISS MARA,40.4066481,-3.6317631
FB_000068,14.0,MORATALAZ,CUNA VERDE DE O'DONELL Y FUENTE CARRANTONA,40.4115749,-3.6441488
FB_000069,14.0,MORATALAZ,CUNA VERDE DE O'DONELL Y FUENTE CARRANTONA,40.4136085,-3.6401694
FB_000070,14.0,MORATALAZ,CUNA VERDE DE O'DONELL Y FUENTE CARRANTONA,40.411718,-3.6357621
FB_000071,14.0,MORATALAZ,CUNA VERDE DE O'DONELL Y FUENTE CARRANTONA,40.4126728,-3.6342866
FB_000072,14.0,MORATALAZ,CUNA VERDE DE O'DONELL Y FUENTE CARRANTONA,40.4134538,-3.633611
FB_000073,14.0,MORATALAZ,CUNA VERDE DE O'DONELL Y FUENTE CARRANTONA,40.4143118,-3.6332074
FB_000074,14.0,MORATALAZ,CUNA VERDE DE O'DONELL Y FUENTE CARRANTONA,40.4140231,-3.631214
FB_000075,14.0,MORATALAZ,CUNA VERDE DE O'DONELL Y FUENTE CARRANTONA,40.412177,-3.6323072
FB_000076,14.0,MORATALAZ,CUNA VERDE DE O'DONELL Y FUENTE CARRANTONA,40.4117342,-3.6330766
FUE_15_0001,15.0,CIUDAD LINEAL,PINAR DE LA ELIPA,40.420432,-3.6547198
FUE_15_0002,15.0,CIUDAD LINEAL,PARQUE EL CALERO,40.4367213,-3.6514129
FUE_15_0003,15.0,CIUDAD LINEAL,PARQUE EL CALERO,40.4359675,-3.6493787
FUE_15_0004,15.0,CIUDAD LINEAL,C/ BENIDORM,40.4306625,-3.6557862
FUE_15_0007,15.0,CIUDAD LINEAL,PARQUE EL CALERO,40.4348396,-3.6549353
FUE_15_0008,15.0,CIUDAD LINEAL,PZA. VICENTE ESPINEL - TRUJILLO,40.4327839,-3.6414334
FUE_15_0009,15.0,CIUDAD LINEAL,PARQUE DE ARRIAGA,40.4254023,-3.6429303
FUE_15_0011,15.0,CIUDAD LINEAL,PARQUE DE ARRIAGA,40.4267418,-3.6446285
FUE_15_0012,15.0,CIUDAD LINEAL,C/ BENIDORM,40.4305136,-3.6570409
FUE_15_0013,15.0,CIUDAD LINEAL,PZA. SAMBARA - MARQUES DE TORRECILLA,40.4388712,-3.6401028
FUE_15_0014,15.0,CIUDAD LINEAL,PZA. EIDER - CORMORAN,40.4397933,-3.6409389
FUE_15_0015,15.0,CIUDAD LINEAL,PZA. MISTERIOS,40.4383762,-3.6388123
FUE_15_0016,15.0,CIUDAD LINEAL,"TRAV. VAZQUEZ DE MELLA, 6",40.4358366,-3.638754
FUE_15_0018,15.0,CIUDAD LINEAL,PARQUE DE LA ALMUDENA,40.4204058,-3.6335875
FUE_15_0019,15.0,CIUDAD LINEAL,GERMAN PEREZ CARRASCO,40.4344635,-3.6476984
FUE_15_0020,15.0,CIUDAD LINEAL,PARQUE DE LA ALMUDENA,40.4198025,-3.6312114
FUE_15_0021,15.0,CIUDAD LINEAL,PZA. DE PLATON,40.442617,-3.6519898
FUE_15_0022,15.0,CIUDAD LINEAL,PZA. DEL DRAGON,40.4228331,-3.6563134
FUE_15_0023,15.0,CIUDAD LINEAL,Z.V. COL. PARQUE SAN JUAN BAUTISTA,40.4509993,-3.656698
FUE_15_0024,15.0,CIUDAD LINEAL,"CALLE FAUSTINA PENALVER, 20A",40.4525006,-3.6595075
FUE_15_0025,15.0,CIUDAD LINEAL,"AV. DAROCA, 101",40.4225151,-3.6374603
FUE_15_0026,15.0,CIUDAD LINEAL,Z.V. ENTRE VILLAESCUSA Y CEMENTERIO CIVIL,40.4237962,-3.6392422
FUE_15_0027,15.0,CIUDAD LINEAL,EZEQUIEL SOLANA - VITAL AZA,40.4310994,-3.6450815
FUE_15_0029,15.0,CIUDAD LINEAL,ZONA ESTANCIAL SAN VICENTE - PITUFOS,40.4400081,-3.6449914
FUE_15_0030,15.0,CIUDAD LINEAL,PARQUE SALVADOR MADARIAGA,40.439446,-3.6572806
FUE_15_0031,15.0,CIUDAD LINEAL,PAR VITAL AZA - CAROLINA CORONADO,40.4306036,-3.6444011
FUE_15_0032,15.0,CIUDAD LINEAL,"AVENIDA DE LA INSTITUCION LIBRE DE ENSENANZA, 128",40.4256622,-3.6297386
FUE_15_0034,15.0,CIUDAD LINEAL,GANDHI,40.4237335,-3.6360534
FUE_15_0035,15.0,CIUDAD LINEAL,PINAR DE CHAMARTIN,40.4814335,-3.6688167
FUE_15_0036,15.0,CIUDAD LINEAL,"CALERUEGA, 72",40.4811408,-3.6695371
FUE_15_0037,15.0,CIUDAD LINEAL,PINAR DE CHAMARTIN,40.481879,-3.667307
FUE_15_0038,15.0,CIUDAD LINEAL,CALLE YERMA N 9,40.4759899,-3.6707852
FUE_15_0039,15.0,CIUDAD LINEAL,ASURA - C. COMERCIAL Y DIEGO AYLLON,40.4508814,-3.6493893
FUE_15_0040,15.0,CIUDAD LINEAL,PARQUE EL CEDRAL,40.4626663,-3.6655375
FUE_15_0041,15.0,CIUDAD LINEAL,POL. AFRICA,40.4203713,-3.6280146
FUE_15_0042,15.0,CIUDAD LINEAL,POL. AFRICA,40.4193743,-3.6287284
FUE_15_0043,15.0,CIUDAD LINEAL,"STA. FELICIDAD, 35",40.4250775,-3.6499189
FUE_15_0045,15.0,CIUDAD LINEAL,AVDA. DAROCA - STA. GENOVEVA,40.4267148,-3.6473352
FUE_15_0046,15.0,CIUDAD LINEAL,ARTE,40.4822919,-3.6711678
FUE_15_0048,15.0,CIUDAD LINEAL,ASCAO - LUIS RUIZ,40.4304032,-3.6393971
FUE_15_0049,15.0,CIUDAD LINEAL,ASCAO - LUIS RUIZ,40.4303356,-3.6385714
FUE_15_0050,15.0,CIUDAD LINEAL,B BILBAO - ARCENTALES,40.4262835,-3.6365565
FUE_15_0051,15.0,CIUDAD LINEAL,PARQUE MALMOE,40.4155611,-3.6259501
FUE_15_0052,15.0,CIUDAD LINEAL,CANAL DEL ESTE,40.4280378,-3.6334818
FUE_15_0054,15.0,CIUDAD LINEAL,ELFO - SIENA,40.4329769,-3.6514508
FUE_15_0055,15.0,CIUDAD LINEAL,"SIENA, 57",40.433525,-3.6515902
FUE_15_0056,15.0,CIUDAD LINEAL,PZA. VIRGEN DEL CORO,40.4341202,-3.6578556
FUE_15_0057,15.0,CIUDAD LINEAL,"DALIA, 12",40.4782021,-3.6658475
FUE_15_0058,15.0,CIUDAD LINEAL,PZA. VIRGEN DE LA ROCA,40.4354056,-3.6575749
FUE_15_0059,15.0,CIUDAD LINEAL,"GOLFO DE SALONICA, 19",40.477038,-3.6668329
FUE_15_0060,15.0,CIUDAD LINEAL,PARQUE DE LOS TILOS,40.4227793,-3.6339228
FUE_15_0062,15.0,CIUDAD LINEAL,PARQUE DE LOS TILOS,40.4222591,-3.6342912
FUE_15_0063,15.0,CIUDAD LINEAL,PARQUE DE LOS TILOS,40.4222759,-3.6347905
FUE_15_0064,15.0,CIUDAD LINEAL,"TORRELAGUNA, 121",40.4524245,-3.6608081
FUE_15_0065,15.0,CIUDAD LINEAL,PARQUE ANTONIO PIRALA,40.4283184,-3.6598561
FUE_15_0066,15.0,CIUDAD LINEAL,PARQUE ANTONIO PIRALA,40.4308948,-3.658979
FUE_15_0067,15.0,CIUDAD LINEAL,Z.A. PTE. DE VENTAS,40.4325887,-3.6586228
FUE_15_0068,15.0,CIUDAD LINEAL,RAFAEL BERGAMIN - TREVIANA,40.4485058,-3.6601876
FUE_15_0069,15.0,CIUDAD LINEAL,CALLE 30 - RAFAEL BERGAMIN,40.4507346,-3.6606694
FUE_15_0070,15.0,CIUDAD LINEAL,PARQUE ANTONIO PIRALA,40.4283184,-3.6598561
FUE_15_0072,15.0,CIUDAD LINEAL,"ARTURO SORIA, 286",40.473887,-3.6677991
FUE_15_0073,15.0,CIUDAD LINEAL,"ARTURO SORIA, 264",40.46948,-3.6665273
FUE_15_0076,15.0,CIUDAD LINEAL,"CALLE GOLFO DE SALONICA, 1",40.4752348,-3.6657395
FUE_15_0077,15.0,CIUDAD LINEAL,"ARTURO SORIA, 198",40.4589069,-3.6594507
FUE_15_0084,15.0,CIUDAD LINEAL,"ARTURO SORIA, 57",40.4444424,-3.6451588
FUE_15_0088,15.0,CIUDAD LINEAL,AVDA. MARQUES DE CORBERA - SAN CLODOALDO,40.4283945,-3.6492299
FUE_15_0089,15.0,CIUDAD LINEAL,POL. AFRICA,40.4208745,-3.6278582
FUE_15_0090,15.0,CIUDAD LINEAL,POL. AFRICA,40.4212987,-3.6281642
FUE_15_0091,15.0,CIUDAD LINEAL,POL. AFRICA,40.4215361,-3.6283371
FUE_15_0092,15.0,CIUDAD LINEAL,"BATERIAS, 4",40.4413682,-3.648486
FUE_15_0093,15.0,CIUDAD LINEAL,"JUAN PEREZ ZUNIGA, 8",40.4410491,-3.6492341
FUE_15_0094,15.0,CIUDAD LINEAL,HERMANOS DE PABLO 46,40.4383263,-3.6465366
FUE_15_0095,15.0,CIUDAD LINEAL,"INDULGENCIA, 6",40.4403414,-3.6480303
FUE_15_0096,15.0,CIUDAD LINEAL,PARQUE DE ARRIAGA,40.4257883,-3.6435078
FUE_15_0097,15.0,CIUDAD LINEAL,JOSE ARCONES GIL,40.4267399,-3.6328202
FUE_15_0098,15.0,CIUDAD LINEAL,"AV. DAROCA, 99",40.4226796,-3.6381
FUE_15_0099,15.0,CIUDAD LINEAL,CALLE ASCAO N 4,40.429581,-3.6418083
FUE_15_0100,15.0,CIUDAD LINEAL,"AV DAROCA, 60",40.4293088,-3.6527088
FUE_15_0101,15.0,CIUDAD LINEAL,"C/ EZEQUIEL SOLANA, 120",40.4256265,-3.6410526
FUE_15_0102,15.0,CIUDAD LINEAL,"C/ GUTIERRE DE CETINA, 8",40.4340403,-3.6445626
FUE_15_0103,15.0,CIUDAD LINEAL,"C/ SERVANDO BATANERO, 8 CV C/ HERMANOS GOMEZ",40.429311,-3.6496827
FUE_15_0104,15.0,CIUDAD LINEAL,C/ HERMANOS MACHADO N 15 CV C/ DE LORENZO,40.4317203,-3.6490976
FUE_15_0105,15.0,CIUDAD LINEAL,"C/ HERMANOS MACHADO, 46",40.4301432,-3.6488722
FUE_15_0106,15.0,CIUDAD LINEAL,C/ JOSE MARIA DE PEREDA N 22 CV C/ DE LOS COLLADOS,40.4312985,-3.6482205
FUE_15_0107,15.0,CIUDAD LINEAL,"C/ LORENZO SAN NICOLAS, 13",40.4331599,-3.6402309
FUE_15_0108,15.0,CIUDAD LINEAL,"C/ MARQUES DE PICO VELASCO, 44",40.4419923,-3.6457782
FUE_15_0109,15.0,CIUDAD LINEAL,"C/ MATEO GARCIA, 35",40.4300559,-3.6526551
FUE_15_0110,15.0,CIUDAD LINEAL,"PLAZA REVERENCIA, 2",40.4373079,-3.642422
FUE_15_0111,15.0,CIUDAD LINEAL,"C/ TORRELAGUNA, 32",40.4418845,-3.6511486
FUE_15_0112,15.0,CIUDAD LINEAL,"C/ VICENTE ESPINEL, 14 CV C/ GOMEZ DE AVELLANEDA",40.4346632,-3.6410757
FUE_15_0113,15.0,CIUDAD LINEAL,PLAZA LA OROTAVA N3,40.4312692,-3.6348987
FUE_15_0114,15.0,CIUDAD LINEAL,POL. VALDELACIERVA,40.4203568,-3.6324852
FUE_15_0115,15.0,CIUDAD LINEAL,"ALCALA, 337",40.433306,-3.6482048
FUE_15_0116,15.0,CIUDAD LINEAL,PZA. VIRGEN DE LA VEGA,40.4349597,-3.6367392
FUE_15_0117,15.0,CIUDAD LINEAL,COL. PARQUE SAN JUAN BAUTISTA ,40.4512496,-3.6582241
FUE_15_0118,15.0,CIUDAD LINEAL,"C/'FERNANDO GABRIEL, 20",40.4249526,-3.637197
FUE_15_0119,15.0,CIUDAD LINEAL,COL. PARQUE SAN JUAN BAUTISTA ,40.4485251,-3.6573013
FUE_15_0120,15.0,CIUDAD LINEAL,"CALLE JAZMIN, 49. JUNTO AREA INFANTIL",40.4826742,-3.6619942
FUE_15_0121,15.0,CIUDAD LINEAL,C/ LUIS RUIZ 48,40.4290889,-3.6377117
FUE_15_0122,15.0,CIUDAD LINEAL,"PLAZA VALVANERA, 5",40.4501994,-3.657133
FUE_15_0123,15.0,CIUDAD LINEAL,PARQUE EL CALERO,40.4352543,-3.6516888
FUE_15_0124,15.0,CIUDAD LINEAL,URB DAROCA,40.4295276,-3.651006
FUE_15_0125,15.0,CIUDAD LINEAL,"C/ POETA BLAS DE OTERO, 11я",40.4213766,-3.6547118
FUE_15_0126,15.0,CIUDAD LINEAL,"AV. MARQUES DE CORBERA, 2",40.421721,-3.6570981
FUE_15_0127,15.0,CIUDAD LINEAL,"C/ SAN EMILIO, 39",40.4267209,-3.6592129
FUE_15_0128,15.0,CIUDAD LINEAL,"PARQUE ARRIAGA C/ ARRIAGA, FRENTE N73",40.4240279,-3.6400761
FUE_15_0129,15.0,CIUDAD LINEAL,"C/ JOSE ARCONES GIL,я 58",40.4323298,-3.6367942
FUE_15_0130,15.0,CIUDAD LINEAL,"C/ SERRANO GALVACHE, 40",40.4749517,-3.6725193
FUE_15_0131,15.0,CIUDAD LINEAL,"C/ JUAN PEREZ ZUNIGA,я  22",40.4429976,-3.6484899
FUE_15_0132,15.0,CIUDAD LINEAL,"AV. BADAJOZ, 17 C/V CONDESA DE VENADITO",40.4435784,-3.6524844
FUE_15_0133,15.0,CIUDAD LINEAL,"NUESTRA SENORA DEL VILLAR, 11",40.4223402,-3.6531089
FUE_15_0134,15.0,CIUDAD LINEAL,CONDESA DE VENADITO 3B,40.444223,-3.654829
FUE_15_0135,15.0,CIUDAD LINEAL,ALCALA 289,40.4323859,-3.6541881
FUE_15_0136,15.0,CIUDAD LINEAL,ALCALA 294,40.4326854,-3.6506042
FUE_16_0001,16.0,HORTALEZA,AV. PAPA NEGRO N 1,40.4510036,-3.6338255
FUE_16_0002,16.0,HORTALEZA,AV. CARONDELET N 35,40.4496239,-3.639939
FUE_16_0003,16.0,HORTALEZA,"ESTRECHO DE ORMUZ, 6",40.4707781,-3.6435778
FUE_16_0004,16.0,HORTALEZA,PARQUE DE GOMEZNARRO,40.4631764,-3.6523091
FUE_16_0005,16.0,HORTALEZA,PARQUE DE GOMEZNARRO,40.4604816,-3.6527868
FUE_16_0006,16.0,HORTALEZA,CARRIL DEL CONDE - LOS CAMINOS,40.4596579,-3.6544986
FUE_16_0007,16.0,HORTALEZA,PARQUE EN CUEVAS DE ALMANZORA,40.4742541,-3.6622289
FUE_16_0008,16.0,HORTALEZA,PARQUE EN CUEVAS DE ALMANZORA,40.4753641,-3.6605513
FUE_16_0009,16.0,HORTALEZA,"ACONCAGUA, 2",40.4686424,-3.6321497
FUE_16_0010,16.0,HORTALEZA,"LAS PEDRONERAS, 39",40.4680659,-3.63137
FUE_16_0011,16.0,HORTALEZA,"LAS PEDRONERAS, 50",40.4681646,-3.6307375
FUE_16_0013,16.0,HORTALEZA,ISLETAS MOTA CUERVO,40.4650777,-3.6310036
FUE_16_0014,16.0,HORTALEZA,PARQUE ALFREDO KRAUS,40.4702092,-3.6399905
FUE_16_0015,16.0,HORTALEZA,PARQUE CHIQUINQUIRA - CALI,40.4715229,-3.6388603
FUE_16_0016,16.0,HORTALEZA,PZA. MOTA DEL CUERVO,40.4653177,-3.6316947
FUE_16_0017,16.0,HORTALEZA,"MAR DE LAS ANTILLAS, 8",40.4746859,-3.6452359
FUE_16_0018,16.0,HORTALEZA,HUERTA DE LA SALUD,40.4756383,-3.6463981
FUE_16_0020,16.0,HORTALEZA,"MAR ADRIATICO, 2",40.4702392,-3.637541
FUE_16_0024,16.0,HORTALEZA,PZA. STA. MARIA - VIRGEN DE LA SALUD,40.47622,-3.6448531
FUE_16_0025,16.0,HORTALEZA,PZA. STA. MARIA - VIRGEN DE LA SALUD,40.4759567,-3.6442302
FUE_16_0027,16.0,HORTALEZA,B VIRGEN DEL CORTIJO,40.4877973,-3.6621976
FUE_16_0028,16.0,HORTALEZA,B VIRGEN DEL CORTIJO,40.4881661,-3.6631656
FUE_16_0029,16.0,HORTALEZA,PARQUE ISABEL CLARA EUGENIA,40.472821,-3.6471943
FUE_16_0030,16.0,HORTALEZA,"MAR DEL JAPON, 7",40.4733565,-3.6415243
FUE_16_0031,16.0,HORTALEZA,BULEVAR  C/ ANASTRO,40.4696357,-3.66003
FUE_16_0032,16.0,HORTALEZA,BULEVAR  C/ ANASTRO,40.4681998,-3.6617405
FUE_16_0033,16.0,HORTALEZA,PAR CALANDA,40.4624505,-3.6414571
FUE_16_0034,16.0,HORTALEZA,MAR DE BERING - PZA. DE LA IGLESIA,40.472789,-3.6409429
FUE_16_0035,16.0,HORTALEZA,TORQUEMADA - TRIBALDOS,40.4676369,-3.6385787
FUE_16_0038,16.0,HORTALEZA,"VELACHO ALTO, 3",40.4720359,-3.6582035
FUE_16_0039,16.0,HORTALEZA,PARQUE DE DONA GUIOMAR,40.4744841,-3.656854
FUE_16_0040,16.0,HORTALEZA,PARQUE DE DONA GUIOMAR,40.474625,-3.6563633
FUE_16_0041,16.0,HORTALEZA,"P.K. 6,100 (AVC)",40.4688926,-3.6294818
FUE_16_0042,16.0,HORTALEZA,PZA. GOLMAYO,40.4672778,-3.6619535
FUE_16_0043,16.0,HORTALEZA,C. DE MAYORES LAS CARCAVAS,40.4803887,-3.6298696
FUE_16_0045,16.0,HORTALEZA,PARQUE AVDA. DE LOS MADRONOS,40.4510118,-3.6477586
FUE_16_0046,16.0,HORTALEZA,JARDIN DE PORTUGALETE - ULISES,40.4577893,-3.6534584
FUE_16_0047,16.0,HORTALEZA,PARQUE LOS LLANOS,40.46185,-3.6347091
FUE_16_0048,16.0,HORTALEZA,"DIONISIO INCA YUPANQUI, 13",40.4615527,-3.6327718
FUE_16_0049,16.0,HORTALEZA,"DIONISIO INCA YUPANQUI, 23",40.461538,-3.6318718
FUE_16_0050,16.0,HORTALEZA,"DIONISIO INCA YUPANQUI, 35",40.4614824,-3.6304432
FUE_16_0051,16.0,HORTALEZA,"DIONISIO INCA YUPANQUI, 43",40.4614517,-3.629229
FUE_16_0052,16.0,HORTALEZA,"DIONISIO INCA YUPANQUI, 57",40.4615525,-3.6272563
FUE_16_0053,16.0,HORTALEZA,"FLORENCIO CASTILLO, 31",40.4582814,-3.6219518
FUE_16_0054,16.0,HORTALEZA,Z.V. FRANCISCO MOREJON,40.460172,-3.623507
FUE_16_0055,16.0,HORTALEZA,PZA. ANDRES JAUREGUI,40.4631332,-3.6291408
FUE_16_0056,16.0,HORTALEZA,TALUD RAMON POWER,40.4637576,-3.6324954
FUE_16_0057,16.0,HORTALEZA,TALUD RAMON POWER,40.4637259,-3.6304854
FUE_16_0058,16.0,HORTALEZA,TALUD RAMON POWER,40.4637303,-3.6312275
FUE_16_0059,16.0,HORTALEZA,TALUD RAMON POWER,40.4637033,-3.6287025
FUE_16_0060,16.0,HORTALEZA,PARQUE PURCHENA - ALICUN,40.418209,-3.6274633
FUE_16_0061,16.0,HORTALEZA,PZA. CHABUCA GRANDA,40.4730384,-3.6429958
FUE_16_0062,16.0,HORTALEZA,PZA. DR. CALVO PEREZ,40.4739021,-3.6423199
FUE_16_0063,16.0,HORTALEZA,CUBIERTA SAN LORENZO,40.4759571,-3.6380382
FUE_16_0064,16.0,HORTALEZA,PARQUE HORTALEZA,40.4792389,-3.6498065
FUE_16_0065,16.0,HORTALEZA,A.V.C. PARQUE HORTALEZA - STA. ADELA,40.4806072,-3.649872
FUE_16_0066,16.0,HORTALEZA,A.V.C. PARQUE HORTALEZA - STA. ADELA,40.4805077,-3.6500167
FUE_16_0067,16.0,HORTALEZA,PARQUE HORTALEZA,40.4800658,-3.6492108
FUE_16_0069,16.0,HORTALEZA,EMIGRANTES N 17,40.4684187,-3.6382521
FUE_16_0070,16.0,HORTALEZA,B VIRGEN DEL CARMEN,40.4752453,-3.6523991
FUE_16_0072,16.0,HORTALEZA,CTRA. CANILLAS - GOMEZNARRO,40.462888,-3.6471557
FUE_16_0073,16.0,HORTALEZA,Z.F. SAN ENRIQUE DE OSSO,40.5017912,-3.6356049
FUE_16_0074,16.0,HORTALEZA,Z.V. PADRE ARRUPE,40.5063281,-3.6384157
FUE_16_0075,16.0,HORTALEZA,Z.V. JULIO CARO BAROJA,40.5077093,-3.644828
FUE_16_0076,16.0,HORTALEZA,AVDA. PICEAS - AVDA. ANDES,40.4541778,-3.6255393
FUE_16_0077,16.0,HORTALEZA,PARQUE YUCATAN,40.4510256,-3.6252594
FUE_16_0078,16.0,HORTALEZA,BOJ - SANDALO,40.4549911,-3.6169447
FUE_16_0079,16.0,HORTALEZA,AVDA. SAN LUIS - VILLA DE PONS,40.471343,-3.6553797
FUE_16_0080,16.0,HORTALEZA,MED. AVDA. DE LOS ANDES,40.4534593,-3.6253628
FUE_16_0081,16.0,HORTALEZA,PAULA DE LA VEGA,40.4716618,-3.6434869
FUE_16_0082,16.0,HORTALEZA,PARQUE MIRADOR DE LAS CARCAVAS,40.4788432,-3.6336012
FUE_16_0083,16.0,HORTALEZA,PARQUE MIRADOR DE LAS CARCAVAS,40.4784503,-3.6323104
FUE_16_0084,16.0,HORTALEZA,PARQUE MIRADOR DE LAS CARCAVAS,40.4779392,-3.6314679
FUE_16_0085,16.0,HORTALEZA,PARQUE MIRADOR DE LAS CARCAVAS,40.4781693,-3.6311197
FUE_16_0086,16.0,HORTALEZA,A.V.C. LOS LLANOS - M-40,40.4604199,-3.6223453
FUE_16_0087,16.0,HORTALEZA,CUBIERTA SAN LORENZO,40.4733739,-3.6337247
FUE_16_0088,16.0,HORTALEZA,A.V.C. AVDA. DE LOGRONO - M-40 Z.F.N.C.,40.4556791,-3.6137569
FUE_16_0089,16.0,HORTALEZA,A.V.C. AVDA. DE LOGRONO - M-40 Z.F.N.C.,40.4536775,-3.6094602
FUE_16_0090,16.0,HORTALEZA,A.V.C. PARQUE STA. VIRGILIA - SAN LORENZO Z.A.,40.4771155,-3.639687
FUE_16_0091,16.0,HORTALEZA,C DE LA CUERDA,40.4685098,-3.6567899
FUE_16_0092,16.0,HORTALEZA,"MOJACAR, 22 - 24",40.4798287,-3.6599922
FUE_16_0093,16.0,HORTALEZA,PARQUE PEONIAS,40.4505154,-3.618766
FUE_16_0094,16.0,HORTALEZA,PARQUE PEONIAS,40.4505253,-3.618294
FUE_16_0095,16.0,HORTALEZA,LOPEZ DE HOYOS 329,40.4662717,-3.6560224
FUE_16_0096,16.0,HORTALEZA,PINAR DEL REY,40.463936,-3.6557068
FUE_16_0097,16.0,HORTALEZA,PINAR DEL REY,40.4637359,-3.6568865
FUE_16_0098,16.0,HORTALEZA,PARQUE DE DONA GUIOMAR,40.4768793,-3.6563325
FUE_16_0100,16.0,HORTALEZA,"CARRION DE LOS CONDES, 70",40.4746032,-3.659035
FUE_16_0101,16.0,HORTALEZA,MED. AVDA. SAN LUIS,40.4715016,-3.659618
FUE_16_0102,16.0,HORTALEZA,C DE LA CUERDA,40.470393,-3.6586067
FUE_16_0103,16.0,HORTALEZA,C DE LA CUERDA,40.4698853,-3.6585666
FUE_16_0104,16.0,HORTALEZA,"MOJACAR, 2",40.4793847,-3.6578752
FUE_16_0105,16.0,HORTALEZA,PARQUE DE MANOTERAS,40.4764675,-3.662252
FUE_16_0106,16.0,HORTALEZA,PARQUE DE MANOTERAS,40.4776659,-3.6614206
FUE_16_0107,16.0,HORTALEZA,PURCHENA - BACARES - ESPLIEGO,40.4759654,-3.6632881
FUE_16_0108,16.0,HORTALEZA,PARQUE DE MANOTERAS,40.476913,-3.6612599
FUE_16_0109,16.0,HORTALEZA,Z.V. BAHIA DE ALGECIRAS,40.4738478,-3.6486266
FUE_16_0110,16.0,HORTALEZA,B DE SANTA MARIA,40.4788275,-3.6457595
FUE_16_0111,16.0,HORTALEZA,B DE SANTA MARIA,40.4778526,-3.6441862
FUE_16_0112,16.0,HORTALEZA,Z.V. JOSE IGNACIO AVILA - PAPA NEGRO,40.4602377,-3.6255806
FUE_16_0113,16.0,HORTALEZA,"A.V.C. (P.K. 1,900)",40.492844,-3.6471604
FUE_16_0114,16.0,HORTALEZA,"A.V.C. (P.K. 2,520)",40.4880369,-3.6453364
FUE_16_0115,16.0,HORTALEZA,PARQUE EN C/ INFANTA CATALINA MICAELA,40.4851875,-3.6563292
FUE_16_0116,16.0,HORTALEZA,PARQUE EN C/ INFANTA CATALINA MICAELA,40.4856798,-3.6582359
FUE_16_0118,16.0,HORTALEZA,PARQUE EN C/ INFANTA CATALINA MICAELA,40.4852082,-3.6552973
FUE_16_0119,16.0,HORTALEZA,MED. Y RTDAS. BARRIOS SAN ANTONIO Y LAS CARCAVAS (VALDEBEBAS),40.480482,-3.6287957
FUE_16_0120,16.0,HORTALEZA,MED. Y RTDAS. BARRIOS SAN ANTONIO Y LAS CARCAVAS (VALDEBEBAS),40.4794919,-3.6263854
FUE_16_0121,16.0,HORTALEZA,PARQUE SAN LORENZO,40.4697002,-3.6325392
FUE_16_0122,16.0,HORTALEZA,"C/ ANGEL LUIS DE LA HERRAN, 38",40.470241,-3.6486198
FUE_16_0123,16.0,HORTALEZA,"C/ CACABELOS, 39",40.4832924,-3.6334032
FUE_16_0124,16.0,HORTALEZA,C/ BENITA AVILA,40.4647404,-3.6511016
FUE_16_0125,16.0,HORTALEZA,"PLAZA MAR DE PLATA, 5",40.4750103,-3.6410542
FUE_16_0126,16.0,HORTALEZA,"C/ PEDRO ALONSO, 6",40.4663488,-3.6340535
FUE_16_0127,16.0,HORTALEZA,VALDEBEBAS,40.4975663,-3.6218569
FUE_16_0128,16.0,HORTALEZA,VALDEBEBAS,40.4950887,-3.621851
FUE_16_0129,16.0,HORTALEZA,VALDEBEBAS,40.497871,-3.6181344
FUE_16_0130,16.0,HORTALEZA,VALDEBEBAS,40.4950927,-3.6181043
FUE_16_0131,16.0,HORTALEZA,VALDEBEBAS,40.4980484,-3.614219
FUE_16_0132,16.0,HORTALEZA,VALDEBEBAS,40.4949001,-3.6142535
FUE_16_0133,16.0,HORTALEZA,VALDEBEBAS,40.4994466,-3.61056
FUE_16_0134,16.0,HORTALEZA,VALDEBEBAS,40.4976034,-3.6105432
FUE_16_0135,16.0,HORTALEZA,VALDEBEBAS,40.4912443,-3.6094572
FUE_16_0138,16.0,HORTALEZA,"YARUMAL, 6",40.4744541,-3.6401221
FUE_16_0139,16.0,HORTALEZA,PARQUE DE DONA GUIOMAR,40.4753273,-3.6556512
FUE_16_0141,16.0,HORTALEZA,B VIRGEN DEL CARMEN,40.4768599,-3.6538729
FUE_16_0142,16.0,HORTALEZA,PARQUE INFANTA CATALINA MICAELA,40.4894203,-3.6519416
FUE_16_0143,16.0,HORTALEZA,PRINCIPE CARLOS - FERNANDO DE ROJAS - ISABEL CLARA EUGENIA,40.4917237,-3.6508547
FUE_16_0144,16.0,HORTALEZA,PARQUE FERNANDO DE ROJAS - AVDA. NICETO ALCALA ZAMORA,40.4928036,-3.6494609
FUE_16_0145,16.0,HORTALEZA,VICENTE BLASCO IBANEZ C/V PADRES DOMINICOS,40.5018199,-3.6513652
FUE_16_0146,16.0,HORTALEZA,PARQUE MARIA TUDOR,40.494652,-3.6603351
FUE_16_0147,16.0,HORTALEZA,PARQUE MARIA TUDOR,40.4941601,-3.6612861
FUE_16_0148,16.0,HORTALEZA,PARQUE DE LA CORNISA,40.4814258,-3.6589314
FUE_16_0149,16.0,HORTALEZA,B SANTIAGO APOSTOL,40.4787237,-3.6604151
FUE_16_0150,16.0,HORTALEZA,"ANASTRO, 21",40.4686908,-3.6624119
FUE_16_0152,16.0,HORTALEZA,VALDEBEBAS - CONECTOR FERNANDO HIGUERAS ,40.4936257,-3.6054231
FUE_16_0153,16.0,HORTALEZA,CARCAVAS OESTE,40.480805,-3.6356179
FUE_16_0154,16.0,HORTALEZA,FRANCISCO FERNANDEZ ORDONEZ,40.4681017,-3.6484004
FUE_16_0155,16.0,HORTALEZA,"CALLE JULIO DANVILA, 28",40.4723608,-3.6630787
FUE_16_0156,16.0,HORTALEZA,PLAZA FRANCISCO DE ASIS CABRERO 6,40.4930348,-3.6118737
FUE_16_0157,16.0,HORTALEZA,CALLE SECUNDINO ZUAZO 134,40.4947497,-3.6108666
FUE_16_0158,16.0,HORTALEZA,CALLE SECUNDINO ZUAZO 143,40.4954468,-3.6088621
FUE_16_0159,16.0,HORTALEZA,CALLE DE ANTONIO FLOREZ,40.501256,-3.6070169
FUE_16_0160,16.0,HORTALEZA,"C/ NICETO ALCALA ZAMORA, N 33",40.4884166,-3.6459938
FUE_16_0161,16.0,HORTALEZA,MARIA MOLINER N 2.,40.4764875,-3.6297861
FUE_16_0162,16.0,HORTALEZA,"C/ MANIZALES, 15",40.4735039,-3.6372554
FUE_16_0163,16.0,HORTALEZA,"C/ VALDETORRES DEL JARAMA, N 2",40.4717272,-3.6471837
FUE_16_0164,16.0,HORTALEZA,"C/ SOMONTIN, 96",40.4771585,-3.6594458
FUE_16_0165,16.0,HORTALEZA,"CALLE DE ANGEL CAVERO, 1",40.4552728,-3.6508675
FUE_16_0166,16.0,HORTALEZA,AV. CARONDELET N 37,40.4492845,-3.6380403
FUE_16_0167,16.0,HORTALEZA,CALLE CALLE SILVANO 157 CV JUAN CLEMENTE NUNEZ,40.4627138,-3.6266227
FUE_16_0168,16.0,HORTALEZA,CALLE PROVENCIO FRENTE N 16,40.4641796,-3.6283914
FUE_16_0169,16.0,HORTALEZA,"CALLE ROGELIO MUNOZ, 12",40.4724521,-3.6446919
FUE_16_0170,16.0,HORTALEZA,"CALLE MAR ADRIATICO, 7",40.4712503,-3.6397432
FUE_16_0171,16.0,HORTALEZA,"AV. NICETO ALCALA ZAMORA, 85",40.4985333,-3.6565006
FUE_16_0172,16.0,HORTALEZA,VALDEBEBAS - CONECTOR FERNANDO HIGUERAS ,40.4863135,-3.6053448
FUE_16_0173,16.0,HORTALEZA,VALDEBEBAS - CONECTOR ESTANISLAO PEREZ PITA,40.4888991,-3.6062835
FUE_16_0174,16.0,HORTALEZA,VALDEBEBAS,40.4890845,-3.6105421
FUE_16_0175,16.0,HORTALEZA,VALDEBEBAS,40.4860392,-3.6133605
FUE_16_0176,16.0,HORTALEZA,AV. SECUNDINO ZUAZO 153,40.4954039,-3.6078208
FB_110001,16.0,HORTALEZA,JUAN PABLO II,40.4575082,-3.6216383
FB_110002,16.0,HORTALEZA,JUAN PABLO II,40.4562523,-3.6223144
FB_110003,16.0,HORTALEZA,JUAN PABLO II,40.4558634,-3.6249349
FB_110004,16.0,HORTALEZA,JUAN PABLO II,40.4549137,-3.6247858
FB_110005,16.0,HORTALEZA,JUAN PABLO II,40.4553471,-3.6264373
FB_110006,16.0,HORTALEZA,JUAN PABLO II,40.4544626,-3.6265789
FB_110007,16.0,HORTALEZA,JUAN PABLO II,40.4547528,-3.6283778
FB_110008,16.0,HORTALEZA,JUAN PABLO II,40.4572851,-3.6205583
FUE_17_0001,17.0,VILLAVERDE,"SAHARA, 89",40.3528147,-3.6919042
FUE_17_0012,17.0,VILLAVERDE,CALLE UNANIMIDAD N 40,40.3625026,-3.6864779
FUE_17_0016,17.0,VILLAVERDE,C/ COALICION,40.3564843,-3.6881914
FUE_17_0020,17.0,VILLAVERDE,PARQUE NORTE SAN LUCIANO,40.3636345,-3.6947334
FUE_17_0022,17.0,VILLAVERDE,PARQUE VIRGEN DE LA ESPERANZA,40.3508291,-3.700136
FUE_17_0025,17.0,VILLAVERDE,AVDA. ANDALUCIA - CENTRO COMERCIAL,40.3624562,-3.6933141
FUE_17_0028,17.0,VILLAVERDE,CALLE BERROCAL 12,40.3478432,-3.677453
FUE_17_0029,17.0,VILLAVERDE,CALLE BERROCAL 40,40.3449133,-3.6766794
FUE_17_0030,17.0,VILLAVERDE,CALLE BERROCAL 74,40.3409712,-3.675053
FUE_17_0046,17.0,VILLAVERDE,PARQUE DEHESA BOYAL,40.3452551,-3.6907066
FUE_17_0047,17.0,VILLAVERDE,PARQUE DEHESA BOYAL,40.346529,-3.686514
FUE_17_0061,17.0,VILLAVERDE,COL. EL AHORRO,40.3616829,-3.6969493
FUE_17_0064,17.0,VILLAVERDE,"UNANIMIDAD, 43",40.3593038,-3.6839625
FUE_17_0066,17.0,VILLAVERDE,PZA KATIUSKA,40.3588752,-3.696569
FUE_17_0067,17.0,VILLAVERDE,"CALLE ESTEFANITA, FAROLA 29",40.3411638,-3.6738123
FUE_17_0068,17.0,VILLAVERDE,"CALLE ESTEFANITA, 12",40.34655,-3.67533
FUE_17_0097,17.0,VILLAVERDE,"FUENTE DE LA CAPONA, 11",40.3536511,-3.684657
FUE_17_0103,17.0,VILLAVERDE,"ALBERTO PALACIOS, 13",40.3437805,-3.7125495
FUE_17_0105,17.0,VILLAVERDE,"BURJASOT 20, FRENTE PARQUE DEHESA BOYAL",40.3451599,-3.6876771
FUE_17_0116,17.0,VILLAVERDE,TABERNA DEL PUERTO 36 CV C/ SANTO DE LA ISIDRA,40.3543061,-3.7053878
FUE_17_0121,17.0,VILLAVERDE,C/ SANTA PETRONILA CV C/ JOSE DEL PINO,40.3508295,-3.6921749
FUE_17_0124,17.0,VILLAVERDE,PARQUE DE PLATA Y CASTANAR,40.3478297,-3.7161618
FUE_17_0127,17.0,VILLAVERDE,"C/ AUGUSTOBRIGA, 13",40.3555437,-3.6861914
FUE_17_0132,17.0,VILLAVERDE,CON CALLE GODELLA 47,40.3428781,-3.6882079
FUE_17_0133,17.0,VILLAVERDE,CALLE BENIMAMET 24,40.3431781,-3.685288
FUE_17_0134,17.0,VILLAVERDE,ZV CALLE ORO 14,40.3497411,-3.6792658
FUE_17_0135,17.0,VILLAVERDE,CALLE AMADEO FERNANDEZ CV MAGNESIA,40.3440571,-3.7048433
FB_100013,17.0,VILLAVERDE,PARQUE LINEAL DEL MANZANARES,40.3602248,-3.6818636
FB_100014,17.0,VILLAVERDE,PARQUE LINEAL DEL MANZANARES,40.3552556,-3.6781429
FB_100015,17.0,VILLAVERDE,PARQUE LINEAL DEL MANZANARES,40.3539692,-3.6768865
FB_100016,17.0,VILLAVERDE,PARQUE LINEAL DEL MANZANARES,40.3625103,-3.683108
FB_100017,17.0,VILLAVERDE,PARQUE LINEAL DEL MANZANARES,40.3627831,-3.6834417
FB_100018,17.0,VILLAVERDE,PARQUE LINEAL DEL MANZANARES,40.346871,-3.6695976
FB_100019,17.0,VILLAVERDE,PARQUE LINEAL DEL MANZANARES,40.3430459,-3.6650408
FB_100020,17.0,VILLAVERDE,PARQUE LINEAL DEL MANZANARES,40.3414196,-3.6655358
FB_100021,17.0,VILLAVERDE,PARQUE LINEAL DEL MANZANARES,40.3591186,-3.6809304
FB_100022,17.0,VILLAVERDE,PARQUE LINEAL DEL MANZANARES,40.3559808,-3.6803029
FB_100023,17.0,VILLAVERDE,PARQUE LINEAL DEL MANZANARES,40.3531222,-3.67461
FB_100024,17.0,VILLAVERDE,PARQUE LINEAL DEL MANZANARES,40.3525096,-3.6741375
FB_100025,17.0,VILLAVERDE,PARQUE LINEAL DEL MANZANARES,40.3497639,-3.6734649
FUE_18_0019,18.0,VILLA DE VALLECAS,AVENIDA CERRO MILANO 18,40.3808288,-3.6276155
FUE_18_0033,18.0,VILLA DE VALLECAS,"CALLE BABILAFUENTE, 9",40.3711803,-3.6238868
FUE_18_0035,18.0,VILLA DE VALLECAS,"CALLE PUERTO PORZUNA, 33",40.3730037,-3.6244272
FUE_18_0037,18.0,VILLA DE VALLECAS,"CALLE REAL DE ARGANDA, 47",40.379776,-3.6155643
FUE_18_0039,18.0,VILLA DE VALLECAS,"CASTRILLO DE AZA, 16B",40.3844864,-3.608783
FUE_18_0040,18.0,VILLA DE VALLECAS,PASEO ENTRE CALLE DE LAS VINAS Y FUENTESPINA,40.3805108,-3.606046
FUE_18_0051,18.0,VILLA DE VALLECAS,AV.MAYORAZGO 20,40.3698428,-3.6325054
FUE_18_0052,18.0,VILLA DE VALLECAS,"SIERRA DE LA DEMANDA, 32",40.3676711,-3.6380556
FUE_18_0054,18.0,VILLA DE VALLECAS,FERNANDO CHUECA GOITIA,40.3622654,-3.5933221
FUE_18_0055,18.0,VILLA DE VALLECAS,DEL RAYO VALLECANO DE MADRID,40.3783468,-3.6100621
FUE_18_0056,18.0,VILLA DE VALLECAS,ARTE FIGURATIVO N 30,40.3587728,-3.584832
FUE_18_0057,18.0,VILLA DE VALLECAS,CALLE ISLA DE GUAM N 60,40.3647053,-3.6326927
FUE_18_0058,18.0,VILLA DE VALLECAS,CALLE ISLA DE GUAM N 60,40.3655111,-3.6313758
FUE_18_0059,18.0,VILLA DE VALLECAS,CALLE JOSE GUTIERREZ MAROTO 43,40.3633436,-3.6064975
FUE_18_0060,18.0,VILLA DE VALLECAS,AVENIDA LA GAVIA 13,40.3745846,-3.6093495
FUE_18_0061,18.0,VILLA DE VALLECAS,CAMINO VASARES 4,40.3833451,-3.6174478
FUE_18_0062,18.0,VILLA DE VALLECAS,AVENIDA LA GAVIA 66,40.3684568,-3.6166027
FUE_18_0063,18.0,VILLA DE VALLECAS,CALLE LA GRANJA DE SAN ILDEFONSO 1,40.3705915,-3.6265047
FUE_18_0064,18.0,VILLA DE VALLECAS,CANADA DEL SANTISIMO 45,40.3629672,-3.5996498
FUE_18_0065,18.0,VILLA DE VALLECAS,AV. GRAN VIA SURESTE 14-16 POSTERIOR,40.3649137,-3.5884999
FUE_18_0066,18.0,VILLA DE VALLECAS,AVENIDA DE LAS SUERTES FRENTE N 98,40.3636757,-3.5910691
FUE_18_0067,18.0,VILLA DE VALLECAS,CALLE PILAR DE MADARIAGA ROJO CV AVENIDA DE LAS SUERTES,40.3642237,-3.5905885
FUE_18_0068,18.0,VILLA DE VALLECAS,PARQUE MAYORAZGO,40.3692141,-3.6290369
FUE_18_0069,18.0,VILLA DE VALLECAS,CALLE DE CINCOVILLAS N. 5 C/V AV. MAYORAZGO,40.367168,-3.6250783
FUE_18_0070,18.0,VILLA DE VALLECAS,PARQUE LOLA CAMARENA,40.3750866,-3.6095222
FUE_18_0071,18.0,VILLA DE VALLECAS,CALLE PENARANDA DE BRACAMONTE N. 9,40.373641,-3.603709
FUE_18_0072,18.0,VILLA DE VALLECAS,AVENIDA CERRO MILANO N. 27,40.3636951,-3.6072192
FUE_18_0073,18.0,VILLA DE VALLECAS,CALLE ALTO DEL RETIRO FRENTE N. 6,40.3683092,-3.5913885
FUE_18_0074,18.0,VILLA DE VALLECAS,PARQUE VALDEPERDICES,40.3757395,-3.6301222
FUE_18_0076,18.0,VILLA DE VALLECAS,"CALLE ANTONIO GADES, 55",40.3606364,-3.5971505
1 (GIS),18.0,VILLA DE VALLECAS,PARQUE DE LA GAVIA,40.3639076,-3.6229558
2 (GIS),18.0,VILLA DE VALLECAS,PARQUE DE LA GAVIA,40.3651295,-3.6233324
3 (GIS),18.0,VILLA DE VALLECAS,PARQUE DE LA GAVIA,40.3666124,-3.6272819
4 (GIS),18.0,VILLA DE VALLECAS,PARQUE DE LA GAVIA,40.3664856,-3.6281253
5 (GIS),18.0,VILLA DE VALLECAS,PARQUE DE LA GAVIA,40.3645638,-3.6284426
6 (GIS),18.0,VILLA DE VALLECAS,PARQUE DE LA GAVIA,40.367139,-3.6288344
7 (GIS),18.0,VILLA DE VALLECAS,PARQUE DE LA GAVIA,40.3638551,-3.6290255
FUE_19_0052,19.0,VICALVARO,CALLE ZEUS,40.4043338,-3.5988612
FUE_19_0067,19.0,VICALVARO,CUNA VERDE VICALVARO ZONA C ,40.4160411,-3.61367
FUE_19_0073,19.0,VICALVARO,CUNA VERDE VICALVARO ZONA B JUNTO A CAMPOS DE FUTBOL Y ANILLO CICLISTA,40.4106313,-3.6166736
FUE_19_0079,19.0,VICALVARO,PARQUE EZCARAY,40.4110052,-3.6136494
FUE_19_0080,19.0,VICALVARO,CALLE 'VILLAJIMENA 107,40.4068355,-3.6055297
FUE_19_0102,19.0,VICALVARO,CALLE DE SAN CIPRIANO CON CALLE DE AMBROZ,40.4054228,-3.6053255
FUE_19_0105,19.0,VICALVARO,"CALLE JUGLARES, 14C",40.4023371,-3.6219241
FUE_19_0111,19.0,VICALVARO,PLAZA  ANTONIO ANDRES,40.4021163,-3.6055741
FUE_19_0115,19.0,VICALVARO,PARQUE VALDEBERNARDO ESTE,40.4012997,-3.6179865
FUE_19_0118,19.0,VICALVARO,PARQUE VALDEBERNARDO ESTE JUNTO A ZONA DE JUEGOS,40.4017348,-3.6170458
FUE_19_0120,19.0,VICALVARO,PARQUE VALDEBERNARDO ESTE JUNTO A PISTAS DEPORTIVAS,40.3993897,-3.617792
FUE_19_0121,19.0,VICALVARO,PARQUE VALDEBERNARDO ESTE JUNTO A CASETA,40.4003204,-3.6183967
FUE_19_0123,19.0,VICALVARO,PARQUE VALDEBERNARDO ESTE ,40.3969879,-3.6168907
FUE_19_0124,19.0,VICALVARO,"CALLE CALIZA, 29",40.3973485,-3.6032443
FUE_19_0141,19.0,VICALVARO,"CALLE CASALARREINA, 32",40.4082687,-3.6150811
FUE_19_0142,19.0,VICALVARO,"C/ SAN CIPRIANO, 74",40.4036851,-3.601345
FUE_19_0143,19.0,VICALVARO,"AV. COMUNIDADES, 161",40.3937966,-3.6063412
FUE_19_0144,19.0,VICALVARO,CALLE MINERVA FRENTE N 67,40.3988966,-3.6036495
FUE_19_0145,19.0,VICALVARO,"CALLE SAN CIPRIANO, 81 C/V GRAN VIA DEL ESTE",40.4020108,-3.5969638
FUE_19_0146,19.0,VICALVARO,PARQUE DEL ANILLO VERDE O PARQUE FORESTAL DE VICALVARO,40.405974,-3.5958607
FUE_20_0001,20.0,SAN BLAS-CANILLEJAS,PARQUE OCCIDENTE - LAS MERCEDES,40.447559,-3.5922304
FUE_20_0002,20.0,SAN BLAS-CANILLEJAS,PARQUE OCCIDENTE - LAS MERCEDES,40.4439632,-3.5923881
FUE_20_0003,20.0,SAN BLAS-CANILLEJAS,Z.V. AVDA. SEPTIMA,40.4481638,-3.5990162
FUE_20_0004,20.0,SAN BLAS-CANILLEJAS,CIUDAD PEGASO - Z.A.+ Z.F.,40.4488063,-3.5947255
FUE_20_0005,20.0,SAN BLAS-CANILLEJAS,CIUDAD PEGASO - Z.A.+ Z.F.,40.4471601,-3.5947703
FUE_20_0006,20.0,SAN BLAS-CANILLEJAS,CIUDAD PEGASO - Z.A.+ Z.F.,40.447627,-3.5953084
FUE_20_0007,20.0,SAN BLAS-CANILLEJAS,CIUDAD PEGASO - Z.A.+ Z.F.,40.4495429,-3.5935478
FUE_20_0013,20.0,SAN BLAS-CANILLEJAS,MINIAREA ALBAIDA,40.4333955,-3.6139308
FUE_20_0014,20.0,SAN BLAS-CANILLEJAS,CALLE FUMISTERIA 7,40.4264677,-3.6232118
FUE_20_0015,20.0,SAN BLAS-CANILLEJAS,PARC. PANERIA,40.4283289,-3.6178228
FUE_20_0019,20.0,SAN BLAS-CANILLEJAS,P GINEBRA,40.4246098,-3.6053652
FUE_20_0020,20.0,SAN BLAS-CANILLEJAS,P GINEBRA,40.4241954,-3.6048106
FUE_20_0021,20.0,SAN BLAS-CANILLEJAS,"SOFIA, 201",40.4279239,-3.6015984
FUE_20_0022,20.0,SAN BLAS-CANILLEJAS,Z.V. SOFIA - NIZA,40.4304964,-3.6023739
FUE_20_0023,20.0,SAN BLAS-CANILLEJAS,Z.V. SOFIA - NIZA,40.4302181,-3.6044109
FUE_20_0024,20.0,SAN BLAS-CANILLEJAS,Z.V. SOFIA - NIZA,40.430874,-3.6007061
FUE_20_0025,20.0,SAN BLAS-CANILLEJAS,Z.V. SOFIA - NIZA,40.4313169,-3.6025381
FUE_20_0026,20.0,SAN BLAS-CANILLEJAS,Z.V. SOFIA - NIZA,40.4332476,-3.6028386
FUE_20_0028,20.0,SAN BLAS-CANILLEJAS,PARQUE MARSELLA - TOSCANA,40.4195517,-3.6095236
FUE_20_0029,20.0,SAN BLAS-CANILLEJAS,PARQUE MARSELLA - TOSCANA,40.420252,-3.6106993
FUE_20_0030,20.0,SAN BLAS-CANILLEJAS,PARQUES RUFINO GLEZ.,40.4347874,-3.6245027
FUE_20_0032,20.0,SAN BLAS-CANILLEJAS,PARC. VIRGEN DE LA OLIVA,40.4327711,-3.6236224
FUE_20_0038,20.0,SAN BLAS-CANILLEJAS,"CASTILLO DE OROPESA, 39. PARC. LOS CASTILLOS",40.4272008,-3.6285142
FUE_20_0039,20.0,SAN BLAS-CANILLEJAS,PZA. CANGAS DE ONIS,40.4294841,-3.6290185
FUE_20_0040,20.0,SAN BLAS-CANILLEJAS,PARQUES RUFINO GLEZ.,40.4343491,-3.6249739
FUE_20_0041,20.0,SAN BLAS-CANILLEJAS,COL. MARQUES DE SUANCES,40.4439412,-3.623805
FUE_20_0042,20.0,SAN BLAS-CANILLEJAS,JARDINES ANTIOQUIA,40.4463004,-3.6376276
FUE_20_0044,20.0,SAN BLAS-CANILLEJAS,PTO. VALLARTA - RIOBAMBA,40.440288,-3.6340897
FUE_20_0046,20.0,SAN BLAS-CANILLEJAS,PARQUE LOPEZ DE ARANDA - MIAMI,40.4444037,-3.631111
FUE_20_0049,20.0,SAN BLAS-CANILLEJAS,B LAS MUSAS,40.4315309,-3.6083745
FUE_20_0050,20.0,SAN BLAS-CANILLEJAS,PARQUE LAS MUSAS,40.4334825,-3.6085575
FUE_20_0051,20.0,SAN BLAS-CANILLEJAS,CTRA. AJALVIR - VICALVARO,40.4237188,-3.6101467
FUE_20_0052,20.0,SAN BLAS-CANILLEJAS,"HERENCIA, 4",40.4313359,-3.6129134
FUE_20_0053,20.0,SAN BLAS-CANILLEJAS,CTRA. DE CANILLEJAS A VICALVARO 91 - 111,40.4307652,-3.6107783
FUE_20_0054,20.0,SAN BLAS-CANILLEJAS,AVDA. NIZA - SUECIA,40.4344444,-3.6073995
FUE_20_0055,20.0,SAN BLAS-CANILLEJAS,AVDA. NIZA - SUECIA,40.4344835,-3.6070299
FUE_20_0056,20.0,SAN BLAS-CANILLEJAS,PARQUE BUTRON,40.4257491,-3.6090972
FUE_20_0057,20.0,SAN BLAS-CANILLEJAS,"ARCOS DE JALON, 124",40.4272789,-3.6118748
FUE_20_0058,20.0,SAN BLAS-CANILLEJAS,A.V.C. SAN BLAS,40.4224125,-3.600524
FUE_20_0061,20.0,SAN BLAS-CANILLEJAS,PARQUE POBLADURA VALLE - ARCOS DE JALON,40.4221173,-3.6254864
FUE_20_0062,20.0,SAN BLAS-CANILLEJAS,PARQUE ARCOS DEL JALON Y VIALES,40.4192338,-3.6238854
FUE_20_0063,20.0,SAN BLAS-CANILLEJAS,PARQUE ARCOS DEL JALON Y VIALES,40.4197955,-3.6227188
FUE_20_0064,20.0,SAN BLAS-CANILLEJAS,ARCOS DE JALON - SAN ROMAN DEL VALLE,40.4213185,-3.621835
FUE_20_0065,20.0,SAN BLAS-CANILLEJAS,PZA. DE AMPOSTA,40.423748,-3.6219117
FUE_20_0066,20.0,SAN BLAS-CANILLEJAS,PARC. AVDA. GUADALAJARA,40.4203448,-3.6188897
FUE_20_0067,20.0,SAN BLAS-CANILLEJAS,CUARTEL DE LAS MUSAS,40.4372504,-3.6119291
FUE_20_0068,20.0,SAN BLAS-CANILLEJAS,CUARTEL DE LAS MUSAS,40.4373972,-3.6114847
FUE_20_0069,20.0,SAN BLAS-CANILLEJAS,"ESFINGE, 6",40.4463254,-3.6110465
FUE_20_0070,20.0,SAN BLAS-CANILLEJAS,"NICOLASA GOMEZ, 89",40.4381313,-3.6112837
FUE_20_0071,20.0,SAN BLAS-CANILLEJAS,"MARIA SEVILLA DIAGO, 12",40.4331349,-3.6092794
FUE_20_0073,20.0,SAN BLAS-CANILLEJAS,URB. JULIAN CAMARILLO NORTE,40.441403,-3.6179202
FUE_20_0075,20.0,SAN BLAS-CANILLEJAS,PAR ESFINGE,40.442913,-3.6105625
FUE_20_0076,20.0,SAN BLAS-CANILLEJAS,PARQUE DE CANILLEJAS,40.4420835,-3.6117184
FUE_20_0078,20.0,SAN BLAS-CANILLEJAS,PARQUE ARQUITECTO ANTONIO PALACIOS,40.4386832,-3.6094445
FUE_20_0080,20.0,SAN BLAS-CANILLEJAS,PARQUE ARQUITECTO ANTONIO PALACIOS,40.4386283,-3.6085374
FUE_20_0081,20.0,SAN BLAS-CANILLEJAS,INTERIOR C. C. ANTONIO MACHADO,40.4194326,-3.6218416
FUE_20_0082,20.0,SAN BLAS-CANILLEJAS,POL. LAS MERCEDES,40.4432559,-3.5766864
FUE_20_0083,20.0,SAN BLAS-CANILLEJAS,C/ MARIA SEVILLA DIAGO N 2,40.431302,-3.6104537
FUE_20_0084,20.0,SAN BLAS-CANILLEJAS,PARQUE DE SAN BLAS - EL PARAISO,40.424831,-3.6275468
FUE_20_0085,20.0,SAN BLAS-CANILLEJAS,PARQUE DE SAN BLAS - EL PARAISO,40.4257335,-3.6262647
FUE_20_0086,20.0,SAN BLAS-CANILLEJAS,P GINEBRA 47,40.4231908,-3.601358
FUE_20_0087,20.0,SAN BLAS-CANILLEJAS,ARROYO DE REJAS,40.4423902,-3.5813761
FUE_20_0088,20.0,SAN BLAS-CANILLEJAS,ARROYO DE REJAS,40.4444505,-3.5795336
FUE_20_0089,20.0,SAN BLAS-CANILLEJAS,ARROYO DE REJAS,40.4460769,-3.5780242
FUE_20_0090,20.0,SAN BLAS-CANILLEJAS,PARQUE DE SAN BLAS - EL PARAISO,40.4335821,-3.6182618
FUE_20_0091,20.0,SAN BLAS-CANILLEJAS,"ALBERIQUE, 12",40.4292103,-3.6181342
FUE_20_0092,20.0,SAN BLAS-CANILLEJAS,CALLE BOLTANA 59,40.4211699,-3.6253996
FUE_20_0093,20.0,SAN BLAS-CANILLEJAS,AV. ARCENTALES FRENTE AL 29,40.4341263,-3.6134177
FUE_20_0094,20.0,SAN BLAS-CANILLEJAS,Z.V. SOFIA - NIZA,40.4298913,-3.6066408
FUE_20_0095,20.0,SAN BLAS-CANILLEJAS,AV. CANILLEJAS A VICALVARO 145,40.4229723,-3.6111056
FUE_20_0096,20.0,SAN BLAS-CANILLEJAS,"C/ CASTILLO DE UCLES, 37 POSTERIOR",40.4317333,-3.6234857
FUE_20_0097,20.0,SAN BLAS-CANILLEJAS,"C/ DISCOBOLO, 55 CV C/ SAN MARIANO",40.4428164,-3.6126254
FUE_20_0098,20.0,SAN BLAS-CANILLEJAS,"C/ JULIA GARCIA BOUTAN, 3",40.4298086,-3.6100393
FUE_20_0099,20.0,SAN BLAS-CANILLEJAS,"C/ SEPTIEMBRE, 39 CV C/ MAYO",40.444384,-3.5662642
FUE_20_0100,20.0,SAN BLAS-CANILLEJAS,PZA. DE LA VILLA DE CANILLEJAS,40.4451934,-3.6109701
FUE_20_0101,20.0,SAN BLAS-CANILLEJAS,C/ NICOLASA GOMEZ N 30,40.4415127,-3.6136441
FUE_20_0102,20.0,SAN BLAS-CANILLEJAS,C/ ALCALA CV C/ CANILLEJAS A VICALVARO,40.443207,-3.6165197
FUE_20_0103,20.0,SAN BLAS-CANILLEJAS,PARQUE PARAISO,40.42686,-3.6248184
