CODIGO,CODIGO J.M.,DISTRITO,DIRECCION,"COORD, X","COORD, Y",LATITUD,LONGITUD,NOMBRE,TIPO
FUE_01_0001,1.0,CENTRO,PLAZA COMENDADORAS,"439892,4997","4475419,798",40.4272429,-3.7086003,PLAZA COMENDADORAS,FUENTE
FUE_01_0002,1.0,CENTRO,JARDINES CONDE DUQUE,"439766,5391","4475585,204",40.4287238,-3.7101008,JARDINES CONDE DUQUE,FUENTE
FUE_01_0003,1.0,CENTRO,PLAZA DE LAS SALESAS,"441077,2599","4475077,763",40.4242464,-3.6946026,PLAZA DE LAS SALESAS,FUENTE
FUE_01_0004,1.0,CENTRO,PLAZA VILLA DE PARIS,"441281,789","4475192,9",40.4252981,-3.6922023,PLAZA VILLA DE PARIS,FUENTE
FUE_01_0005,1.0,CENTRO,PLAZA VILLA DE PARIS,"441199,3988","4475222,805",40.4255618,-3.6931763,PLAZA VILLA DE PARIS,FUENTE
FUE_01_0006,1.0,CENTRO,PLAZA CRISTINO MARTOS,"439601,2523","4475244,82",40.4256456,-3.7120169,PLAZA CRISTINO MARTOS,FUENTE
FUE_01_0007,1.0,CENTRO,PLAZA SAN ILDEFONSO,"440465,5389","4475071,01",40.4241421,-3.7018126,PLAZA SAN ILDEFONSO,FUENTE
FUE_01_0008,1.0,CENTRO,PARQUE CASINO DE LA REINA,"440185,8664","4473053,601",40.4059482,-3.7049195,PARQUE CASINO DE LA REINA,FUENTE
FUE_01_0009,1.0,CENTRO,PLAZA DE LOS CARROS,"439636,4322","4473693,572",40.4116737,-3.711455,PLAZA DE LOS CARROS,FUENTE
FUE_01_0012,1.0,CENTRO,PARQUE DE LA CORNISA,"439304,7466","4473492,437",40.4098378,-3.7153448,PARQUE DE LA CORNISA,FUENTE
FUE_01_0017,1.0,CENTRO,PASEO DEL PRADO,"441186,3865","4473797,868",40.4127243,-3.6931979,PASEO DEL PRADO,FUENTE
FUE_01_0018,1.0,CENTRO,CAPITAN SALAZAR MARTINEZ N 11,"439737,4751","4473188,049",40.4071271,-3.7102162,"GLORIETA PUERTA DE TOLEDO, JARDIN DE LAS HEROINAS DE SALVORA",FUENTE
FUE_01_0020,1.0,CENTRO,PLAZA DOS DE MAYO,"440248,1564","4475384,045",40.4269465,-3.7044044,PLAZA DOS DE MAYO,FUENTE
FUE_01_0021,1.0,CENTRO,PARQUE DE ATENAS,"438867,16","4474075,74",40.4150604,-3.7205578,JUNTO PISTA DEPORTIVA,FUENTE
FUE_01_0024,1.0,CENTRO,JARDINES PLAZA GABRIEL MIRO,"439346,7118","4473805,941",40.412665,-3.7148802,JARDINES PLAZA GABRIEL MIRO,FUENTE
FUE_01_0027,1.0,CENTRO,"CALLE SEGOVIA, 30","439005,2002","4474042,985",40.4147755,-3.7189277,PARQUE DE ATENAS,FUENTE
FUE_01_0028,1.0,CENTRO,PARQUE DE ATENAS,"438901,76","4474042,18",40.4147606,-3.7201468,JUNTO PISTAS PETANCA Y ESTANQUE,FUENTE
FUE_01_0029,1.0,CENTRO,PARQUE CASINO DE LA REINA,"440213,5592","4473132,298",40.4066592,-3.7046006,PARQUE CASINO DE LA REINA,FUENTE
FUE_01_0030,1.0,CENTRO,PARQUE CASINO DE LA REINA,"440150,8768","4477112,016",40.4425058,-3.7057139,PARQUE CASINO DE LA REINA,FUENTE
FUE_01_0031,1.0,CENTRO,CL ARGANZUELA N:1,"439735,5452","4473379,122",40.4088482,-3.7102571,FUENTE CABESTREROS/  FUENTECILLA DEL LEAL,FUENTE
FUE_01_0032,1.0,CENTRO,"CL MESON DE PAREDES, N 48","440273,2651","4473434,891",40.4093894,-3.7039254,CABESTREROS/ PLAZA NELSON MANDELA,FUENTE
FUE_01_0033,1.0,CENTRO,CL SAN JUSTO N:1,"439843,2957","4473930,022",40.4138188,-3.7090393,PLAZA PUERTA CERRADA,FUENTE
FUE_01_0041,1.0,CENTRO,"C/ SANTA CRUZ DE MARCENADO, 18","439804,5471","4475601,772",40.4288758,-3.7096543,ESQUINA C/ CONDE DUQUE (FTE FARMACIA),FUENTE
FUE_01_0042,1.0,CENTRO,PLAZA SANTA MARIA SOLEDAD TORRES ACOSTA,"440151,64","4474817,1",40.4218322,-3.7054888,"FRENTE A CALLE LUNA, 8",FUENTE
FUE_01_0044,1.0,CENTRO,"CIUDAD RODRIGO, JUNTO ACCESO PZA. MAYOR","439879,02","4474144,04",40.4157493,-3.7086386,CV TRAVESIA DE BRINGAS,FUENTE
FUE_01_0045,1.0,CENTRO,JARDINES ARQUITECTO RIBERA,"440651,51","4475261,61",40.4258724,-3.6996383,DENTRO DE ARENERO ZONA INFANTIL,FUENTE
FUE_01_0047,1.0,CENTRO,PLAZA DE LAVAPIES,"440519,31","4473379,46",40.4089076,-3.7010206,JUNTO ZONA INFANTIL,FUENTE
FUE_01_0048,1.0,CENTRO,PLAZA DEL PRINCIPE ALFONSO N5,"440569,19","4474037,7",40.414841,-3.7004943,"PLAZA DE SANTA ANA, AREA INFANTIL",FUENTE
FUE_01_0049,1.0,CENTRO,PASEO DE RECOLETOS N 17,"441255,76","4474770,46",40.4214908,-3.6924701,C/V PRIM. EN BULEVAR JUNTO ASEOS PUBLICOS,FUENTE
FUE_01_0050,1.0,CENTRO,PLAZA JACINTO BENAVENTE N 2,"440345,47","4474000,18",40.4144869,-3.7031275,C/V PLAZA DEL ANGEL,FUENTE
FUE_01_0051,1.0,CENTRO,"CALLE TRES CRUCES, 1","440338,32","4474513,31",40.419109,-3.7032599,C/V PLAZA DEL CARMEN,FUENTE
FUE_01_0052,1.0,CENTRO,C/ AUGUSTO FIGUEROA N 41,"440894,84","4474833,97",40.4220373,-3.6967302,C/V VALGAME DIOS,FUENTE
FUE_01_0053,1.0,CENTRO,"PLAZA GUARDIAS DE CORPS, 4","439731,8","4475414,52",40.4271838,-3.7104941,C/V CONDE DUQUE,FUENTE
FUE_01_0055,1.0,CENTRO,"CABALLERO DE GRACIA, 40","440824,97","4474488,94",40.4189242,-3.6975217,"C/V GRAN VIA, 1",FUENTE
FUE_01_0056,1.0,CENTRO,PASEO DE RECOLETOS 1,"441185,92","4474584,23",40.4198082,-3.6932761,C/V PZA. CIBELES EN BULEVAR JUNTO PARADAS DE AUTOBUS,FUENTE
FUE_01_0057,1.0,CENTRO,TIRSO DE MOLINA 2,"440295,29","4473761,7",40.412335,-3.7036965,JUNTO AREA INFANTIL,FUENTE
FUE_01_0058,1.0,CENTRO,TOLEDO 40,"439964,21","4473787,04",40.4125395,-3.7076008,FRENTE N 40,FUENTE
FUE_01_0061,1.0,CENTRO,CALLE HUERTAS 71,"441001,17","4473841,53",40.4131045,-3.6953848,C/V CALLE JESUS,FUENTE
FUE_01_0062,1.0,CENTRO,CALLE SAN LUCAS 1,"440864,72","4475031,35",40.4238133,-3.6971036,C/V SAN GREGORIO,FUENTE
FUE_01_0063,1.0,CENTRO,PARQUE CASINO DE LA REINA,"440133,39","4473044,21",40.4058599,-3.7055371,JUNTO AREA CANINA,FUENTE
FUE_01_0064,1.0,CENTRO,PARQUE CASINO DE LA REINA,"440116,53","4473053,82",40.4059452,-3.7057367,JUNTO AREA CANINA,FUENTE
FUE_01_0066,1.0,CENTRO,PLAZA VIRGEN DE LA PALOMA 1,"439587,39","4473309,42",40.4082096,-3.7119965,C/V CALLE LA PALOMA 21,FUENTE
FUE_01_0068,1.0,CENTRO,CALLE SAN PEDRO 20,"441045,86","4473662,57",40.4114955,-3.6948415,C/V GOBERNADOR,FUENTE
FUE_01_0071,1.0,CENTRO,"C/ ATOCHA, 73","440722,03","4473750,16",40.4122616,-3.6986661,C/V C/ AMOR DE DIOS,FUENTE
FUE_01_0072,1.0,CENTRO,"C/ SANTA ISABEL, 34",440767,"4473568,56",40.4106288,-3.6981192,C/V C/ BUENAVISTA.,FUENTE
FUE_01_0073,1.0,CENTRO,"C/ DOCTOR MATA, 2","441076,94","4473375,67",40.4089132,-3.6944487,"C/V C/ SANTA ISABEL, PLAZA JUAN GOYTISOLO",FUENTE
FUE_01_0074,1.0,CENTRO,"C/ SANTA ISABEL, 52","441169,8","4473328,31",40.4084931,-3.69335,JUNTO AL MUSEO REINA SOFIA,FUENTE
FUE_01_0075,1.0,CENTRO,PLAZA DE LA CORRALA ,"440360,55","4473284,54",40.4080412,-3.7028827,C/ MESON DE PAREDES 63.,FUENTE
FUE_01_0077,1.0,CENTRO,"CALLE CALATRAVA, 37","439480,39","4473479,01",40.4097296,-3.7132736,C/V C/ DEL ANGEL,FUENTE
FUE_01_0078,1.0,CENTRO,"PLAZA DE SAN FRANCISCO, 4","439403,92","4473600,19",40.4108156,-3.7141863,C/V C/ SAN BUENAVENTURA,FUENTE
FUE_01_0079,1.0,CENTRO,"P VIRGEN DEL PUERTO, 1","438926,15","4474579,57",40.4196034,-3.7199109,C/V GLORIETA DE SAN VICENTE,FUENTE
FUE_01_0080,1.0,CENTRO,PLAZA DEL REY,"440972,65","4474618,41",40.420101,-3.695793,CALLE BARQUILLO 'FRENTE N 6-8,FUENTE
FUE_01_0081,1.0,CENTRO,PLAZA CONDE DE TORENO 1,"439840,89","4475100,89",40.4243663,-3.7091785,C/V CALLE REYES,FUENTE
FUE_01_0082,1.0,CENTRO,CALLE AMANIEL 10,"439827,58","4475257,57",40.4257768,-3.7093502,C/V TRAVESIA CONDE DUQUE,FUENTE
FUE_01_0083,1.0,CENTRO,CALLE MAYOR 32,"439948,63","4474192,11",40.4161874,-3.7078227,C/V BORDADORES,FUENTE
FUE_01_0084,1.0,CENTRO,PLAZA DE SANTIAGO 4,"439695,29","4474251,51",40.4167042,-3.7108142,C/V SANTA CLARA,FUENTE
FUE_01_0085,1.0,CENTRO,"CALLE ALCALA, 7","440501,68","4474321,02",40.4173884,-3.7013164,JUNTO CANALEJAS,FUENTE
FUE_01_0086,1.0,CENTRO,CALLE MAESTRO GUERRERO 8A,439711,"4475108,37",40.4244243,-3.7107103,C/V DOS AMIGOS,FUENTE
FUE_01_0087,1.0,CENTRO,CALLE LIBREROS 1,"440040,12","4474776,56",40.421459,-3.7067995,FRENTE N 4 C/V FLOR ALTA,FUENTE
FUE_01_0088,1.0,CENTRO,CALLE HORTALEZA 37,"440643,12","4474862,42",40.4222757,-3.6996999,C/V CALLE PEREZ GALDOS,FUENTE
FUE_01_0089,1.0,CENTRO,CALLE CRUZ VERDE 16,"440015,15","4475042,5",40.4238529,-3.7071189,C/V TRAV. CRUZ VERDE,FUENTE
FUE_01_0090,1.0,CENTRO,CALLE SAN BERNARDO 55,"440013,17","4475256,08",40.4257768,-3.7071624,C/V CALLE ESPIRITU SANTO,FUENTE
FUE_01_0091,1.0,CENTRO,CALLE RASTRILLO 1,"440294,56","4475210,31",40.4253847,-3.7038411,C/V CALLE ESPIRITU SANTO,FUENTE
FUE_01_0092,1.0,CENTRO,"GLORIETA EMBAJADORES, 1","440373,14","4473003,85",40.4055135,-3.702708,GLORIETA EMBAJADORES FAROLA 29 C/V CALLE EMBAJADORES.,FUENTE
FUE_01_0093,1.0,CENTRO,CUESTA SANTO DOMINGO 12,"439827,36","4474582,39",40.4196945,-3.7092889,C/V CAMPOMANES,FUENTE
FUE_01_0094,1.0,CENTRO,PLAZA ENCARNACION 2,"439682,15","4474587,78",40.4197325,-3.711001,C/V CALLE DE LA ENCARNACION,FUENTE
FUE_01_0095,1.0,CENTRO,"CALLE TOLEDO, 61 C/V C/ SAN MILLAN","439925,64","4473641,7",40.4112274,-3.7080417,PLAZA DE LA CEBADA,FUENTE
FUE_01_0096,1.0,CENTRO,"CALLE PRECIADOS, 35","440008,5","4474583,72",40.4197195,-3.707154,C/V CALLE TERNERA,FUENTE
FUE_01_0099,1.0,CENTRO,"PLAZA DE LA PAJA, 6","439645,39","4473879,88",40.4133528,-3.7113671,C/V PRINCIPE ANGLONA,FUENTE
FUE_01_0101,1.0,CENTRO,"CALLE ALMUDENA, 3","439487,6","4474130,22",40.4155965,-3.7132505,C/V BAILEN 19,FUENTE
FUE_01_0102,1.0,CENTRO,"CALLE SAN NICOLAS, 15","439604,94","4474249,49",40.4166794,-3.7118789,FRENTE AL N 15,FUENTE
FUE_01_0103,1.0,CENTRO,"PLAZA DEL BIOMBO, 1","439660,72","4474162,99",40.4159043,-3.7112133,C/V CALLE CALDERON DE LA BARCA,FUENTE
FUE_01_0104,1.0,CENTRO,"CALLE GRAFAL, 10","439909,79","4473842,61",40.4130361,-3.7082475,FRENTE N 10 C/V SAN BRUNO,FUENTE
FUE_01_0105,1.0,CENTRO,"CALLE TAMAYO Y BAUS, 5","441197,94","4474932,6",40.4229473,-3.6931666,C/V CALLE MARQUES DEL MONASTERIO,FUENTE
FUE_01_0109,1.0,CENTRO,"CALLE SANTA ISABEL, 47","440948,62","4473442,39",40.4095051,-3.6959671,C/V SANTA INES,FUENTE
FUE_01_0110,1.0,CENTRO,"PASEO DEL PRADO, 8","441050,28","4474116,9",40.4155886,-3.6948315,C/V PLAZA DE LAS CORTES 6,FUENTE
FUE_01_0111,1.0,CENTRO,"CALLE SAN AGUSTIN, 2","440871,73","4474089,38",40.4153281,-3.6969334,C/V CALLE PRADO,FUENTE
FB_01_000052,1.0,CENTRO,JARDINES DE LA PLAZA DE ORIENTE,"439604,66","4474347,24",40.41756,-3.7118915,A. 3 - LEPANTO,FUENTE
FB_01_000051,1.0,CENTRO,JARDINES DE SABATINI,"439448,55","4474672,62",40.4204798,-3.7137624,A. 1 - PLATAFORMA,FUENTE
FB_900013,1.0,CENTRO,MADRID RIO,"438776,1","4474277,1",40.4168676,-3.7216504,Z.06. - VIRGEN DEL PUERTO,FUENTE
FB_900014,1.0,CENTRO,MADRID RIO,"438732,8","4474119,6",40.4154456,-3.7221456,Z.07. - ERMITA VIRGEN DEL PUERTO,FUENTE
FUE_02_0001,2.0,ARGANZUELA,ED 3/3 MENDEZ ALVARO - DELICIAS,"441880,8298","4472295,84",40.399242,-3.6848763,PLAZA DEL AMANECER EN MENDEZ ALVARO N3,FUENTE
FUE_02_0002,2.0,ARGANZUELA,RAMIREZ DE PRADO,"441666,9056","4472270,393",40.3989978,-3.6873947,C/RAMIREZ DE PRADO N 5,FUENTE
FUE_02_0003,2.0,ARGANZUELA,Z.V. PUERTO DE  BEJAR,"441726,2999","4471118,306",40.3886234,-3.6865894,CALLE PUERTO DE BEJAR N 24,FUENTE
FUE_02_0005,2.0,ARGANZUELA,PARQUE DEL BRONCE PVF,"441652,7373","4471307,878",40.390326,-3.6874734,C/BRONCE N 19,FUENTE
FUE_02_0007,2.0,ARGANZUELA,PARQUE DE DELICIAS,"441584,4768","4471881,322",40.395487,-3.6883302,C/P·RROCO EUSEBIO CUENCA N 46,FUENTE
FUE_02_0009,2.0,ARGANZUELA,PZA. LUCA DE TENA,"441149,1029","4472614,311",40.4020595,-3.6935279,PZA  LUCA DE TENA N 2,FUENTE
FUE_02_0010,2.0,ARGANZUELA,PZA  LUCA DE TENA N 13,"441102,0141","4472613,682",40.4020505,-3.6940827,JARDIN DE PALESTINA,FUENTE
FUE_02_0012,2.0,ARGANZUELA,C/PALOS DE LA FRONTERA N 42,"441049,3744","4472708,743",40.4029032,-3.6947118,JARDIN DE PALESTINA,FUENTE
FUE_02_0013,2.0,ARGANZUELA,C/CANARIAS N 22,"441021,0747","4472630,963",40.4022005,-3.6950381,JARDIN DE PALESTINA,FUENTE
FUE_02_0014,2.0,ARGANZUELA,PZA. RUTILIO GACIS,"440862,496","4471751,96",40.3942707,-3.696825,PLAZA RUTILIO GACIS N 2,FUENTE
FUE_02_0015,2.0,ARGANZUELA,PZA. PENUELAS,"440374,2136","4472508,34",40.4010498,-3.702649,PLAZA DE LAS PENUELAS N 12,FUENTE
FUE_02_0016,2.0,ARGANZUELA,PARQUE PENUELAS,"440150,3977","4472512,842",40.4010743,-3.7052867,PASEO ESPERANZA N 25,FUENTE
FUE_02_0017,2.0,ARGANZUELA,POL. DE YESERIAS FASES II Y III,"439947,8767","4472323,984",40.3993583,-3.7076552,PASEO YESERIAS 25,FUENTE
FUE_02_0019,2.0,ARGANZUELA,JARDIN DEL RASTRO,"439836,9336","4472997,919",40.4054215,-3.7090263,CALLE CONCEJAL BENITO MARTIN LOZANO 10,FUENTE
FUE_02_0021,2.0,ARGANZUELA,JARDIN MAESTRO PADILLA,"438746,6629","4472892,771",40.4043948,-3.7218641,C/SAN ALEJANDRO N 14,FUENTE
FUE_02_0022,2.0,ARGANZUELA,ACACIAS - PASILLO VERDE,"439901,8829","4472690,686",40.4026585,-3.7082319,C/ GASOMETRO 26. DENTRO DEL PARQUE,FUENTE
FUE_02_0023,2.0,ARGANZUELA,ACACIAS - PASILLO VERDE,"439901,8829","4472690,686",40.4026585,-3.7082319,C/ GASOMETRO 26. DENTRO DEL PARQUE,FUENTE
FUE_02_0024,2.0,ARGANZUELA,PARQUE IMPERIAL PVF,"439064,7488","4472939,938",40.404843,-3.7181203,CALLE SANTA MARIA LA REAL DE NIEVA N 16,FUENTE
FUE_02_0028,2.0,ARGANZUELA,ED 2/8 VALDELASIERRA,"440179,2701",4472102,40.3973753,-3.7049079,C/VALDELASIERRA N 10,FUENTE
FUE_02_0029,2.0,ARGANZUELA,HIERRO - ANTRACITA,"441417,3844","4471208,77",40.3894166,-3.6902372,C/ DEL SODIO N 3,FUENTE
FUE_02_0030,2.0,ARGANZUELA,HIERRO - ANTRACITA,"441432,213","4471174,59",40.3891097,-3.6900594,C/ DEL SODIO N 3,FUENTE
FUE_02_0034,2.0,ARGANZUELA,PARQUE ENRIQUE TIERNO GALVAN,"441885,259","4470834,183",40.3860749,-3.6846907,C/VILLARROBLEDO S/N,FUENTE
FUE_02_0035,2.0,ARGANZUELA,PARQUE MIRADOR TIERNO GALVAN PVF,"441891,0304","4471698,467",40.3938613,-3.6847016,C/NEBULOSAS N 2,FUENTE
FUE_02_0037,2.0,ARGANZUELA,PARQUE ENRIQUE TIERNO GALVAN,"442126,2715","4471306,252",40.3903443,-3.6818943,EN LACOTA. C/TITAN N 2,FUENTE
FUE_02_0038,2.0,ARGANZUELA,PARQUE ENRIQUE TIERNO GALVAN,"441892,162","4471013,363",40.3876895,-3.6846258,EN LA COTA. C/TITAN N 2,FUENTE
FUE_02_0045,2.0,ARGANZUELA,JARDINES FERNANDO POO - TORRES MIRANDA,"440749,6469","4472152,483",40.3978708,-3.6981919,"C/JAIME EL CONQUISTADOR N 6, JUNTO ZONA INFANTIL",FUENTE
FUE_02_0046,2.0,ARGANZUELA,JARDIN PARROCO SANCHEZ CAMARA ED 2-15,"440217,4683","4472591,542",40.4017881,-3.7045037,C/MORATINES N24,FUENTE
FUE_02_0047,2.0,ARGANZUELA,PARQUE PENUELAS,"440093,5368","4472398,502",40.4000401,-3.7059459,FRENTE EL N 31 DE PASEO ESPERANZA,FUENTE
FUE_02_0050,2.0,ARGANZUELA,PASEO YESERIAS,"439688,538","4472330,507",40.3993984,-3.7107117,FRENTE AL N15,FUENTE
FUE_02_0052,2.0,ARGANZUELA,"AV. PALNETARIO, 11","442125,47","4471670,41",40.3936248,-3.6819368,EN ZONA VERDE CV CALLE MENESES,FUENTE
FUE_02_0053,2.0,ARGANZUELA,"CALLE GRANITO, 20","441238,39","4471659,4",40.3934635,-3.6923876,CON VUELTA CALLE HIERRO,FUENTE
FUE_02_0054,2.0,ARGANZUELA,"CALLE AGUILON,11","440567,02","4472108,5",40.3974616,-3.7003397,JUNTO A ZONA INFANTIL,FUENTE
FUE_02_0055,2.0,ARGANZUELA,CALLE EROS N 10,"442305,61","4471626,11",40.3932382,-3.6798104,CV CALLE ARIEL,FUENTE
FUE_02_0056,2.0,ARGANZUELA,CALLE AMALTEA N 6,"442090,51","4471814,14",40.3949172,-3.6823618,JUNTO ZONA INFANTIL,FUENTE
FUE_02_0057,2.0,ARGANZUELA,CALLE JACARANDA 13,"442359,46","4472086,99",40.3973938,-3.6792176,C/V ALMEZ,FUENTE
FUE_02_0058,2.0,ARGANZUELA,"PASEO DE YESERIAS, 1","439501,78","4472480,58",40.4007368,-3.7129266,ZV JUNTO PISTA FRONTON,FUENTE
FUE_02_0059,2.0,ARGANZUELA,"CALLE TOLEDO, 178","439380,75","4472628,01",40.4020561,-3.7143668,JARDINES DE CONCHA PIQUER,FUENTE
FUE_02_0060,2.0,ARGANZUELA,"PASEO JUAN ANTONIO VALLEJO NAJERA-BOTAS, 1","440602,84","4472491,95",40.4009185,-3.6999534,C/V GLORIETA SANTA MARIA DE LA CABEZA,FUENTE
FUE_02_0061,2.0,ARGANZUELA,C/ VILLOSLADA N 9,"439653,81","4472810,01",40.4037155,-3.7111664,PARQUE GIL IMON,FUENTE
FUE_02_0062,2.0,ARGANZUELA,"TRAVESIA DE SAN ISIDORO DE SEVILLA, 7-9","439653,81","4472810,01",40.4037155,-3.7111664,"PASEO DE LOS OLMOS N 24,",FUENTE
FUE_02_0063,2.0,ARGANZUELA,"CALLE PARROCO EUSEBIO CUENCA, FRENTE N 64","441643,21","4471655,95",40.3934609,-3.6876176,C/V ANTRACITA (PLANETARIO),FUENTE
FUE_02_0064,2.0,ARGANZUELA,"PARQUE ENRIQUE TIERNO GALVAN, AV. PLANETARIO 18","441790,86","4471419,38",40.3913401,-3.6858563,"P  CATALPAS JUNTO A LA FAROLA 594, AREA CANINA",FUENTE
FUE_02_0065,2.0,ARGANZUELA,"CALLE MORENO NIETO,5","439019,97","4473706,98",40.4117496,-3.7187215,CV CALLE JUAN DUQUE 25,FUENTE
FB_900020,2.0,ARGANZUELA,MADRID RIO,"438790,4","4473362,3",40.4086277,-3.7213938,Z.10. - CEDEX MARGEN IZQUIERDO,FUENTE
FB_900036,2.0,ARGANZUELA,MADRID RIO,"439641,8","4472334,9",40.3994346,-3.7112629,Z.17. -  ARGANZUELA - ESQUELETO,FUENTE
FB_900037,2.0,ARGANZUELA,MADRID RIO,"439643,7","4472334,7",40.3994329,-3.7112405,Z.17. -  ARGANZUELA - ESQUELETO,FUENTE
FB_900038,2.0,ARGANZUELA,MADRID RIO,"439642,8","4472334,7",40.3994329,-3.7112511,Z.17. -  ARGANZUELA - ESQUELETO,FUENTE
FB_900039,2.0,ARGANZUELA,MADRID RIO,"439530,6",4472240,40.3985716,-3.7125641,Z.17. -  ARGANZUELA - ESQUELETO,FUENTE
FB_900040,2.0,ARGANZUELA,MADRID RIO,"439529,9","4472239,4",40.3985662,-3.7125723,Z.17. -  ARGANZUELA - ESQUELETO,FUENTE
FB_900041,2.0,ARGANZUELA,MADRID RIO,"439529,2","4472238,7",40.3985598,-3.7125805,Z.17. -  ARGANZUELA - ESQUELETO,FUENTE
FB_900042,2.0,ARGANZUELA,MADRID RIO,"439646,6","4472215,5",40.3983593,-3.711195,Z.18. - ARGANZUELA - PERRAULT,FUENTE
FB_900043,2.0,ARGANZUELA,MADRID RIO,"439647,3",4472215,40.3983549,-3.7111867,Z.18. - ARGANZUELA - PERRAULT,FUENTE
FB_900044,2.0,ARGANZUELA,MADRID RIO,439648,"4472214,4",40.3983495,-3.7111784,Z.18. - ARGANZUELA - PERRAULT,FUENTE
FB_900047,2.0,ARGANZUELA,MADRID RIO,"439963,3","4471984,5",40.3963013,-3.7074415,Z.20. - ARGANZUELA - P DE PLATANOS,FUENTE
FB_900048,2.0,ARGANZUELA,MADRID RIO,"439962,9","4471983,6",40.3962931,-3.7074462,Z.20. - ARGANZUELA - P DE PLATANOS,FUENTE
FB_900049,2.0,ARGANZUELA,MADRID RIO,"439962,6","4471982,8",40.3962859,-3.7074496,Z.20. - ARGANZUELA - P DE PLATANOS,FUENTE
FB_900050,2.0,ARGANZUELA,MADRID RIO,"439990,3","4472101,3",40.3973554,-3.7071344,Z.20. - ARGANZUELA - P DE PLATANOS,FUENTE
FB_900051,2.0,ARGANZUELA,MADRID RIO,439991,"4472100,8",40.3973509,-3.7071261,Z.20. - ARGANZUELA - P DE PLATANOS,FUENTE
FB_900052,2.0,ARGANZUELA,MADRID RIO,"439989,6","4472101,9",40.3973607,-3.7071427,Z.20. - ARGANZUELA - P DE PLATANOS,FUENTE
FB_900056,2.0,ARGANZUELA,MADRID RIO,"440535,5",4471544,40.3923741,-3.7006584,Z.23. - ARGANZUELA - P DE LA CHOPERA,FUENTE
FB_900057,2.0,ARGANZUELA,MADRID RIO,"440534,9","4471544,7",40.3923803,-3.7006655,Z.23. - ARGANZUELA - P DE LA CHOPERA,FUENTE
FB_900058,2.0,ARGANZUELA,MADRID RIO,"440512,9","4471564,2",40.3925544,-3.7009265,Z.23. - ARGANZUELA - P DE LA CHOPERA,FUENTE
FB_900059,2.0,ARGANZUELA,MADRID RIO,"440512,1","4471563,7",40.3925499,-3.7009359,Z.23. - ARGANZUELA - P DE LA CHOPERA,FUENTE
FB_900060,2.0,ARGANZUELA,MADRID RIO,"440511,3","4471563,2",40.3925453,-3.7009453,Z.23. - ARGANZUELA - P DE LA CHOPERA,FUENTE
FB_900067,2.0,ARGANZUELA,MADRID RIO,"441538,5","4470641,9",40.3843184,-3.6887583,Z.28. - BMX,FUENTE
FB_900068,2.0,ARGANZUELA,MADRID RIO,"440719,6","4471640,9",40.3932601,-3.6984983,Z.23. - ARGANZUELA - P DE LA CHOPERA,FUENTE
FUE_03_0001,3.0,RETIRO,PARQUE DE ROMA,"441495,9624","4475421,702",40.4273744,-3.6896988,C/JUAN ESPLANDIU N 6.PROXIMA A FUENTE ORNAMENTAL CIRCULAR,FUENTE
FUE_03_0002,3.0,RETIRO,PARQUE DE ROMA,"443885,3108","4474124,772",40.4158555,-3.6614183,"C/JUAN ESPLANDIU N 4, JUNTO A JUEGOS INFANTILES",FUENTE
FUE_03_0005,3.0,RETIRO,PARQUE DE ROMA,"443835,69","4474016,74",40.414879,-3.6619936,AREA CANINA,FUENTE
FUE_03_0006,3.0,RETIRO,PARQUE DE ROMA,"443645,6773","4474002,265",40.4147358,-3.6642318,JUNTO A LA ENTRADA DE LA CALLE PEZ VOLADOR 32,FUENTE
FUE_03_0007,3.0,RETIRO,PARQUE DE ROMA,"443588,2282","4474449,008",40.4187564,-3.6649485,"C/JUAN ESPLANDIU N 11, EN EL ROCODROMO",FUENTE
FUE_03_0008,3.0,RETIRO,JARDINES FEDERICO MORENO TORROBA,"443396,7563","4472871,442",40.4045317,-3.667065,C/FEDERICO MORENO TORROBA N 11,FUENTE
FUE_03_0010,3.0,RETIRO,JARDINES P JOHN LENNON,"443511,2571","4474224,198",40.4167259,-3.6658358,C/MARQUES DE LOZOYA N 6,FUENTE
FUE_03_0011,3.0,RETIRO,PARQUE MARTIN LUTHER KING,"443306,1855","4472675,612",40.4027614,-3.6681148,C/ARREGUI Y ARUEJ  24,FUENTE
FUE_03_0012,3.0,RETIRO,PARQUE MARTIN LUTHER KING,"443285,0896","4472780,463",40.4037045,-3.6683728,C/ MARTINEZ CORROCHANO N 41,FUENTE
FUE_03_0013,3.0,RETIRO,JARDINES CONDE CARTAGENA - ABTAO,"442783,5549","4473222,373",40.4076512,-3.6743227,C/ CONDE DE CARTAGENA 16. JARDIN ?MARIA DE LA CONCEPCION ARIAS Y ARIMON?,FUENTE
FUE_03_0017,3.0,RETIRO,PARQUE DE COCHERAS,"442611,0732","4472452,101",40.4007003,-3.6762858,"C/HOYUELO N 11, JUNTO PISTAS DEPORTIVAS",FUENTE
FUE_03_0018,3.0,RETIRO,POLIDEPORTIVO DAOIZ Y VELARDE,"442414,4272","4472484,934",40.4009825,-3.6786059,TELLEZ 31,FUENTE
FUE_03_0021,3.0,RETIRO,STA. SABINA - DR. ESQUERDO,"443110,9647","4472923,757",40.4049836,-3.6704375,C/SANTA SABINA N 6,FUENTE
FUE_03_0023,3.0,RETIRO,PARQUE ANUNCIACION,"442664,95","4473727,46",40.4121932,-3.6757658,"C/ ANUNCIACION 8, ZV CON AREA INFANTIL",FUENTE
FUE_03_0028,3.0,RETIRO,PZA. VAQUERIAS,"443415,0468","4474454,81",40.4187969,-3.6669902,C/VAQUERIAS 7,FUENTE
FUE_03_0032,3.0,RETIRO,PIO BAROJA - MENENDEZ PELAYO,"442597,2008","4473814,919",40.4129764,-3.6765722,AVDA.DE MENENDEZ PELAYO N67,FUENTE
FUE_03_0035,3.0,RETIRO,JARDINES JESUS APRENDIZ,"443016,8084","4473434,551",40.4095786,-3.6715928,"C/ ANTONIO DIAZ-CANABATE, 4",FUENTE
FUE_03_0036,3.0,RETIRO,C/ FEDERICO MORENO TORROBA N3,"443401,08","4473028,91",40.4059506,-3.6670281,AVDA. MEDITERRANEO (MADRID SALUD),FUENTE
FUE_03_0042,3.0,RETIRO,CAVANILLES N 46 PASAJE,"442748,431","4472936,672",40.405075,-3.6747108,CAVANILLES CV CALLE ABTAO,FUENTE
FUE_03_0045,3.0,RETIRO,CALLE ANTONIO NEBRIJA 7,"441972,931","4472717,182",40.4030441,-3.6838295,CONFLUENCIA CON CALLE COMERCIO,FUENTE
FUE_03_0048,3.0,RETIRO,CALLE BARRILERO 2,"442831,73","4472125,27",40.3977712,-3.6736563,C/V SECO (PZA. LAS CALIFORNIAS),FUENTE
FUE_03_0049,3.0,RETIRO,PASAJE DEL LINCE 8,"443322,04","4473352,89",40.4088638,-3.6679883,"PLAZUELA VIRGEN DE LA ESTRELLA, JUNTO A PISTAS DEPORTIVAS",FUENTE
FUE_03_0050,3.0,RETIRO,AV. MEDITERRANEO 2,"442463,89","4473180,96",40.4072561,-3.678086,C/V PLAZA MARIANO DE CAVIA,FUENTE
FUE_03_0051,3.0,RETIRO,CALLE DOCE DE OCTUBRE 30,"442891,59","4474155,39",40.4160638,-3.6731332,JARDINES DOCE DE OCTUBRE (FRENTE C/ MAIQUEZ),FUENTE
FUE_03_0052,3.0,RETIRO,"PLAZA DE CONDE DE CASAL, 10","443082,6","4473087,48",40.4064565,-3.6707864,JUNTO PARADA BUS,FUENTE
FUE_03_0053,3.0,RETIRO,CALLE FELIPE IV FRENTE N 1,"441212,62","4474037,04",40.4148807,-3.6929108,ACCESO MUSEO DEL PRADO,FUENTE
FUE_03_0054,3.0,RETIRO,"CALLE ESTRELLA POLAR, 13","443512,78","4473613,83",40.4112275,-3.6657637,C/V CALLE PEZ AUSTRAL,FUENTE
FUE_03_0055,3.0,RETIRO,"CALLE O'DONNELL, 48","442974,13","4474728,73",40.4212344,-3.6722118,HOSPITAL MATERNO INFANTIL,FUENTE
FUE_03_0056,3.0,RETIRO,"CALLE MENENDEZ PELAYO, 9","442333,04","4474762,86",40.4214976,-3.6797714,C/V OпDONNELL,FUENTE
FUE_03_0057,3.0,RETIRO,"CALLE JUAN VALERA, 24","442085,58","4473289,53",40.4082079,-3.6825541,C/V CALLE ANDRES TORREJON,FUENTE
FUE_03_0058,3.0,RETIRO,CALLE SIRIO 2,"443810,53","4473838,97",40.4132758,-3.6622745,"FRENTE A CALLE PEZ VOLADOR, JUNTO A ZONA INFANTIL",FUENTE
FUE_03_0059,3.0,RETIRO,CALLE GRANADA 55 C,"442805,71","4472744,18",40.4033449,-3.6740185,JUNTO ZONA INFANTIL,FUENTE
FB_01_000001,3.0,RETIRO,JARDINES DEL BUEN RETIRO,"441846,65","4474411,3",40.4182968,-3.6854724,A. 12 - EL POVAR,FUENTE
FB_01_000002,3.0,RETIRO,JARDINES DEL BUEN RETIRO,"441754,41","4474567,95",40.4197015,-3.6865739,A. 13 - HERNANI,FUENTE
FB_01_000003,3.0,RETIRO,JARDINES DEL BUEN RETIRO,"441760,56","4474463,47",40.4187607,-3.6864919,A. 12 - EL POVAR,FUENTE
FB_01_000004,3.0,RETIRO,JARDINES DEL BUEN RETIRO,"441846,65","4474411,3",40.4182968,-3.6854724,A. 12 - EL POVAR,FUENTE
FB_01_000005,3.0,RETIRO,JARDINES DEL BUEN RETIRO,"441950,94","4474644,87",40.4204082,-3.6842645,A. 13 - HERNANI,FUENTE
FB_01_000006,3.0,RETIRO,JARDINES DEL BUEN RETIRO,"442106,93","4474673,63",40.4206781,-3.6824285,A. 16 - PLAZA DE GALICIA,FUENTE
FB_01_000007,3.0,RETIRO,JARDINES DEL BUEN RETIRO,"442288,37","4474580,86",40.419855,-3.6802814,A. 1 - RESERVADO,FUENTE
FB_01_000008,3.0,RETIRO,JARDINES DEL BUEN RETIRO,"442211,32","4474497,8",40.4191014,-3.6811821,A. 14 - ESTANQUE,FUENTE
FB_01_000009,3.0,RETIRO,JARDINES DEL BUEN RETIRO,"442316,72","4474449,84",40.4186767,-3.6799354,A. 1 - RESERVADO,FUENTE
FB_01_000010,3.0,RETIRO,JARDINES DEL BUEN RETIRO,"441579,4","4474202,51",40.4163972,-3.6886032,A. 10 - CAMPANILLAS,FUENTE
FB_01_000011,3.0,RETIRO,JARDINES DEL BUEN RETIRO,"441607,814","4473929,64",40.413941,-3.6882433,A. 8 - BOSQUE DEL RECUERDO Y ENTORNO,FUENTE
FB_01_000012,3.0,RETIRO,JARDINES DEL BUEN RETIRO,"441731,93","4473678,09",40.4116836,-3.6867574,A. 8 - BOSQUE DEL RECUERDO Y ENTORNO,FUENTE
FB_01_000013,3.0,RETIRO,JARDINES DEL BUEN RETIRO,"441668,34","4473616,57",40.411125,-3.6875012,A. 7 - CEMENTERIO,FUENTE
FB_01_000014,3.0,RETIRO,JARDINES DEL BUEN RETIRO,"441772,89","4473453,5",40.4096633,-3.6862541,A. 6 - HUERTO DEL FRANCES,FUENTE
FB_01_000015,3.0,RETIRO,JARDINES DEL BUEN RETIRO,"442026,83","4473570,27",40.4107329,-3.6832721,A. 6 - HUERTO DEL FRANCES,FUENTE
FB_01_000016,3.0,RETIRO,JARDINES DEL BUEN RETIRO,"442221,31","4473614,46",40.4111445,-3.6809841,A. 4 - LA ROSALEDA Y ENTORNO,FUENTE
FB_01_000017,3.0,RETIRO,JARDINES DEL BUEN RETIRO,"442302,77","4473637,63",40.4113589,-3.6800262,A. 4 - LA ROSALEDA Y ENTORNO,FUENTE
FB_01_000018,3.0,RETIRO,JARDINES DEL BUEN RETIRO,"442256,56","4473420,36",40.4093984,-3.680551,A. 17 - AREA CANINA,FUENTE
FB_01_000019,3.0,RETIRO,JARDINES DEL BUEN RETIRO,"442420,89","4473318,61",40.4084932,-3.6786052,A. 5 - ENCINAR,FUENTE
FB_01_000020,3.0,RETIRO,JARDINES DEL BUEN RETIRO,"442187,9","4473865,75",40.413406,-3.6814007,A. 15 - CAMPO GRANDE,FUENTE
FB_01_000021,3.0,RETIRO,JARDINES DEL BUEN RETIRO,"442387,6","4474051,82",40.415096,-3.6790639,A. 2 - HERRERO PALACIOS,FUENTE
FB_01_000022,3.0,RETIRO,JARDINES DEL BUEN RETIRO,"442074,96","4473948,49",40.4141435,-3.6827393,A. 15 - CAMPO GRANDE,FUENTE
FB_01_000023,3.0,RETIRO,JARDINES DEL BUEN RETIRO,"441965,89","4474101,4",40.4155134,-3.6840387,A. 14 - ESTANQUE,FUENTE
FB_01_000024,3.0,RETIRO,JARDINES DEL BUEN RETIRO,"442009,79","4474130,89",40.4157821,-3.683524,A. 14 - ESTANQUE,FUENTE
FB_01_000025,3.0,RETIRO,JARDINES DEL BUEN RETIRO,"442131,71","4474269,14",40.417036,-3.6820996,A. 14 - ESTANQUE,FUENTE
FB_01_000026,3.0,RETIRO,JARDINES DEL BUEN RETIRO,"442235,03","4474305,95",40.4173748,-3.6808852,A. 14 - ESTANQUE,FUENTE
FB_01_000027,3.0,RETIRO,JARDINES DEL BUEN RETIRO,"442185,98","4474194,19",40.4163646,-3.6814531,A. 14 - ESTANQUE,FUENTE
FB_01_000028,3.0,RETIRO,JARDINES DEL BUEN RETIRO,"442226,83","4474114,37",40.4156484,-3.6809644,A. 15 - CAMPO GRANDE,FUENTE
FB_01_000029,3.0,RETIRO,JARDINES DEL BUEN RETIRO,"442303,58","4474229,66",40.4166923,-3.6800703,A. 2 - HERRERO PALACIOS,FUENTE
FB_01_000030,3.0,RETIRO,JARDINES DEL BUEN RETIRO,"442376,95","4474279,26",40.4171442,-3.67921,A. 2 - HERRERO PALACIOS,FUENTE
FB_01_000031,3.0,RETIRO,JARDINES DEL BUEN RETIRO,"442432,11","4474225,04",40.4166595,-3.678555,A. 2 - HERRERO PALACIOS,FUENTE
FUE_04_0001,4.0,SALAMANCA,PARQUE BREOGAN,"443998,7149","4476480,083",40.4370811,-3.6602892,AVENIDA DE BRASILIA N 2,FUENTE
FUE_04_0002,4.0,SALAMANCA,PARQUE BREOGAN,"443963,8733","4476409,623",40.436444,-3.6606938,"AVENIDA DE BRASILIA N 2, JUNTO ZONA INFANTIL",FUENTE
FUE_04_0004,4.0,SALAMANCA,PARQUE DE LAS AVENIDAS,"444032,2026","4476747,194",40.4394896,-3.6599179,CERCA DE AREA CANINA,FUENTE
FUE_04_0005,4.0,SALAMANCA,PARQUE DE LAS AVENIDAS,"444002,4864","4476816,504",40.440112,-3.6602743,AVENIDA BRASILIA CV AVDA DE BADAJOZ,FUENTE
FUE_04_0006,4.0,SALAMANCA,PARQUE DE LAS AVENIDAS,"444031,1522","4476994,095",40.4417138,-3.6599521,"FRENTA AL N 42 DE AVENIDA DE BRASILIA, JUNTO ZONA INFANTIL",FUENTE
FUE_04_0007,4.0,SALAMANCA,JARDINES GREGORIO ORDONEZ,"442427,7633","4476067,583",40.4332578,-3.6787731,C/PRINCIPE DE VERGARA C/V C/ MALDONADO,FUENTE
FUE_04_0008,4.0,SALAMANCA,JARDINES GREGORIO ORDONEZ,"442407,6831","4476045,523",40.4330577,-3.6790078,C/PRINCIPE DE VERGARA C/V C/ MALDONADO,FUENTE
FUE_04_0009,4.0,SALAMANCA,PARQUE DE MARIA EVA DUARTE DE PERON,"443338,6917","4475751,348",40.4304716,-3.6680058,JUNTO A ZONA DEPORTIVA,FUENTE
FUE_04_0010,4.0,SALAMANCA,PARQUE DE MARIA EVA DUARTE DE PERON,"443362,7178","4475772,518",40.4306639,-3.6677244,C/DEL DOCTOR GOMEZ ULLA 22,FUENTE
FUE_04_0012,4.0,SALAMANCA,PZA. AMERICA ESPANOLA,"443847,2765","4475622,16",40.4293423,-3.6619988,"PARQUE SANCHO DAVILA, JUNTO ZONA INFANTIL",FUENTE
FUE_04_0014,4.0,SALAMANCA,PARQUE SANCHO DAVILA,"443919,7938","4475387,598",40.4272341,-3.6611233,C/SANCHO DAVILA N 21 POSTERIOR,FUENTE
FUE_04_0016,4.0,SALAMANCA,PZA.  SAN CAYETANO,"443122,1179","4476167,314",40.434204,-3.6705961,C/ERASO N14,FUENTE
FUE_04_0017,4.0,SALAMANCA,CALLE VELAZQUEZ 75,"442005,49","4475876,12",40.4315037,-3.6837338,C/V CALLE PADILLA 22,FUENTE
FUE_04_0018,4.0,SALAMANCA,"DIEGO DE LEON, 56","442530,1003","4476198,842",40.4344473,-3.6775785,C/DIEGO DE LEON N56,FUENTE
FUE_04_0020,4.0,SALAMANCA,GTA. CAMPANAR,"443425,1077","4475876,288",40.431603,-3.6669982,C/FRANCISCO NAVACERRADA N 48,FUENTE
FUE_04_0022,4.0,SALAMANCA,VIZCONDE DE MATAMALA - RAMON DE AGUINAGA - RUFINO BLANCO,"443554,9226","4475339,823",40.426779,-3.6654202,CALLE RUFINO BLANCO N 22,FUENTE
FUE_04_0023,4.0,SALAMANCA,PZA.  SAN CAYETANO,"443166,1426","4476158,793",40.4341302,-3.6700764,C/AZCONA CV C/PILAR DE ZARAGOZA,FUENTE
FUE_04_0026,4.0,SALAMANCA,JARDIN DE LA VIRGEN DEL PILAR,"442498,1789","4475963,332",40.4323235,-3.6779335,C/GENERAL PARDINAS CV C/JUAN BRAVO,FUENTE
FUE_04_0027,4.0,SALAMANCA,PASEO DE LA CASTELLANA N 58 (FTE N 64),"441495,5739","4476492,508",40.4370207,-3.6898019,PASEO DE LA CASTELLANA N 58 (FTE N 64),FUENTE
FUE_04_0028,4.0,SALAMANCA,PASEO DE LA CASTELLANA N 22 (FTE N 22 EN EL BULEVAR),"441552,5652","4475712,503",40.429998,-3.6890582,PASEO DE LA CASTELLANA N 22 (FTE N 22 EN EL BULEVAR),FUENTE
FUE_04_0029,4.0,SALAMANCA,PASEO DE LA CASTELLANA N 2 (FTE N 2 EN EL BULEVAR),"441477,5617","4475344,502",40.4266776,-3.6899086,PASEO DE LA CASTELLANA N 2 (FTE N 2 EN EL BULEVAR),FUENTE
FUE_04_0030,4.0,SALAMANCA,PASEO DE LA CASTELLANA N 18,"441523,5638","4475565,503",40.4286717,-3.6893867,PASEO DE LA CASTELLANA N 18,FUENTE
FUE_04_0033,4.0,SALAMANCA,PASEO DE LA CASTELLANA N 8 (FTE N 8 EN EL BULEVAR),"441495,9624","4475421,702",40.4273744,-3.6896988,PASEO DE LA CASTELLANA N 8 (FTE N 8 EN EL BULEVAR),FUENTE
FUE_04_0035,4.0,SALAMANCA,AVENIDA DE LOS TOREROS ,"443860,5593","4475986,472",40.432625,-3.6618744,JUNTO A  LA PLAZA,FUENTE
FUE_04_0037,4.0,SALAMANCA,ELVIRA N 11,"443562,5488","4474887,571",40.4227054,-3.6652901,ELVIRA N 11,FUENTE
FUE_04_0038,4.0,SALAMANCA,AVDA FELIPE II N 5,"442709,5834","4475055,859",40.4241632,-3.6753595,AVDA FELIPE II N 5,FUENTE
FUE_04_0039,4.0,SALAMANCA,"PLAZA AMERICA ESPANOLA, 5","443882,77","4475578,77",40.4289538,-3.6615766,ENTRADA PARQUE SANCHO DAVILA,FUENTE
FUE_04_0040,4.0,SALAMANCA,PARQUE RESIDENCIAL ISABEL II,"443585,18","4475363,43",40.4269937,-3.6650656,CALLE RAMON AGUINAGA 2,FUENTE
FUE_04_0042,4.0,SALAMANCA,PILAR DE ZARAGOZA 91,"442821,18","4476566,07",40.4377756,-3.6741799,JUNTO A ZONA INFANTIL. OJO COLOCAN TERRAZA BAR ALREDEDOR,FUENTE
FUE_04_0043,4.0,SALAMANCA,"CALLE TOMAS LOPEZ, 7","443161,45","4475317,82",40.426554,-3.6700565,FRENTE AL N 7,FUENTE
FUE_04_0045,4.0,SALAMANCA,"CALLE FRANCISCO SILVELA, 12","443134,07","4475749,44",40.4304404,-3.6704178,C/V CALLE FLORESTAN AGUILAR ,FUENTE
FUE_04_0046,4.0,SALAMANCA,C/ FRANCISCO SILVELA 52,"442813,21","4476215,66",40.4346184,-3.6742423,C/V C/ ALONSO HEREDIA ,FUENTE
FUE_04_0047,4.0,SALAMANCA,C/ FRANCISCO SILVELA N 73,"442631,73","4476392,7",40.4362007,-3.6763978,C/V C/ GENERAL ORAA,FUENTE
FUE_04_0048,4.0,SALAMANCA,CALLE LA POVEDA N 1,"443506,75",4476711,40.439128,-3.6661099,C/V CALLE DEL PARRAL. CERCA DE ZONA INFANTIL,FUENTE
FUE_04_0049,4.0,SALAMANCA,"C/ BRESCIA, 21","443889,59","4476434,97",40.4366673,-3.6615718,C/V AV. BRASILIA,FUENTE
FUE_04_0050,4.0,SALAMANCA,"AV. BAVIERA, 15","443892,64","4477135,2",40.4429756,-3.6615976,"PARQUE DE BREOGAN, JUNTO ZONA INFANTIL",FUENTE
FUE_04_0051,4.0,SALAMANCA,PARQUE SANCHO DAVILA,"443949,87","4475404,41",40.4273876,-3.6607702,AREA CANINA JUNTO FUENTE N 14,FUENTE
FUE_04_0052,4.0,SALAMANCA,"AVENIDA BRUSELAS, 57","443766,49","4476756,65",40.4395569,-3.6630516,METRO PARQUE AVENIDAS,FUENTE
FUE_04_0053,4.0,SALAMANCA,"AVENIDA BAVIERA, 2","443621,48","4476946,1",40.4412537,-3.6647781,FRENTE N2,FUENTE
FUE_04_0054,4.0,SALAMANCA,JARDIN DE MARIA PACHECO,"442846,25","4475436,46",40.4276012,-3.6737827,"CALLE ALCANTARA 24, JUNTO EDIFICIO CENTRO DEPORTIVO MUNICIPAL",FUENTE
FUE_04_0055,4.0,SALAMANCA,"CALLE LOPEZ DE HOYOS,  18","441801,98","4476535,1",40.4374259,-3.6861933,C/V SERRANO 122,FUENTE
FUE_04_0056,4.0,SALAMANCA,"CALLE PILAR DE ZARAGOZA, 54 C C/V CALLE JOSE PICON","443072,67","4476341,4",40.4357689,-3.6711947,JARDIN DE AURORA AUNON,FUENTE
FUE_04_0057,4.0,SALAMANCA,CALLE ALCALA 62,"442103,87","4474774,83",40.4215896,-3.6824738,JUNTO A LA CASA ARABE,FUENTE
FUE_04_0059,4.0,SALAMANCA,PLAZA BOCANGEL,"443774,51","4475343,29",40.4268251,-3.662832,JUNTO APARACAMIENTO,FUENTE
FB_01_000045,4.0,SALAMANCA,QUINTA DE LA FUENTE DEL BERRO,"443797,62","4474929,31",40.4230973,-3.662523,A. 6 - JARDIN DE LA RIA,FUENTE
FB_01_000046,4.0,SALAMANCA,QUINTA DE LA FUENTE DEL BERRO,"443884,72","4474919,19",40.423012,-3.6614954,A. 6 - JARDIN DE LA RIA,FUENTE
FB_01_000066,4.0,SALAMANCA,QUINTA DE LA FUENTE DEL BERRO,"443752,2","4474947,14",40.4232549,-3.6630599,A. 7 - PENASCALES,FUENTE
FUE_05_0001,5.0,CHAMARTIN,P DE LA CASTELLANA II,"441539,1676","4479180,292",40.4612365,-3.6895353,PSO. DE LA CASTELLANA N 182,FUENTE
FUE_05_0004,5.0,CHAMARTIN,P DE LA CASTELLANA II,"441484,099","4478508,289",40.455179,-3.6901229,PSO. DE LA CASTELLANA N 146-148,FUENTE
FUE_05_0005,5.0,CHAMARTIN,P DE LA CASTELLANA II,"441442,7029","4478004,977",40.450642,-3.6905647,PSO. DE LA CASTELLANA N 128,FUENTE
FUE_05_0006,5.0,CHAMARTIN,"PIO XII, 4","442702,949","4479247,666",40.4619245,-3.6758157,AVDA. PIO XII N4,FUENTE
FUE_05_0007,5.0,CHAMARTIN,PARQUE GLORIA FUERTES,"442674,0808","4479096,026",40.4605565,-3.6761425,AVDA. ALFONSO XIII N180,FUENTE
FUE_05_0008,5.0,CHAMARTIN,FINAL C/ COLOMBIA,"443285,7252","4478832,196",40.4582218,-3.6689052,C/COLOMBIA N 48,FUENTE
FUE_05_0009,5.0,CHAMARTIN,FINAL C/ COLOMBIA,"443323,3338","4478808,205",40.4580082,-3.6684596,C/COLOMBIA N 48,FUENTE
FUE_05_0011,5.0,CHAMARTIN,JARDINES DE JUAN DE LA COSA,"442395,5452","4478671,908",40.4567166,-3.679389,CALLE POTOSI N 5,FUENTE
FUE_05_0013,5.0,CHAMARTIN,PARQUE FELIX RGUEZ. DE LA FUENTE,"443648,5218","4478131,717",40.4519362,-3.6645645,CALLE DEL PADRE CLARET N 32,FUENTE
FUE_05_0014,5.0,CHAMARTIN,PARQUE FELIX RGUEZ. DE LA FUENTE,"443682,2042","4478192,976",40.4524903,-3.6641727,CALLE DEL PADRE CLARET N 32,FUENTE
FUE_05_0016,5.0,CHAMARTIN,PZA. CLARA DEL REY - CANILLAS,"443285,1077","4477266,807",40.44412,-3.6687727,C/ CLARA DEL REY N38,FUENTE
FUE_05_0018,5.0,CHAMARTIN,PZA. SAGRADO CORAZON DE JESUS,"442583,8659","4477330,418",40.4446449,-3.6770468,CALLE PECHUAN CV CALLE DEL GENERAL ZABALA,FUENTE
FUE_05_0021,5.0,CHAMARTIN,"C/ NIEREMBERG, 8","443049,44","4477636,9",40.4474378,-3.6715847,ANTES EN JARDINES C/ PANTOJA,FUENTE
FUE_05_0022,5.0,CHAMARTIN,PRADILLO - MARCENADO,"442893,5409","4477821,446",40.4490896,-3.6734396,C/ PRADILLO N24,FUENTE
FUE_05_0024,5.0,CHAMARTIN,PZA. DE PEDRO MUGURUZA,"441830,1063","4479332,029",40.4626239,-3.6861179,C/PEDRO MUGURUZA N5,FUENTE
FUE_05_0029,5.0,CHAMARTIN,"STA. HORTENSIA, 30","443613,7581","4477231,772",40.4438266,-3.6648945,C/SANTA HORTENSIA N30,FUENTE
FUE_05_0030,5.0,CHAMARTIN,PARQUE STA. M¦ MAGDALENA,"443133,7676","4479503,432",40.4642582,-3.6707575,C/SANTA MARIA MAGDALENA N20,FUENTE
FUE_05_0031,5.0,CHAMARTIN,"PUERTO RICO, 52","442838,2958","4478938,323",40.4591471,-3.6741915,C/PUERTO RICO N52,FUENTE
FUE_05_0032,5.0,CHAMARTIN,COL. SAN CRISTOBAL,"441925,29","4481006,46",40.4777145,-3.6851486,CALLE CONDE DE TORRALBA N 7,FUENTE
FUE_05_0034,5.0,CHAMARTIN,M30 - STA. HORTENSIA,"443838,8117","4477511,54",40.4463622,-3.6622656,C/MACHIO N46,FUENTE
FUE_05_0035,5.0,CHAMARTIN,VINAROZ - G¦ LUNA,"442656,2858","4477464,657",40.4458591,-3.676205,C/GARCIA LUNA N3,FUENTE
FUE_05_0041,5.0,CHAMARTIN,C/DOCTOR MARCO CORERA N2,"442630,7821","4477952,86",40.4502553,-3.6765499,"PARQUE DE BERLIN, JUNTO ZONA INFANTIL",FUENTE
FUE_05_0045,5.0,CHAMARTIN,CALLE COLOMBIA 14,"442739,08","4478625,86",40.4563255,-3.6753335,"CV/PUERTO RICO N 27, JUNTO ZONA INFANTIL",FUENTE
FUE_05_0047,5.0,CHAMARTIN,JARDINES INSTITUTO STA. MARCA,"442947,9437","4478628,269",40.4563616,-3.6728706,C/COLOMBIA N 35,FUENTE
FUE_05_0048,5.0,CHAMARTIN,ALFONSO XIII - STA. M¦ MAGDALENA,"443264,053","4479027,677",40.4599813,-3.6691784,"AVENIDA ALFONSO XII N 115, JUNTO ACCESO PISTA DEPORTIVA",FUENTE
FUE_05_0049,5.0,CHAMARTIN,ALFONSO XIII - STA. M¦ MAGDALENA,"443191,0928","4479096,899",40.4605999,-3.670045,C/SANTA MARIA MAGDALENA N 2,FUENTE
FUE_05_0050,5.0,CHAMARTIN,CALLE MARCENADO 51,"442716,32","4477940,99",40.4501543,-3.6755402,PARQUE DE BERLIN,FUENTE
FUE_05_0051,5.0,CHAMARTIN,PRADILLO  FRENTE N 30 (PISTAS DE FUTBOL),"442960,2926","4477809,565",40.4489872,-3.6726514,C/ PRADILLO N 32,FUENTE
FUE_05_0052,5.0,CHAMARTIN,C/ARQUITECTO GAUDI N 11,"443362,3508","4479394,708",40.4632944,-3.6680518,C/ARQUITECTO GAUDI - CV C/ FEDERICO SALMON N8 (TRAS CANTON),FUENTE
FUE_05_0063,5.0,CHAMARTIN,C/ TRAVESIA SANTA MARIA MAGDALENA N 5,"443066,0925","4479230,601",40.4617957,-3.6715313,"C/V CRUCERO 25 DE MAYO, JARDINES DE BERTA CACERES",FUENTE
FUE_05_0073,5.0,CHAMARTIN,PLAZA GARCIA IBARROLA,"443219,51",4479667,40.4657375,-3.6697609,C/ROSA JARDON N 7-9,FUENTE
FUE_05_0076,5.0,CHAMARTIN,CALLE CORAZON DE MARIA,"443202,28","4476968,4",40.4414261,-3.6697227,FRENTE AL N 9,FUENTE
FUE_05_0078,5.0,CHAMARTIN,CALLE AGUSTIN DE FOXA 12,"441760,91","4479959,29",40.4682696,-3.6869916,C/V ENRIQUE LARRETA,FUENTE
FUE_05_0079,5.0,CHAMARTIN,CALLE VICTOR DE LA SERNA 26,"443081,03","4478449,06",40.4547563,-3.671285,C/V PINTOR RIBERA,FUENTE
FUE_05_0080,5.0,CHAMARTIN,CALLE CLARA DEL REY 61,"443342,73",4477507,40.4462876,-3.6681147,C/V RAMOS CARRION,FUENTE
FUE_05_0081,5.0,CHAMARTIN,FELIPE CAMPOS,"442386,49","4477150,59",40.4430112,-3.6793578,C/V FRANCISCO CAMPOS,FUENTE
FUE_05_0082,5.0,CHAMARTIN,"CALLE CORAZON DE MARIA, 78","443573,59","4477700,84",40.4480495,-3.6654098,ZONA VERDE,FUENTE
FUE_05_0084,5.0,CHAMARTIN,CALLE MARCENADO 51,"442753,3","4477946,43",40.4502058,-3.6751046,"PARQUE DE BERLIN, AREA CANINA",FUENTE
FUE_05_0085,5.0,CHAMARTIN,"JARDINES DE PABLO SOROZABAL, CALLE EMILIO CAMPION, 6","442431,73","4477462,36",40.4458229,-3.6788527,PRINCIPE DE VERGARA 143,FUENTE
FUE_06_0003,6.0,TETUAN,PARQUE AGUSTIN RODRIGUEZ SAHAGUN,"439803,8565","4479789,758",40.4666029,-3.7100594,PARQUE HUERTA DEL OBISPO,FUENTE
FUE_06_0006,6.0,TETUAN,PARQUE AGUSTIN RODRIGUEZ SAHAGUN,"439967,7731","4479510,327",40.4640976,-3.7080996,PARQUE HUERTA DEL OBISPO,FUENTE
FUE_06_0011,6.0,TETUAN,PARQUE DE LA VENTILLA,"441014,5226","4480557,282",40.4736039,-3.6958511,PARQUE DE LA VENTILLA,FUENTE
FUE_06_0012,6.0,TETUAN,PARQUE DE LA VENTILLA,"441214,6275","4480564,141",40.4736799,-3.6934912,PARQUE DE LA VENTILLA,FUENTE
FUE_06_0013,6.0,TETUAN,PARQUE DE LA VENTILLA,"441330,1897","4480548,292",40.4735453,-3.6921265,PARQUE DE LA VENTILLA,FUENTE
FUE_06_0016,6.0,TETUAN,MARTINEZ,"440371,2509","4478939,397",40.4589835,-3.7032871,C/ MARTINEZ 15,FUENTE
FUE_06_0017,6.0,TETUAN,PINOS ALTA FRENTE N 62,"440754,3358","4479960,389",40.4682084,-3.6988645,PINOS ALTA-GABRIEL PORTADALES,FUENTE
FUE_06_0018,6.0,TETUAN,PLAZA DE SAN AMARO,"440921,5783","4478527,65",40.4553136,-3.6967584,JUNTO ZONA INFANTIL,FUENTE
FUE_06_0020,6.0,TETUAN,AV: PRESIDENTE CARMONA N 5,"440881,27","4478321,16",40.4534505,-3.6972146,"CV MARTIRES DE PARACUELLOS, BULEVAR",FUENTE
FUE_06_0021,6.0,TETUAN,JARDINES DE PERON,"441004,3042","4478227,932",40.4526194,-3.6957551,JARDINES DE PERON,FUENTE
FUE_06_0023,6.0,TETUAN,"AVDA. ASTURIAS,74","440666,7161","4480515,659",40.4732042,-3.6999499,AVDA. ASTURIAS-PERGOLAS,FUENTE
FUE_06_0024,6.0,TETUAN,"AVDA. ASTURIAS,74","440663,5598","4480472,609",40.4728162,-3.6999831,AVDA. ASTURIAS-PERGOLAS,FUENTE
FUE_06_0029,6.0,TETUAN,PARQUE AGUSTIN RODRIGUEZ SAHAGUN,"440176,1284","4480229,858",40.4705944,-3.70571,PARQUE AGUSTIN RODRIGUEZ SAHAGUN,FUENTE
FUE_06_0030,6.0,TETUAN,PARQUE AGUSTIN RODRIGUEZ SAHAGUN,"440238,3087","4480304,984",40.4712756,-3.7049836,JUNTO ZONA DEPORTIVA,FUENTE
FUE_06_0031,6.0,TETUAN,"CALLE SINESIO DELGADO, 23","439773,7169","4480262,579",40.4708601,-3.7104597,PARQUE AGUSTIN RODRIGUEZ SAHAGUN JUNTO ACCESO SINESIO DELGADO,FUENTE
FUE_06_0032,6.0,TETUAN,"CALLE SINESIO DELGADO, 32","439873,2","4480226,625",40.4705434,-3.7092829,PARQUE AGUSTIN RODRIGUEZ SAHAGUN JUNTO ZONA INFANTIL,FUENTE
FUE_06_0033,6.0,TETUAN,PARQUE AGUSTIN RODRIGUEZ SAHAGUN,"440176,4371","4480317,048",40.4713799,-3.7057145,PARQUE AGUSTIN RODRIGUEZ SAHAGUN,FUENTE
FUE_06_0035,6.0,TETUAN,"CALLE MARTIRES DE LA VENTILLA, 32","441431,8103","4480222,904",40.4706212,-3.6908978,CV CALLE MAGNOLIAS 82,FUENTE
FUE_06_0038,6.0,TETUAN,PLAZA DE LADERA,"440365,0863","4479890,658",40.4675524,-3.7034492,PLAZA DE LADERA,FUENTE
FUE_06_0040,6.0,TETUAN,PLAZA DE SAN GERMAN,"440808,607","4478773,899",40.4575238,-3.6981137,PLAZA DE SAN GERMAN,FUENTE
FUE_06_0041,6.0,TETUAN,PLAZA DE SAN GERMAN,"440761,5806","4478809,945",40.4578452,-3.6986717,PLAZA DE SAN GERMAN,FUENTE
FUE_06_0042,6.0,TETUAN,AVENIDA PABLO IGLESIAS 62,"439729,9281","4478121,714",40.4515711,-3.710773,"TUDELILLA - SAN ROGELIO, CERCA DE ZONA INFANTIL",FUENTE
FUE_06_0045,6.0,TETUAN,JARDINES DE NUMANCIA,"439634,3642","4478412,382",40.4541827,-3.7119276,JARDINES DE NUMANCIA,FUENTE
FUE_06_0048,6.0,TETUAN,"PLAZA C/ PLATANO, 34","440609,8018","4479990,564",40.4684698,-3.7005722," C/ DIVINO REDENTOR, ZONA INFANTIL",FUENTE
FUE_06_0049,6.0,TETUAN,PLAZA PINOS ALTA 21,"441032,3387","4479674,562",40.4656533,-3.6955588,"MANUEL MARCHAMALO, ZONA INFANTIL",FUENTE
FUE_06_0050,6.0,TETUAN,"PARQUE C/ SIERRA BULLONES, 25","440772,4451","4479786,234",40.4666408,-3.6986346,C/ PLATANO,FUENTE
FUE_06_0051,6.0,TETUAN,PARQUE AGUSTIN RODRIGUEZ SAHAGUN,"439832,1336","4480159,423",40.469935,-3.709761,A LA ALTURA DE CAPITAN BLANCO ARGUIBAY Y ZONA DEPORTIVA,FUENTE
FUE_06_0053,6.0,TETUAN,CL BERRUGUETE N:66,"440220,0172","4478995,664",40.4594794,-3.705076,C/V CALLE SERRALLO,FUENTE
FUE_06_0058,6.0,TETUAN,BRAVO MURILLO 239,"440539,16","4478823,59",40.4579522,-3.701296,PLAZA CANAL DE ISABEL II,FUENTE
FUE_06_0065,6.0,TETUAN,CL BRAVO MURILLO N:315,"440916,465","4479402,1",40.4631906,-3.6969001,C/BRAVO MURILLO C/V C/ AZUCENAS,FUENTE
FUE_06_0066,6.0,TETUAN,CL BRAVO MURILLO N:269,"440706,3368","4479024,1",40.4597705,-3.6993431,C/ BRAVO MURILLO C/V C/ ALGODONALES,FUENTE
FUE_06_0070,6.0,TETUAN,"CALLE CAPITAN BLANCO ARGIBAY, 63","440531,79","4479731,39",40.4661295,-3.701468,CV CALLE GARCI-NUNO,FUENTE
FUE_06_0073,6.0,TETUAN,CL AGUILENAS 15,"441128,6764","4479811,581",40.4668944,-3.6944352,C/V CALLE CANAVERAL,FUENTE
FUE_06_0074,6.0,TETUAN,CL BRAVO MURILLO N:188,"440418,6223","4478450,604",40.4545836,-3.7026826,C/ BRAVO MURILLO C/V C/ MERCEDES,FUENTE
FUE_06_0075,6.0,TETUAN,CL BRAVO MURILLO N:144,"440360,5686","4477998,75",40.4505089,-3.7033247,C/ BRAVO MURILLO C/V C/ JAEN,FUENTE
FUE_06_0076,6.0,TETUAN,CL BRAVO MURILLO N:337,"441032,1005","4479540,12",40.4644422,-3.6955492,C/ BRAVO MURILLO C/V C/ CAPITAN BLANCO ARGIBAY,FUENTE
FUE_06_0079,6.0,TETUAN,"CL CAPITAN BLANCO ARGIBAY, 25","440799,2566","4479627,879",40.4652162,-3.6983036,ESQUINA C/ MљLLER,FUENTE
FUE_06_0080,6.0,TETUAN,"CL HERNANI, 18","440449,372","4477750,648",40.4482803,-3.7022543,ESQUINA C/ ISTURIZ,FUENTE
FUE_06_0082,6.0,TETUAN,C/ MARQUES DE VIANA 58,"440375,5","4479413,31",40.4632529,-3.7032815,JUNTO COLEGIO PUBLICO Y C/ MATADERO,FUENTE
FUE_06_0084,6.0,TETUAN,"GLORIETA DE CUATRO CAMINOS, 6-7","440334,18","4477638,93",40.4472656,-3.7036021,C/V CALLE DE LOS ARTISTAS,FUENTE
FUE_06_0085,6.0,TETUAN,"C/ TENERIFE, 29","440100,63","4478114,02",40.4515286,-3.7064008,FRENTE AL N 42,FUENTE
FUE_06_0086,6.0,TETUAN,"C/ LUIS ESTEBAN, 27","441501,69","4480518,87",40.4732923,-3.6901008, C/V MAGNOLIAS,FUENTE
FUE_06_0088,6.0,TETUAN,"C/ FRANCOS RODRIGUEZ, 67","439768,4","4478769,62",40.4574105,-3.7103808,FRENTE AL N 84,FUENTE
FUE_06_0089,6.0,TETUAN,CALLE PADRE RUBIO 79,"440879,73","4480412,91",40.4722938,-3.6974276,JUNTO AREA CANINA,FUENTE
FUE_06_0090,6.0,TETUAN,CAPITAN BLANCO ARGIBAY FRENTE 147,"440056,99","4479935,35",40.4679328,-3.7070875,C/V ALBERDI,FUENTE
FUE_06_0091,6.0,TETUAN,"CALLE JOAQUIN DICENTA, 3 CV PADRE RUBIO","441074,74","4480326,96",40.4715334,-3.6951193,JUNTO ZV CON ZONA INFANTIL,FUENTE
FUE_06_0092,6.0,TETUAN,PARQUE AGUSTIN RODRIGUEZ SAHAGUN,"439725,04","4480019,06",40.4686628,-3.7110108,AREA CANINA JUNTO APARCAMIENTO,FUENTE
FUE_06_0096,6.0,TETUAN,"CALLE COSTA VERDE, 3","441136,89","4479934,41",40.4680015,-3.6943498,FRENTE AL N 3,FUENTE
FUE_06_0097,6.0,TETUAN,ROSARIO ROMERO FRENTE N 20,"440881,12","4480154,89",40.4699695,-3.6973872,JUNTO ZV CON ZONA INFANTIL,FUENTE
FUE_07_0003,7.0,CHAMBERI,PARQUE DE SAN JOSE DE CALASANZ,"439380,576","4476579,264",40.4376507,-3.7147454,CALLE JOAQUIN MARIA LOPEZ,FUENTE
FUE_07_0004,7.0,CHAMBERI,TENIENTE ALCALDE PEREZ PILLADO ,"440040,3559","4476885,378",40.4404562,-3.7069956,TENIENTE ALCALDE PEREZ PILLADO ,FUENTE
FUE_07_0006,7.0,CHAMBERI,"PO CASTELLANA, DE LA N:11","441466,9027","4475432,033",40.4274654,-3.6900423,PASEO DE LA CASTELLANA IV,FUENTE
FUE_07_0007,7.0,CHAMBERI,"PO CASTELLANA, DE LA N:19","441497,1641","4475576,983",40.4287733,-3.6896989,PASEO DE LA CASTELLANA IV,FUENTE
FUE_07_0008,7.0,CHAMBERI,"PO CASTELLANA, DE LA N:25","441522,4653","4475701,103",40.4298932,-3.689412,PASEO DE LA CASTELLANA IV,FUENTE
FUE_07_0009,7.0,CHAMBERI,"PO CASTELLANA, DE LA N:37","441581,2801","4476181,615",40.4342261,-3.6887629,PASEO DE LA CASTELLANA IV,FUENTE
FUE_07_0010,7.0,CHAMBERI,"PO CASTELLANA, DE LA N:31","441565,6472","4475900,484",40.4316923,-3.6889213,PASEO DE LA CASTELLANA IV,FUENTE
FUE_07_0011,7.0,CHAMBERI,"PO CASTELLANA, DE LA N:51","441451,9342","4476495,878",40.437048,-3.6903168,PASEO DE LA CASTELLANA IV,FUENTE
FUE_07_0013,7.0,CHAMBERI,"PO CASTELLANA, DE LA N:61","441359,9876","4476763,371",40.4394512,-3.6914254,PASEO DE LA CASTELLANA IV,FUENTE
FUE_07_0014,7.0,CHAMBERI,PLAZA DE OLAVIDE,"440531,5638","4476011,097",40.4326156,-3.7011223,PLAZA DE OLAVIDE,FUENTE
FUE_07_0016,7.0,CHAMBERI,PARQUE ENRIQUE HERREROS,"440250,5529","4476717,224",40.4389565,-3.7045016,PARQUE ENRIQUE HERREROS,FUENTE
FUE_07_0018,7.0,CHAMBERI,"PLAZA DEL CONDE DEL VALLE DE SUCHIL, 2","440003,8938","4475758,222",40.4302996,-3.7073192,JUNTO A ESTACION DE BICIMAD,FUENTE
FUE_07_0019,7.0,CHAMBERI,PLAZA CHAMBERI S/N,"440858,7219","4475995,893",40.4325019,-3.697264,PSO. EDUARDO DATO C/V STA. ENGRACIA,FUENTE
FUE_07_0020,7.0,CHAMBERI,"CL GARCIA DE PAREDES, 21","440553,1988","4476487,719",40.4369107,-3.7009118,"FRENTE SUPERMERCADO ""FRESH""",FUENTE
FUE_07_0021,7.0,CHAMBERI,"CALLE PONZANO, 108","440756,59","4477524,93",40.4462689,-3.6986106,CV RAIMUNDO FDEZ VILLAVERDE,FUENTE
FUE_07_0022,7.0,CHAMBERI,GLORIETA DE BILBAO N 5,"440472,47","4475637,17",40.4292428,-3.7017839,CV CALLE LUCHANA,FUENTE
FUE_07_0023,7.0,CHAMBERI,CALLE BLASCO DE GARAY 31,"439630,3","4476072,27",40.4331017,-3.7117531,C/V MELENDEZ VALDES (JARDINES CONCEJAL ALEJANDRO MUNOZ REVENGA),FUENTE
FUE_07_0024,7.0,CHAMBERI,GLORIETA RUIZ JIMENEZ 4,"440154,42","4475720,52",40.4299708,-3.7055411,C/V SAN BERNARDO,FUENTE
FUE_07_0025,7.0,CHAMBERI,GLORIETA QUEVEDO 6,"440249,01","4476162,24",40.4339569,-3.7044675,C/V BRAVO MURILLO,FUENTE
FUE_07_0026,7.0,CHAMBERI,GLORIETA PINTOR SOROLLA 1,"440732,83","4476239,03",40.4346832,-3.6987708,C/V SANTA ENGRACIA 71,FUENTE
FUE_07_0027,7.0,CHAMBERI,CALLE RUBEN DARIO 5,"441364,71","4476012,35",40.432686,-3.6913004,C/V ALMAGRO,FUENTE
FUE_07_0028,7.0,CHAMBERI,CALLE BRETON DE LOS HERREROS 46,"441097,21","4476751,74",40.4393278,-3.6945225,C/V FERNANDEZ DE LA HOZ,FUENTE
FUE_07_0029,7.0,CHAMBERI,GLORIETA CUATRO CAMINOS 1,"440295,73","4477559,89",40.4465508,-3.7040481,C/V BRAVO MURILLO,FUENTE
FUE_07_0030,7.0,CHAMBERI,AVENIDA REINA VICTORIA 55,"439589,95","4477540,68",40.4463268,-3.7123684,C/V GUZMAN EL BUENO,FUENTE
FUE_07_0031,7.0,CHAMBERI,PARQUE JOSE LUIS SAMPEDRO,"439682,14","4476117,22",40.4335104,-3.7111462,C/ GALILEO 35,FUENTE
FUE_07_0032,7.0,CHAMBERI,PARQUE JOSE LUIS SAMPEDRO,"439733,47","4476105,84",40.4334116,-3.71054,C/ GALILEO 35,FUENTE
FUE_07_0033,7.0,CHAMBERI,C/ FUENCARRAL 133,"440316,71","4475912,03",40.4317077,-3.7036459,JUNTO ZONA INFANTIL,FUENTE
FUE_07_0034,7.0,CHAMBERI,RAIMUNDO FERNANDEZ VILLAVERDE 50,"440919,92","4477500,84",40.4460635,-3.6966825,JUNTO PARQUE INFANTIL,FUENTE
FUE_07_0035,7.0,CHAMBERI,RAIMUNDO FERNANDEZ VILLAVERDE 50,"440964,31","4477484,32",40.4459178,-3.6961575,C/V MODESTO LA FUENTE,FUENTE
FUE_07_0036,7.0,CHAMBERI,CALLE SANTA ENGRACIA 78,"440681,17","4476473,63",40.4367929,-3.6994018,C/V GARCIA PAREDES,FUENTE
FUE_07_0037,7.0,CHAMBERI,AV. FILIPINAS 7,"439898,26","4476911,22",40.4406787,-3.7086734,CERCA DE ENTRADA CENTRO DEPORTIVO GO FIT VALLEHERMOSO,FUENTE
FUE_08_0001,8.0,FUENCARRAL-EL PARDO,PARQUE GABRIELA MISTRAL,"437759,5369","4481789,464",40.4844662,-3.7343681,C/ROSALIA DE CASTRO N65,FUENTE
FUE_08_0002,8.0,FUENCARRAL-EL PARDO,PARQUE GABRIELA MISTRAL,"437513,7513","4481455,076",40.4814356,-3.7372349,C/GABRIELA MISTRAL 10.JUNTO A JUEGOS INFANTILES,FUENTE
FUE_08_0003,8.0,FUENCARRAL-EL PARDO,A.V.C. LAS TABLAS,"443432,2386","4484851,356",40.512455,-3.6677145,"C/ PORTOMARIN, 21",FUENTE
FUE_08_0004,8.0,FUENCARRAL-EL PARDO,"AVDA MONTECARMELO, 10","440420,3714","4484468,585",40.508796,-3.7032275,DETRAS DEL CEMENTERIO,FUENTE
FUE_08_0005,8.0,FUENCARRAL-EL PARDO,A.V.C. MONTECARMELO,"441487,1115","4484499,981",40.5091547,-3.6906404,C/MONASTERIO DE ARLANZA  N 8,FUENTE
FUE_08_0006,8.0,FUENCARRAL-EL PARDO,"A.V.C. MONTECARMELO 
(P.K. 56,940)","439830,0491","4484123,371",40.5056435,-3.7101618,AVDA. SANTUARIO DE VALVERDE N6,FUENTE
FUE_08_0008,8.0,FUENCARRAL-EL PARDO,A.V.C. LAS TABLAS,"443959,6463","4483813,383",40.5031402,-3.6613976,C/PALAS DE REY N5,FUENTE
FUE_08_0009,8.0,FUENCARRAL-EL PARDO,A.V.C. LAS TABLAS,"443952,9451","4483781,233",40.5028501,-3.6614738,C/PALAS DE REY N5,FUENTE
FUE_08_0010,8.0,FUENCARRAL-EL PARDO,"SIERRA DE ATAPUERCA, 49","443750,158","4484422,769",40.5086157,-3.663924,A.V.C. LAS TABLAS,FUENTE
FUE_08_0011,8.0,FUENCARRAL-EL PARDO,A.V.C. ARROYOFRESNO,"439046,1368","4483150,656",40.4968238,-3.7193197,AVDA MONASTERIO DE SILOS CON AVDA VENTISQUERO DE LA CONDESA,FUENTE
FUE_08_0015,8.0,FUENCARRAL-EL PARDO,C/GABRIELA MISTRAL N4,"437580,8744","4481289,374",40.4799479,-3.7364268,"PENAGRANDE ZONA 4-2, JUNTO ZONA INFANTIL",FUENTE
FUE_08_0017,8.0,FUENCARRAL-EL PARDO,A.V.C. FUENTELARREINA,"437323,5559","4481182,366",40.4789646,-3.7394517,C/ARROYOFRESNCO CV C/ GAVILANES,FUENTE
FUE_08_0020,8.0,FUENCARRAL-EL PARDO,PARQUE FUENTELARREINA,"437966,27","4481516,06",40.4820188,-3.7319023,CALLE ALFONSO RODRIGUEZ CASTELAO 21,FUENTE
FUE_08_0025,8.0,FUENCARRAL-EL PARDO,PARQUE RAMON GOMEZ DE LA SERNA,"438290,8008","4481671,737",40.4834454,-3.7280888,C/RAMON GOMEZ DE LA SERNA N 75 .EN PLATAFORMA SUPERIOR,FUENTE
FUE_08_0026,8.0,FUENCARRAL-EL PARDO,PARQUE RAMON GOMEZ DE LA SERNA,"438279,4391","4481692,737",40.4836338,-3.7282249,C/RAMON GOMEZ DE LA SERNA N 75. JUNTO A JUEGOS INFANTILES,FUENTE
FUE_08_0027,8.0,FUENCARRAL-EL PARDO,Z.V. JULIO CALVO,"438749,1229","4481519,47",40.4821077,-3.7226669,C/JULIO CALVO  N 16,FUENTE
FUE_08_0029,8.0,FUENCARRAL-EL PARDO,"E.D. 8-4 ""LACOMA""","438779,9259","4481658,331",40.4833608,-3.7223169,C/RAMON GOMEZ DE LA SERNA N 25,FUENTE
FUE_08_0030,8.0,FUENCARRAL-EL PARDO,Z.V. LA COMA,"438551,9861","4481865,555",40.4852108,-3.7250261,C/VALLE DE LOS PINARES LLANOS N 60,FUENTE
FUE_08_0034,8.0,FUENCARRAL-EL PARDO,PARQUE VALLE DE ENMEDIO Y ALREDEDORES,"438795,0941","4482246,674",40.4886619,-3.7221948,C/VALLE DE ENMEDIO N65,FUENTE
FUE_08_0035,8.0,FUENCARRAL-EL PARDO,PARQUE VALLE DE ENMEDIO Y ALREDEDORES,"439013,6475","4482197,901",40.4882387,-3.7196114,C/PENA DEL CUERVO N21,FUENTE
FUE_08_0038,8.0,FUENCARRAL-EL PARDO,PARC. NOROESTE,"439129,597","4481442,915",40.4814461,-3.7181708,C/ISLA TAVIRA N 14,FUENTE
FUE_08_0039,8.0,FUENCARRAL-EL PARDO,PARC. NOROESTE,"439041,4178","4481245,375",40.4796601,-3.7191921,C/FERMIN CABALLERO N 87,FUENTE
FUE_08_0040,8.0,FUENCARRAL-EL PARDO,PARQUE DE LA SUPERMANZANA 5,"439721,4744","4481413,777",40.4812267,-3.7111855,PZA. VILLAFRANCA DE LOS BARROS CV C/SANTIAGO DE COMPOSTELA,FUENTE
FUE_08_0042,8.0,FUENCARRAL-EL PARDO,BETANZOS - FERMIN CABALLERO,"439508,1466","4481410,69",40.4811834,-3.7137018,AVDA. DE BETANZOS  N60,FUENTE
FUE_08_0044,8.0,FUENCARRAL-EL PARDO,SUPERMANZANA 6 B PILAR C/A. LOPEZ AGUADO,"440701,2417","4481624,466",40.4831953,-3.6996464,C/ARZOBISPO MORCILLO CV C/PEDRO RICO,FUENTE
FUE_08_0045,8.0,FUENCARRAL-EL PARDO,POL. MANILA Y POL. CLAUDIETA,"440932,5477","4481430,992",40.4814688,-3.6968994,C/ARZOBISPO MORCILLO N 25,FUENTE
FUE_08_0046,8.0,FUENCARRAL-EL PARDO,"DOCTOR RAMON CASTROVIEJO, 3","439539,2182","4481271,649",40.4799331,-3.713322,GTA JOSE FRANCISCO DE ISLA,FUENTE
FUE_08_0047,8.0,FUENCARRAL-EL PARDO,"AVDA. DE BETANZOS,77","439523,6616","4481311,839",40.480294,-3.7135094,GTA JOSE FRANCISCO DE ISLA,FUENTE
FUE_08_0048,8.0,FUENCARRAL-EL PARDO,AVDA. DE LA ILUSTRACION,"439660,6153","4481359,818",40.4807362,-3.7118982,C/SANTIAGO DE COMPOSTELA C/V AVDA. DE BETANZOS,FUENTE
FUE_08_0052,8.0,FUENCARRAL-EL PARDO,POL. 23-B V.V.V. (5¦ FASE),"439128,1482","4480566,02",40.4735465,-3.7181038,C/CANDIDO MATEOS C/V C/CHANTADA,FUENTE
FUE_08_0053,8.0,FUENCARRAL-EL PARDO,POL. 24 V.V.V.,"438929,6158","4480618,053",40.4740007,-3.7204507,C/JUAN SANCHEZ C/V C/CESAR MANRIQUE,FUENTE
FUE_08_0056,8.0,FUENCARRAL-EL PARDO,PARQUE DE LA ALCAZABA,"440063,13","4480723,45",40.4750327,-3.7070895,"AV. EL FERROL, 28",FUENTE
FUE_08_0057,8.0,FUENCARRAL-EL PARDO,PARQUE DE LA ALCAZABA,"440189,1","4480750,75",40.4752877,-3.7056061,"AV. EL FERROL, 26",FUENTE
FUE_08_0062,8.0,FUENCARRAL-EL PARDO,PARQUE DE LA ALCAZABA,"440030,5999","4480481,601",40.4728517,-3.7074504,CALLE RIBADAVIA 27,FUENTE
FUE_08_0063,8.0,FUENCARRAL-EL PARDO,"SINESIO DELGADO, 22","440655,9","4480731,11",40.4751443,-3.7000977,C/SINESIO DELGADO C/V C/FINISTERRE,FUENTE
FUE_08_0064,8.0,FUENCARRAL-EL PARDO,SINESIO DELGADO,"440500,3013","4480649,983",40.4744023,-3.7019256,C/SINESIO DELGADO C/V C/GINZO DE LIMIA,FUENTE
FUE_08_0065,8.0,FUENCARRAL-EL PARDO,SINESIO DELGADO,"439625,536","4480298,642",40.4711742,-3.712211,C/SINESIO DELGADO CON AVDA BETANZOS,FUENTE
FUE_08_0066,8.0,FUENCARRAL-EL PARDO,CELANOVA - BETANZOS,"439547,3941","4480371,004",40.4718203,-3.7131398,C/ BECERREA,FUENTE
FUE_08_0067,8.0,FUENCARRAL-EL PARDO,PARQUE ARROYO DE LOS PINOS,"438659,196","4480471,445",40.4726601,-3.7236264,CALLE JOAQUIN LORENZO 15,FUENTE
FUE_08_0070,8.0,FUENCARRAL-EL PARDO,PZA. - C/ MELCHOR FERNANDEZ ALMAGRO,"439741,3584","4480754,763",40.4752915,-3.7108882,C/MELCHOR FDEZ ALMAGRO C/V AVDA.BETANZOS,FUENTE
FUE_08_0071,8.0,FUENCARRAL-EL PARDO,CALLE FINISTERRE N 19,"440469,2729","4481045,126",40.4779597,-3.7023287,CERCA DE Z. INFANTIL,FUENTE
FUE_08_0075,8.0,FUENCARRAL-EL PARDO,POLIDEPORTIVO B DEL PILAR,"441316,2731","4481148,796",40.4789539,-3.6923463,AVENIDA MONFORTE DE LEMOS 15,FUENTE
FUE_08_0076,8.0,FUENCARRAL-EL PARDO,PARQUE DEL NORTE,"441035,0456","4481372,11",40.4809457,-3.6956847,CALLE ARZOBISPO MORCILLO N 14,FUENTE
FUE_08_0077,8.0,FUENCARRAL-EL PARDO,PARQUE DEL NORTE,"440678,065","4481412,225",40.4812817,-3.6998999,ANTONIO LOPEZ AGUADO 12,FUENTE
FUE_08_0078,8.0,FUENCARRAL-EL PARDO,PARQUE DEL NORTE,"440789,1881","4481378,144",40.4809825,-3.6985857,CALLE ARZOBISPO MORCILLO N 30,FUENTE
FUE_08_0081,8.0,FUENCARRAL-EL PARDO,PARQUE DEL NORTE,"441109,9845","4481292,459",40.4802335,-3.6947933,CALLE ARZOBISPO MORCILLO N 14,FUENTE
FUE_08_0083,8.0,FUENCARRAL-EL PARDO,PARQUE DEL NORTE,"440558,6585","4481393,997",40.4811089,-3.7013069,ANTONIO LOPEZ AGUADO 12,FUENTE
FUE_08_0084,8.0,FUENCARRAL-EL PARDO,PARQUE DEL NORTE,"440717,3135","4481499,865",40.482074,-3.6994451,ANTONIO LOPEZ AGUADO 12,FUENTE
FUE_08_0085,8.0,FUENCARRAL-EL PARDO,PARQUE DEL NORTE,"440708,3591","4481443,985",40.4815699,-3.6995455,ANTONIO LOPEZ AGUADO 12,FUENTE
FUE_08_0086,8.0,FUENCARRAL-EL PARDO,PARQUE DEL NORTE,"440805,0405","4481436,414",40.4815085,-3.6984042,CALLE ARZOBISPO MORCILLO N 30,FUENTE
FUE_08_0087,8.0,FUENCARRAL-EL PARDO,"CALLE SANGENJO, 31","440702,87","4481918,31",40.4858424,-3.6996546,PARQUE SUPERMANZANA 7,FUENTE
FUE_08_0088,8.0,FUENCARRAL-EL PARDO,PARQUE DE LA SUPERMANZANA 7,"440499,1806","4481818,86",40.4849319,-3.7020485,C/SANGENJO N 15,FUENTE
FUE_08_0090,8.0,FUENCARRAL-EL PARDO,POL. 26 V.V.V. S.ESTE,"440556,43","4482243,491",40.4887613,-3.7014129,AVDA. DEL CARDENAL HERRERA ORIA C/V  C/VALENCIA DE DON JUAN,FUENTE
FUE_08_0093,8.0,FUENCARRAL-EL PARDO,POL. ALMACENES E.D. 8-3,"441575,47","4482457,22",40.490759,-3.6894091,C/LEZAMA N9,FUENTE
FUE_08_0094,8.0,FUENCARRAL-EL PARDO,POLG. INDUSTRIAL FUENCARRAL - MALMEA,"442040,6898","4482385,013",40.4901411,-3.6839133,C/ISLA DE JAVA N45,FUENTE
FUE_08_0097,8.0,FUENCARRAL-EL PARDO,PARQUE ARROYO FRESNO,"438733,2897","4482607,487",40.4919077,-3.7229588,AVDA.ARRROYOFRESNO C/V SENDA DEL INFANTE,FUENTE
FUE_08_0098,8.0,FUENCARRAL-EL PARDO,PARQUE ARROYO FRESNO,"439079,6153","4482889,264",40.4944715,-3.7188995,AVDA.DE VENTISQUERO DE LA CONDESA N46,FUENTE
FUE_08_0100,8.0,FUENCARRAL-EL PARDO,PARQUE NURIA,"439704,0957","4482897,736",40.4945935,-3.7115316,C/MORALZARZAL C/V C/LA MASO. PARQUE NURIA,FUENTE
FUE_08_0101,8.0,FUENCARRAL-EL PARDO,POLG.Z.N.CONSOL. Y N.CONSOL. (PIP),"440060,4104","4482644,57",40.4923387,-3.7073032,C/NURIA N38,FUENTE
FUE_08_0102,8.0,FUENCARRAL-EL PARDO,POLG.Z.N.CONSOL. Y N.CONSOL. (PIP),"439968,0472","4482780,982",40.4935608,-3.708406,C/NURIA N46,FUENTE
FUE_08_0103,8.0,FUENCARRAL-EL PARDO,POBLADO A,"440951,7588","4482477,798",40.4909002,-3.6967703,C/MANRESA N 90 POSTERIOR,FUENTE
FUE_08_0104,8.0,FUENCARRAL-EL PARDO,HERRERA ORIA Y MANRESA (POLD. FUENCARRAL),"441165,8228","4482509,035",40.4911968,-3.6942474,"C/OLESA DE MONSERRAT N2, JUNTO PISTAS DEPORTIVAS",FUENTE
FUE_08_0108,8.0,FUENCARRAL-EL PARDO,LOS TRES OLIVOS,"441319,0724","4483739,09",40.5022884,-3.6925531,C/ALONSO QUIJANO N52,FUENTE
FUE_08_0109,8.0,FUENCARRAL-EL PARDO,PARQUE SANTA ANA 2¦ FASE,"441157,7767","4483167,189",40.4971251,-3.6944034,C/SAN CUGAT DEL VALLES N6,FUENTE
FUE_08_0111,8.0,FUENCARRAL-EL PARDO,PARQUE SANTA ANA 2¦ FASE,"441138,3044","4483231,889",40.4977066,-3.6946393,C/SAN CUGAT DEL VALLES N6,FUENTE
FUE_08_0114,8.0,FUENCARRAL-EL PARDO,POBLADO DIRIGIDO DE FUENCARRAL,"441361,8784","4482588,883",40.4919299,-3.6919415,C/MANRESA C/V C/BADALONA,FUENTE
FUE_08_0115,8.0,FUENCARRAL-EL PARDO,CALLE ANGEL MUGICA N 9,"441864,8589","4481831,232",40.4851401,-3.6859371,"MARCOS ORUETA, JUNTO Z. INFANTIL",FUENTE
FUE_08_0117,8.0,FUENCARRAL-EL PARDO,PARQUE POL. 26 (C/ CARDENAL HERRERA ORIA),"439983,27","4481860,32",40.4852683,-3.7081392,CALLE GINZO DE LIMIA FRENTE 53,FUENTE
FUE_08_0118,8.0,FUENCARRAL-EL PARDO,COLONIA MINGORRUBIO 4¦ FASE,"433949,9118","4487148,057",40.5324431,-3.7798726,C/ FORTALEZA CV C/ REGIMIENTO,FUENTE
FUE_08_0119,8.0,FUENCARRAL-EL PARDO,COLONIA MINGORRUBIO 4¦ FASE,"433951,2102","4486943,155",40.5305974,-3.7798359,C/CAMPANA C/V C/ARMAS,FUENTE
FUE_08_0120,8.0,FUENCARRAL-EL PARDO,COLONIA MINGORRUBIO 1¦ FASE,"433767,8135","4487222,559",40.5330997,-3.7820303,C/ ALMENAS,FUENTE
FUE_08_0121,8.0,FUENCARRAL-EL PARDO,COLONIA MINGORRUBIO 1¦ FASE,"433778,9948","4487403,26",40.5347283,-3.7819173,C/ ESCUADRON,FUENTE
FUE_08_0127,8.0,FUENCARRAL-EL PARDO,PARQUE DE LA ALCAZABA,"440217,99","4480814,83",40.4758671,-3.7052713,"C/MELCHOR FDEZ. ALMAGRO, 107",FUENTE
FUE_08_0129,8.0,FUENCARRAL-EL PARDO,PARQUE DEL NORTE,"440975,5979","4481315,258",40.4804293,-3.6963807,CALLE ARZOBISPO MORCILLO N 14,FUENTE
FUE_08_0130,8.0,FUENCARRAL-EL PARDO,PZA. - C/ ISLA AROSA C/ FERMIN CABALLERO,"439295,6311","4481446,963",40.4814946,-3.7162125,C/ISLA DE AROSA  N20,FUENTE
FUE_08_0131,8.0,FUENCARRAL-EL PARDO,PARQUE DEL PUEBLO DE EL PARDO,"434241,9993","4485734,446",40.5197323,-3.7762772,AV DE LA GUARDIA,FUENTE
FUE_08_0133,8.0,FUENCARRAL-EL PARDO,SUPERMANZANA 6 B PILAR C/A. LOPEZ AGUADO,"440407,925","4481462,949",40.4817192,-3.7030916,C/ANTONIO LOPEZ AGUADO N22,FUENTE
FUE_08_0137,8.0,FUENCARRAL-EL PARDO,CL SANDALIO LOPEZ N:1,"441601,3289","4482688,54",40.4928446,-3.6891253,CV PZA DOCTOR CORTES,FUENTE
FUE_08_0141,8.0,FUENCARRAL-EL PARDO,C/ ALGARROBO 34,"440495,6435","4483644,56",40.5013782,-3.7022617,CV C/ ARNEDILLO,FUENTE
FUE_08_0143,8.0,FUENCARRAL-EL PARDO,PARQUE DEL NORTE,"441425,3174","4481261,535",40.4799772,-3.6910703,CALLE ARZOBISPO MORCILLO N 4,FUENTE
FUE_08_0144,8.0,FUENCARRAL-EL PARDO,PARQUE DEL NORTE,"441310,8184","4481293,837",40.4802601,-3.692424,CALLE ARZOBISPO MORCILLO N 4,FUENTE
FUE_08_0146,8.0,FUENCARRAL-EL PARDO,CALLE SIERRA DE ATAPUERCA,"443553,3326","4484153,621",40.5061777,-3.666223,CV PASEO SAN MILLAN DE LA COGOLLA,FUENTE
FUE_08_0147,8.0,FUENCARRAL-EL PARDO,CALLE MARIA DE MAEZTU 148,"438842,2236","4483134,836",40.4966663,-3.7217245,ARROYOFRESNO,FUENTE
FUE_08_0148,8.0,FUENCARRAL-EL PARDO,CALLE MARIA DE MAEZTU 118,"438722,3671","4482907,294",40.4946076,-3.7231167,ARROYOFRESNO,FUENTE
FUE_08_0149,8.0,FUENCARRAL-EL PARDO,CALLE MARIA DE MAEZTU 110,"438584,7835","4482766,8",40.4933319,-3.7247266,"C/V CALLE SENDA DEL INFANTE
ARROYOFRESNO",FUENTE
FUE_08_0150,8.0,FUENCARRAL-EL PARDO,C/JOAQUIN LORENZO FRENTE AL N 32,"438289,81","4480391,65",40.4719139,-3.7279759,EN EL PARQUE DE ENFRENTE,FUENTE
FUE_08_0151,8.0,FUENCARRAL-EL PARDO,CALLE SANTO DOMINGO DE LA CALZADA,"442326,7282","4484307,871",40.5074829,-3.6807133,C/V CARRETERA DE FUENCARRAL A HORTALEZA A.V.C. LAS TABLAS,FUENTE
FUE_08_0152,8.0,FUENCARRAL-EL PARDO,PARQUE DE LA ALCAZABA,"440099,6436","4480526,667",40.4732627,-3.7066402,CALLE RIBADAVIA 45,FUENTE
FUE_08_0153,8.0,FUENCARRAL-EL PARDO,"яCALLE FERMIN CABALLERO, 84","439182,94","4481256,07",40.4797668,-3.7175236,CV CALLE SANTIAGO DE COMPOSTELA,FUENTE
FUE_08_0154,8.0,FUENCARRAL-EL PARDO,CALLE MONFORTE DE LEMOS 34,"439950,08","4481131,74",40.4787026,-3.7084618,JUNTO CC LA VAGUADA,FUENTE
FUE_08_0155,8.0,FUENCARRAL-EL PARDO,CALLE MENCHU AJALMIL 2,"438429,37","4482666,43",40.4924162,-3.7265506,CV CALLE MARIA TERESA DE CALCUTA,FUENTE
FUE_08_0156,8.0,FUENCARRAL-EL PARDO,CALLE MADRE TERESA DE CALCUTA 61,"438302,37","4482528,05",40.4911602,-3.7280357,ENTRE CALLE FEDERICA MONTSENY Y CALLE MARI PEPA COLOMER,FUENTE
FUE_08_0157,8.0,FUENCARRAL-EL PARDO,AV. CAMINO DE SANTIAGO N 25,"442924,48","4483727,18",40.5022931,-3.6736062,JUNTO A ZONA INFANTIL,FUENTE
FUE_08_0158,8.0,FUENCARRAL-EL PARDO,CALLE DE SAN JUAN DE ORTEGA N 86,"442762,33","4484338,64",40.5077902,-3.6755751,JUNTO A ZONA INFANTIL,FUENTE
FUE_08_0159,8.0,FUENCARRAL-EL PARDO,"MONASTERIO DE OSEIRA, 2","440856,49","4484389,54",40.5081151,-3.6980729,JUNTO A CARRIL BICI,FUENTE
FUE_08_0160,8.0,FUENCARRAL-EL PARDO,AVENIDA VENTISQUERO DE LA CONDESA 2,"439366,88","4481654,65",40.4833708,-3.7153918,PARQUE ANA TUTOR,FUENTE
FUE_08_0161,8.0,FUENCARRAL-EL PARDO,CALLE PUENTE LA REINA N 48,"442608,66","4483778,51",40.5027337,-3.677338,JUNTO A ZONA INFANTIL PZA. INT. CASTILLO DE JACA ,FUENTE
FUE_08_0162,8.0,FUENCARRAL-EL PARDO,PZA. TRES OLIVOS 26,"441518,69","4483623,18",40.5012584,-3.6901867,FRENTE AL N26,FUENTE
FUE_08_0163,8.0,FUENCARRAL-EL PARDO,CALLE BRAILLE 7,"441316,16","4482984,29",40.4954887,-3.6925175,PARQUE FUENTE CHICA,FUENTE
FUE_08_0164,8.0,FUENCARRAL-EL PARDO,CALLE ALONSO QUIJANO 45,"441696,33","4483690,86",40.5018806,-3.6880966,ZV C/V RONDA CABALLERO DE LA MANCHA,FUENTE
FUE_08_0165,8.0,FUENCARRAL-EL PARDO,CALLE BERDUN 2,"442463,65","4484273,04",40.5071786,-3.6790942,C/V CASTILLO DE CANDANCHU,FUENTE
FUE_08_0166,8.0,FUENCARRAL-EL PARDO,AV. CAMINO DE SANTIAGO 50,"443254,44","4484389,53",40.5082825,-3.6697717,C/V AV. SANTO DOMINGO DE LA CALZADA (METRO LIGERO),FUENTE
FUE_08_0167,8.0,FUENCARRAL-EL PARDO,PASEO ALAMEDILLAS 6,"441047,33","4483292,06",40.4982422,-3.6957184,"EN CAMINO, FRENTE CENTRO DEPORTIVO MUNICIPAL SANTA ANA",FUENTE
FUE_08_0168,8.0,FUENCARRAL-EL PARDO,CALLE VILLAVA 15,"442696,2","4483556,74",40.500742,-3.6762848,C/V PUENTE LA REINA,FUENTE
FUE_08_0169,8.0,FUENCARRAL-EL PARDO,CALLE JOAQUIN LORENZO 5B,"438845,03","4480387,12",40.4719141,-3.7214262,PARQUE ENTRE C/VALLE DE MENA Y JOAQUIN LORENZO,FUENTE
FUE_08_0170,8.0,FUENCARRAL-EL PARDO,AV. PADRE CIPRIANO FRENTE N 23,"434086,35","4485588,05",40.5184012,-3.7780992,CV C/ SAN PACIANO,FUENTE
FUE_08_0171,8.0,FUENCARRAL-EL PARDO,MARIA DE MAEZTU 7,"438023,89","4482207,56",40.4882524,-3.7312902,"CV CALLE IRENE CABA ALBA, JUNTO ZONA INFANTIL",FUENTE
FUE_08_0172,8.0,FUENCARRAL-EL PARDO,CALLE SAN MILLAN DE LA COGOLLA N 14,"443406,12","4483778,62",40.5027895,-3.6679269,"CV C/ VALCARLOS, AREA CANINA",FUENTE
FUE_08_0173,8.0,FUENCARRAL-EL PARDO,C/SANGENJO N29,"440656,3","4481911,19",40.4857749,-3.7002034,AREA CANINA PARQUE DE LA SUPERMANZANA 7,FUENTE
FUE_08_0174,8.0,FUENCARRAL-EL PARDO,"CALLE MARIA DE MAEZTU,1","437890,1","4482102,35",40.4872946,-3.7328584,MADRE TERESA DE CALCUTA,FUENTE
FUE_08_0175,8.0,FUENCARRAL-EL PARDO,"CALLE PALAS DE REY, 17","443017,77","4484619,27",40.5103358,-3.6725856,C/V FROMISTA,FUENTE
FUE_08_0176,8.0,FUENCARRAL-EL PARDO,"CALLE SAN JUAN DE ORTEGA, 20 E","442813,65","4483868,45",40.5035581,-3.6749269,"FRENTE N 20, JUNTO AREA INFANTIL",FUENTE
FUE_08_0179,8.0,FUENCARRAL-EL PARDO,"C/PICO BALAITUS, 16 C/V PZA. PICO SALVAGUARDA,5","438935,75",4481567,40.4825496,-3.7204697,JUNTO ZONA INFANTIL,FUENTE
FUE_08_0180,8.0,FUENCARRAL-EL PARDO,"C/ PICO MAJALASNA, 3","438854,32","4481653,72",40.4833248,-3.7214388,JUNTO ZONA DEPORTIVA,FUENTE
FUE_08_0181,8.0,FUENCARRAL-EL PARDO,"C/VILLACASTIN 14 POSTERIOR C/V CALLE HONTALBILLA, 12","441515,61","4482630,51",40.4923158,-3.6901314,JUNTO ZONA DEPORTIVA,FUENTE
FUE_08_0183,8.0,FUENCARRAL-EL PARDO,"AV. MONASTERIO DE EL ESCORIAL, 80","441244,1","4484470,1",40.5088683,-3.6935057,JUNTO ZONA INFANTIL,FUENTE
FUE_08_0184,8.0,FUENCARRAL-EL PARDO,"COSTA BRAVA, 30","439562,45","4483183,5",40.4971574,-3.7132303,FUENTE EL SACERAL,FUENTE
FUE_08_0185,8.0,FUENCARRAL-EL PARDO,"C/ MANUEL VILLARTA, C.V. C/ ISLAS PALAOS","441881,98","4483077,08",40.4963644,-3.6858494,JUNTO ZONA INFANTIL,FUENTE
FUE_08_0186,8.0,FUENCARRAL-EL PARDO,"PASEO SAN MILLAN DE LA COGOLLA, 5 B","443228,8","4483957,96",40.504393,-3.6700356,"CV POBLACION DE CAMPO / SAN MIGUEL DEL CAMINO, CERCA DE ZONA INFANTIL",FUENTE
FUE_08_0187,8.0,FUENCARRAL-EL PARDO,AVD BETANZOS 37,"439621,55","4480503,14я",40.4730161,-3.7122776,JUNTO ESCUELA INFANTIL Y CENTRO ACTIVIDADES,FUENTE
FB_140001,8.0,FUENCARRAL-EL PARDO,DISTRITO C - LAS TABLAS,"443451,1",4485296,40.5164617,-3.6675316,FASE 3,FUENTE
FB_140002,8.0,FUENCARRAL-EL PARDO,DISTRITO C - LAS TABLAS,"443899,6","4484780,2",40.5118457,-3.6621919,FASE 3,FUENTE
FB_140003,8.0,FUENCARRAL-EL PARDO,DISTRITO C - LAS TABLAS,"444097,5","4484879,3",40.5127518,-3.6598648,FASE 3,FUENTE
F4T01,8.0,FUENCARRAL-EL PARDO,CUATRO TORRES,"441726,44","4480924,85",40.4769654,-3.6874869,PLAZA PUBLICA SUR,FUENTE
F4T02,8.0,FUENCARRAL-EL PARDO,CUATRO TORRES,"441679,16","4480943,67",40.4771316,-3.6880464,PLAZA PUBLICA SUR,FUENTE
F4T03,8.0,FUENCARRAL-EL PARDO,CUATRO TORRES,"441692,4","4480962,86",40.4773054,-3.687892,PLAZA PUBLICA SUR,FUENTE
F4T04,8.0,FUENCARRAL-EL PARDO,CUATRO TORRES,"441697,68","4481041,43",40.4780136,-3.6878369,PLAZA PUBLICA NORTE,FUENTE
F4T05,8.0,FUENCARRAL-EL PARDO,CUATRO TORRES,441699,"4481014,09",40.4777674,-3.6878188,PLAZA PUBLICA NORTE,FUENTE
F4T06,8.0,FUENCARRAL-EL PARDO,CUATRO TORRES,"441731,31","4481032,61",40.4779365,-3.6874394,PLAZA PUBLICA NORTE,FUENTE
F4T07,8.0,FUENCARRAL-EL PARDO,CUATRO TORRES,441728,"4481007,09",40.4777063,-3.6874761,PLAZA PUBLICA NORTE,FUENTE
F4T08,8.0,FUENCARRAL-EL PARDO,CUATRO TORRES,"441750,78","4481010,06",40.4777347,-3.6872076,PLAZA PUBLICA NORTE,FUENTE
F4T09,8.0,FUENCARRAL-EL PARDO,CUATRO TORRES,"441750,78","4481010,06",40.4777347,-3.6872076,PARQUE CALEIDO NORTE,FUENTE
F4T10,8.0,FUENCARRAL-EL PARDO,CUATRO TORRES,"441750,78","4481010,06",40.4777347,-3.6872076,PARQUE CALEIDO SUR,FUENTE
F4T11,8.0,FUENCARRAL-EL PARDO,CUATRO TORRES,"441750,78","4481010,06",40.4777347,-3.6872076,PARQUE CALEIDO OESTE,FUENTE
FUE_09_0001,9.0,MONCLOA-ARAVACA,CALLE 30,"436992,6973","4480649,937",40.4741433,-3.743302,CALLE ARROYOFRESNO 15,FUENTE
FUE_09_0002,9.0,MONCLOA-ARAVACA,TALUD PTE. DE LOS FRANCESES,"437619,3208","4476176,064",40.4338883,-3.7354707,C/ANICETO MARINAS 120,FUENTE
FUE_09_0003,9.0,MONCLOA-ARAVACA,P ANICETO MARINAS,"438250,5399","4475305,731",40.4260951,-3.7279446,C/ANICETO MARINAS N 66,FUENTE
FUE_09_0004,9.0,MONCLOA-ARAVACA,P ANICETO MARINAS,"438000,2421","4475573,246",40.4284864,-3.7309212,C/ANICETO MARINAS N 96,FUENTE
FUE_09_0005,9.0,MONCLOA-ARAVACA,P ANICETO MARINAS,"437641,1617","4476085,483",40.4330739,-3.7352043,C/ANICETO MARINAS 120,FUENTE
FUE_09_0006,9.0,MONCLOA-ARAVACA,RIBERA DEL MANZANARES - MARGEN DERECHA,"437660,9651","4475863,331",40.4310742,-3.734949,CALLE RIBERA DEL MANZANARES 136,FUENTE
FUE_09_0008,9.0,MONCLOA-ARAVACA,RIBERA DEL MANZANARES - MARGEN DERECHA,"438248,1159","4475217,781",40.4253026,-3.7279646,CALLE RIBERA DEL MANZANARES 75,FUENTE
FUE_09_0009,9.0,MONCLOA-ARAVACA,RIBERA DEL MANZANARES - MARGEN DERECHA,"438399,0505","4475066,948",40.4239551,-3.7261709,CALLE RIBERA DEL MANZANARES 40,FUENTE
FUE_09_0010,9.0,MONCLOA-ARAVACA,COL. DEL MANZANARES,"437964,0523","4475296,865",40.425994,-3.7313208,PASEO COMANDANTE FORTEA N 25,FUENTE
FUE_09_0011,9.0,MONCLOA-ARAVACA,COL. DEL MANZANARES,"437922,0147","4475317,745",40.4261789,-3.7318184,PASEO COMANDANTE FORTEA N 25,FUENTE
FUE_09_0016,9.0,MONCLOA-ARAVACA,LA HORCA,"432985,1007","4478497,817",40.4544428,-3.7903485,"CALLE BRUJULA, 73",FUENTE
FUE_09_0017,9.0,MONCLOA-ARAVACA,P ERMITA - VILLA ADRIANA,"433840,5059","4479316,893",40.4618897,-3.7803464,CALLE ARDALES N 26,FUENTE
FUE_09_0018,9.0,MONCLOA-ARAVACA,P ERMITA - VILLA ADRIANA,"433766,0106","4479334,704",40.4620442,-3.7812269,CALLE ARDALES N 26,FUENTE
FUE_09_0019,9.0,MONCLOA-ARAVACA,JARDIN DE LA PZA. DE LA IGLESIA ARAVACA,"433594,2766","4478753,653",40.4567963,-3.7831915,CALLE CAROLI N 22,FUENTE
FUE_09_0020,9.0,MONCLOA-ARAVACA,JARDINES C/ DE LA BAJA DE LA IGLESIA,"433698,3632","4478677,401",40.4561177,-3.7819561,CALLE GOLONDRINA 4,FUENTE
FUE_09_0021,9.0,MONCLOA-ARAVACA,JARDINES PINILLA,"433961,8156","4478491,087",40.4544603,-3.7788298,CALLE PINILLA N36,FUENTE
FUE_09_0022,9.0,MONCLOA-ARAVACA,PARQUE ARROYO POZUELO,"434658,8925","4478160,307",40.4515357,-3.7705755,FRENTE CALLE DEL ENEBRO,FUENTE
FUE_09_0023,9.0,MONCLOA-ARAVACA,PARQUE ARROYO POZUELO,"434825,3084","4478170,256",40.4516384,-3.768614,FRENTE A CALLE DEL ALCORNOQUE,FUENTE
FUE_09_0024,9.0,MONCLOA-ARAVACA,PARQUE ARROYO POZUELO,"434686,2209","4478220,988",40.4520845,-3.7702594,FRENTE CALLE DEL ENEBRO,FUENTE
FUE_09_0025,9.0,MONCLOA-ARAVACA,PARQUE ARROYO POZUELO,"434095,49","4478300,38",40.452753,-3.7772337,"CALLE ARROYO PUZUELO, 71. CERCA DE ZONA INFANTIL",FUENTE
FUE_09_0026,9.0,MONCLOA-ARAVACA,PARQUE ARROYO POZUELO,"434191,92","4478382,44",40.4534999,-3.776105,"CALLE VIRGEN DE LOS ROSALES 44, CERCANA A LAS PISTAS DE PETANCA",FUENTE
FUE_09_0027,9.0,MONCLOA-ARAVACA,PARQUE DE LA BOMBILLA,"437933,3786","4475942,019",40.4318035,-3.7317454,AVENIDA VALLADOLID FRENTE A C/ LOECHES,FUENTE
FUE_09_0028,9.0,MONCLOA-ARAVACA,PARQUE DE LA BOMBILLA,"437868,303","4476042,57",40.4327044,-3.7325224,"AVENIDA DE VALLADOLID N 81,",FUENTE
FUE_09_0029,9.0,MONCLOA-ARAVACA,PARQUE DE LA BOMBILLA,"438384,3779","4475367,37",40.4266603,-3.7263729,JUNTO A CASETA DE JARDINEROS,FUENTE
FUE_09_0030,9.0,MONCLOA-ARAVACA,PARQUE DE LA BOMBILLA,"438260,9317","4475477,582",40.427644,-3.7278388,JUNTO A JUEGOS INFANTILES,FUENTE
FUE_09_0032,9.0,MONCLOA-ARAVACA,ROSAS DE ARAVACA,"433678,1574","4478130,668",40.451191,-3.7821372,CALLE ROSAS DE ARAVACA CV CALLE CARRETERA DE HUMERA,FUENTE
FUE_09_0033,9.0,MONCLOA-ARAVACA,CERRO VALDECAHONDE,"433075,2253","4477753,532",40.4477453,-3.7892072,AVENIDA DEL TALGO 46,FUENTE
FUE_09_0036,9.0,MONCLOA-ARAVACA,EL DISCO,"433216,9611","4477953,682",40.4495597,-3.7875571,CALLE CORONA AUSTRAL 16,FUENTE
FUE_09_0037,9.0,MONCLOA-ARAVACA,EL DISCO,"433009,2713","4478033,494",40.4502619,-3.7900145,CALLE UNICORNIO N 36,FUENTE
FUE_09_0038,9.0,MONCLOA-ARAVACA,PINAR ROSA LUXEMBURGO,"434725,9014","4478090,656",40.4509135,-3.7697781,CALLE ENEBRO 6,FUENTE
FUE_09_0039,9.0,MONCLOA-ARAVACA,COL. ROSA LUXEMBURGO,"435076,7378","4477970,772",40.449861,-3.7656287,CALLE AZAFRAN 16,FUENTE
FUE_09_0040,9.0,MONCLOA-ARAVACA,COL. ROSA LUXEMBURGO,"434364,6549","4477965,519",40.4497578,-3.774025,CALLE DEL BOTIJO 3,FUENTE
FUE_09_0041,9.0,MONCLOA-ARAVACA,COL. ROSA LUXEMBURGO,"434367,8368","4478070,6",40.4507046,-3.7739983,C/ DEL TOMILLO 1,FUENTE
FUE_09_0042,9.0,MONCLOA-ARAVACA,COL. ROSA LUXEMBURGO,"434496,4283","4478001,678",40.4500939,-3.7724748,C/BARDEGUERAL 12,FUENTE
FUE_09_0043,9.0,MONCLOA-ARAVACA,COL. ROSA LUXEMBURGO,"434368,8723","4478013,09",40.4501866,-3.7739802,C/ROSA DE LUXEMBURO 31,FUENTE
FUE_09_0044,9.0,MONCLOA-ARAVACA,CALLE ROSA DE LUXEMBURGO 56,"434102,92","4478154,05",40.4514354,-3.7771309,JUNTO ZONA INFANTIL,FUENTE
FUE_09_0045,9.0,MONCLOA-ARAVACA,COL. ROSA LUXEMBURGO,"434051,6385","4478106,704",40.4510048,-3.7777306,C/ROSA DE LUXEMBURO 55,FUENTE
FUE_09_0046,9.0,MONCLOA-ARAVACA,COL. ROSA LUXEMBURGO,"433963,932","4478210,895",40.4519365,-3.7787758,C/ DE LOS MINERALES 10,FUENTE
FUE_09_0047,9.0,MONCLOA-ARAVACA,COL. ROSA LUXEMBURGO,"434758,9806","4477909,025",40.4492799,-3.7693694,CALLE ABEJARUCO 16,FUENTE
FUE_09_0050,9.0,MONCLOA-ARAVACA,"PO PINTOR ROSALES, DEL N:50","438751,0429","4475630,725",40.4290598,-3.7220761,PASEO DE PINTOR ROSALES,FUENTE
FUE_09_0051,9.0,MONCLOA-ARAVACA,CALLE ISLA DE OZA CV CALLE ISLA DE ALEGRANZA,"438858,6637","4479452,437",40.4634952,-3.7211754,ZV LAS ISLAS,FUENTE
FUE_09_0052,9.0,MONCLOA-ARAVACA,LAS ISLAS,"438648,3137","4479206,918",40.461268,-3.7236326,CALLE ISLA DE ALEGRANZA CV AVDA  MARTIRES MARISTAS,FUENTE
FUE_09_0053,9.0,MONCLOA-ARAVACA,CALLE ISLA DE OZA N 61,"438894,06","4479518,32",40.4640913,-3.7207642,JUNTO ZONA INFANTIL,FUENTE
FUE_09_0055,9.0,MONCLOA-ARAVACA,PASEO DE PINTOR ROSALES ESQ PSO MORET,"438474,7556","4476018,3",40.4325308,-3.7253705,PASEO DE PINTOR ROSALES,FUENTE
FUE_09_0056,9.0,MONCLOA-ARAVACA,PASEO DE PINTOR ROSALES N 16,"439045,75","4475290,37",40.4260154,-3.7185694,ESQ C/ REY FRANCISCO,FUENTE
FUE_09_0057,9.0,MONCLOA-ARAVACA,CIUDAD DE LOS POETAS,"439092,1135","4479794,536",40.4665941,-3.7184548,CALLE VALDESANGIL 2,FUENTE
FUE_09_0058,9.0,MONCLOA-ARAVACA,SACONIA,"438950,7702","4479898,828",40.4675232,-3.7201319,"CALLE VALDERREY, 40",FUENTE
FUE_09_0059,9.0,MONCLOA-ARAVACA,CIUDAD DE LOS POETAS,"439110,8503","4479778,906",40.4664547,-3.7182323,CALLE VALDESANGIL 2,FUENTE
FUE_09_0060,9.0,MONCLOA-ARAVACA,CIUDAD DE LOS POETAS,"439221,4171","4479834,875",40.466967,-3.7169335,CALLE VALDESANGIL 12,FUENTE
FUE_09_0061,9.0,MONCLOA-ARAVACA,CIUDAD DE LOS POETAS,"439285,8536","4479814,484",40.4667879,-3.7161716,"CALLE VALDEVERDEJA, 13",FUENTE
FUE_09_0062,9.0,MONCLOA-ARAVACA,CALLE PRINCESA 33,"439374,18","4475539,53",40.4282839,-3.7147217,ESQ C/ REY FRANCISCO,FUENTE
FUE_09_0063,9.0,MONCLOA-ARAVACA,PAR VALDERROMAN,"438909,0313","4480215,971",40.4703771,-3.7206548,CALLE VALDERROMAN 25,FUENTE
FUE_09_0065,9.0,MONCLOA-ARAVACA,PARQUE DE FRANCOS RDGUEZ.,"439274,693","4478277,695",40.4529432,-3.7161562,"CALLE DEL ARQUITECTO SANCHEZ ARCAS, 50.
ANTES CALLE ALMIRANTE FRANCISCO MORENO 50",FUENTE
FUE_09_0066,9.0,MONCLOA-ARAVACA,PARQUE DE FRANCOS RDGUEZ.,"439344,4113","4478357,135",40.4536639,-3.7153416,"CALLE DEL ARQUITECTO SANCHEZ ARCAS, 50.
ANTES CALLE ALMIRANTE FRANCISCO MORENO 50",FUENTE
FUE_09_0068,9.0,MONCLOA-ARAVACA,PARQUE DE FRANCOS RDGUEZ.,"439426,5047","4478340,334",40.4535185,-3.714372,AVENIDA DE LAS MORERAS 20,FUENTE
FUE_09_0073,9.0,MONCLOA-ARAVACA,RAFAEL VILLA,"430026,7695","4480446,248",40.4717507,-3.8254494,C/RAFAEL VILLA N 43,FUENTE
FUE_09_0074,9.0,MONCLOA-ARAVACA,DR. FEDERICO RUBIO Y GALI,"439448,0471","4478733,346",40.4570605,-3.7141553,AV. DR. FEDERICO RUBIO Y GALI N 73,FUENTE
FUE_09_0076,9.0,MONCLOA-ARAVACA,PARQUE DEL CEMENTERIO,"433194,9243","4479838,694",40.4665386,-3.7880153,CAMINO DE LA ZARZUELA N 28,FUENTE
FUE_09_0078,9.0,MONCLOA-ARAVACA,PARQUE DEL CEMENTERIO,"433307,6949","4479884,073",40.4669564,-3.78669,CALLE DE LA SALLE N 25,FUENTE
FUE_09_0079,9.0,MONCLOA-ARAVACA,CABELLERA DE BERENICE 42,"433220,4143","4480307,476",40.4707636,-3.787764,VALDEMARIN OESTE,FUENTE
FUE_09_0081,9.0,MONCLOA-ARAVACA,PARQUE FEDERICO AGUSTI,"429544,6864","4480686,744",40.4738763,-3.8311625,C/FEDERICO AGUSTI 2,FUENTE
FUE_09_0084,9.0,MONCLOA-ARAVACA,COL. VALDEZARZA,"439618,0284","4479324,177",40.4623953,-3.7122069,CALLE ALCALDE MARTIN ALZAGA 22,FUENTE
FUE_09_0085,9.0,MONCLOA-ARAVACA,COL. VALDEZARZA,"439628,6686","4479581,978",40.4647185,-3.7121059,CALLE SAN RESTITUTO 26,FUENTE
FUE_09_0086,9.0,MONCLOA-ARAVACA,COL. VALDEZARZA,"439266,7218","4479598,243",40.4648386,-3.7163765,CALLE SAN RESTITUTO 72,FUENTE
FUE_09_0087,9.0,MONCLOA-ARAVACA,AMPLIACION PARQUE ARROYO  POZUELO,"432990,4203","4478343,146",40.4530499,-3.7902695,CALLE ESCULTOR PERESEJO N 80,FUENTE
FUE_09_0088,9.0,MONCLOA-ARAVACA,AMPLIACION PARQUE ARROYO  POZUELO,"432810,8128","4478253,868",40.4522312,-3.792378,CALLE ESCULTOR PERESEJO N 81,FUENTE
FUE_09_0089,9.0,MONCLOA-ARAVACA,AMPLIACION PARQUE ARROYO  POZUELO,"433156,0034","4478378,805",40.4533845,-3.7883206,CALLE ESCULTOR PERESEJO N 50,FUENTE
FUE_09_0090,9.0,MONCLOA-ARAVACA,CALLE  HUMERA 40. AMPLIACION PARQUE ARROYO  POZUELO,"433616,59","4478302,6",40.4527349,-3.7828812,JUNTO ZONA INFANTIL,FUENTE
FUE_09_0092,9.0,MONCLOA-ARAVACA,"GTA RIO ZANCARA, 1","433907,7383","4478303,606",40.4527672,-3.779448,ARROYOPOZUELO - HUMERA,FUENTE
FUE_09_0094,9.0,MONCLOA-ARAVACA,P ANICETO MARINAS,"438494,1692","4475050,164",40.4238109,-3.725048,C/ANICETO MARINAS 36,FUENTE
FUE_09_0095,9.0,MONCLOA-ARAVACA,INTBL. MOZART,"438701,5717","4474957,034",40.4229872,-3.7225944,CALLE MOZART 9,FUENTE
FUE_09_0096,9.0,MONCLOA-ARAVACA,CAMINO BARRIAL,"432451,6552","4479008,626",40.4590011,-3.7966935,CALLE NAVACERRADA CV CALLE CARRIL DE LOS CALEROS,FUENTE
FUE_09_0099,9.0,MONCLOA-ARAVACA,CL ALTOZANO FRENTE AL N 4,"433847,4437","4478860,11",40.4577755,-3.7802171,CV CALLE TEJADILLO,FUENTE
FUE_09_0101,9.0,MONCLOA-ARAVACA,CL SAN MARTIN DE PORRES N6,"438342,4","4479975,98",40.4681733,-3.7273152,CV CALLE MARIA BLANCO ACCESO CENTRO SALUD,FUENTE
FUE_09_0116,9.0,MONCLOA-ARAVACA,CL PEREZ DE VICTORIA,"433593,3767","4478806,425",40.4572717,-3.7832076,JUNTO A LA PARROQUIA DE LA ASUNCION DE NUESTRA SENORA,FUENTE
FUE_09_0119,9.0,MONCLOA-ARAVACA,C/ RIBERA DE MANZANARES FRENTE AL N 123,"437633,69","4475220,96",40.4252854,-3.7352076,FUENTE DE LA COLONIA MANZANARES  (FUENTE DE LA TEJA Y EL SOPAPO),FUENTE
FUE_09_0121,9.0,MONCLOA-ARAVACA,CALLE ANICETO MARINAS FRENTE AL 106,"437760,85","4475828,39",40.4307669,-3.7337681,CON VUELTA CALLE LOECHES,FUENTE
FUE_09_0123,9.0,MONCLOA-ARAVACA,CALLE VALDERRODRIGO N 46,"438993,81","4480057,37",40.4689546,-3.7196395,PAR ANTONIO MACHADO,FUENTE
FUE_09_0125,9.0,MONCLOA-ARAVACA,PASEO DEL REY 26,"438951,98","4474927,95",40.4227437,-3.7196399,C/V PASEO DE LA ROSALEDA,FUENTE
FUE_09_0127,9.0,MONCLOA-ARAVACA,CALLE VALLS FERRERA 5,"439306,83","4478412,78",40.4541624,-3.7157901,C/V VALLE DE ARAN,FUENTE
FUE_09_0129,9.0,MONCLOA-ARAVACA,CALLE ARGENTONA 23,"435236,36","4479640,31",40.4649131,-3.7639169,C/V CERCIS,FUENTE
FUE_09_0131,9.0,MONCLOA-ARAVACA,AV. EUROPA 36,"433129,48","4477469,41",40.4451903,-3.7885376,EN BULEVAR,FUENTE
FUE_09_0132,9.0,MONCLOA-ARAVACA,"P JUAN XXIII N 21, RECTOR ROYO-VILLANOVA 10C","439416,09","4478137,69",40.4516923,-3.7144754,AREA CANINA,FUENTE
FUE_09_0133,9.0,MONCLOA-ARAVACA,"PASEO MORET 1, CV RUPERTO CHAPI","438943,69","4476278,14",40.4349061,-3.7198673,FRENTE INTERCAMBIADOR MONCLOA,FUENTE
FUE_09_0134,9.0,MONCLOA-ARAVACA,P COMANDANTE FORTEA FRENTE AL N 12,"438145,79","4475183,15",40.4249831,-3.7291675,JUNTO ZV Y ZONA INFANTIL,FUENTE
FUE_09_0135,9.0,MONCLOA-ARAVACA,DOCTOR FEDERICO RUBIO Y GALI 102,"439512,93","4478614,54",40.455995,-3.7133788,JUNTO ZONA INFANTIL,FUENTE
FUE_09_0136,9.0,MONCLOA-ARAVACA,AV. VALDEMARIN 67,"434116,49","4480215,58",40.4700073,-3.7771848,"PARQUE DEL CISNE, JUNTO AREA CANINA",FUENTE
FUE_09_0137,9.0,MONCLOA-ARAVACA,"RISCO DE LOS CLAVELES, 2  C/V A C/ ZARZA","433320,17","4478884,14",40.4579498,-3.7864378,JUNTO ZONA INFANTIL,FUENTE
FUE_09_0138,9.0,MONCLOA-ARAVACA,"CALLE DE ANA TERESA, 2","433850,23я","4479192,27",40.4607679,-3.7802188,JUNTO ACCESO PARQUE ANA TERESA PASEO DE LA ERMITA,FUENTE
FB_900001,9.0,MONCLOA-ARAVACA,MADRID RIO,"438059,9","4475509,7",40.4279184,-3.7302117,Z.01 - RIBERA DEL MANZANARES,FUENTE
FB_900002,9.0,MONCLOA-ARAVACA,MADRID RIO,"438683,7","4474449,8",40.4184166,-3.7227561,Z.02 - EXPLANADA DE LA SELECCION,FUENTE
FB_900003,9.0,MONCLOA-ARAVACA,MADRID RIO,"438620,2","4474803,4",40.4215973,-3.7235387,Z.02 - EXPLANADA DE LA SELECCION,FUENTE
FB_900004,9.0,MONCLOA-ARAVACA,MADRID RIO,"438619,8","4474802,5",40.4215891,-3.7235433,Z.02 - EXPLANADA DE LA SELECCION,FUENTE
FB_900005,9.0,MONCLOA-ARAVACA,MADRID RIO,"438627,2","4474743,7",40.42106,-3.7234504,Z.02 - EXPLANADA DE LA SELECCION,FUENTE
FB_900006,9.0,MONCLOA-ARAVACA,MADRID RIO,"438627,9","4474743,1",40.4210546,-3.7234421,Z.02 - EXPLANADA DE LA SELECCION,FUENTE
FB_900007,9.0,MONCLOA-ARAVACA,MADRID RIO,"438628,6","4474742,4",40.4210484,-3.7234338,Z.02 - EXPLANADA DE LA SELECCION,FUENTE
FB_900008,9.0,MONCLOA-ARAVACA,MADRID RIO,"437329,8","4473652,9",40.4111369,-3.7386352,Z.03 - AVENIDA DE PORTUGAL,FUENTE
FB_900009,9.0,MONCLOA-ARAVACA,MADRID RIO,"437609,3","4473796,4",40.4124506,-3.7353553,Z.03 - AVENIDA DE PORTUGAL,FUENTE
FB_900010,9.0,MONCLOA-ARAVACA,MADRID RIO,"437754,8","4473863,9",40.4130696,-3.7336472,Z.03 - AVENIDA DE PORTUGAL,FUENTE
FB_900011,9.0,MONCLOA-ARAVACA,MADRID RIO,"438040,6","4474000,9",40.414325,-3.7302922,Z.03 - AVENIDA DE PORTUGAL,FUENTE
FB_900012,9.0,MONCLOA-ARAVACA,MADRID RIO,438455,"4474200,1",40.4161503,-3.7254275,Z.03 - AVENIDA DE PORTUGAL,FUENTE
FB_26_1,9.0,MONCLOA-ARAVACA,PZA. ESPANA,"439293,4","4474997,86",40.4233984,-3.7156222,"ZONA CALLE IRUN, JUNTO ESTATUA SOR JUANA INES DE LA CRUZ",FUENTE
FB_26_2,9.0,MONCLOA-ARAVACA,PZA. ESPANA,"439367,72","4474955,43",40.4230216,-3.7147421,"ZONA CALLE IRUN, JUNTO ESTATUA 2 DE MAYO",FUENTE
FB_26_3,9.0,MONCLOA-ARAVACA,PZA. ESPANA,"439476,47","4474929,32",40.4227943,-3.7134578,AREAS INFANTILES PLAZA ESPANA,FUENTE
FB_26_4,9.0,MONCLOA-ARAVACA,PZA. ESPANA,"439513,56","4474970,44",40.4231674,-3.7130245,AREAS INFANTILES PLAZA ESPANA,FUENTE
FB_26_5,9.0,MONCLOA-ARAVACA,PZA. ESPANA,"439530,06","4474916,48",40.4226825,-3.7128249,AREAS INFANTILES PLAZA ESPANA,FUENTE
FUE_10_0001,10.0,LATINA,"ALUCHE - SESENA  A.P.D 10,3","434934,338","4472117,619",40.3971227,-3.766709,C/GRANJA DE TORREHERMOSA S/N,FUENTE
FUE_10_0003,10.0,LATINA,"CALLE DE SOLEDAD CAZORLA, 23","434569,85","4469709,32",40.3753993,-3.7707563,ANTES CALLE GENERAL SALIQUET N 23,FUENTE
FUE_10_0006,10.0,LATINA,POBLADO DIRIGIDO LOS CARMENES,"437101,1011","4471984,836",40.3960931,-3.7411656,"CALLE ESCALONILLA 19, JUNTO A ZONA INFANTIL",FUENTE
FUE_10_0013,10.0,LATINA,PARQUE DE CERRO ALMODOVAR - 1¦ - 2¦ FASE,"436520,8792","4471888,361",40.3951799,-3.7479925,CALLE DUQUESA DE PARCENT N 54,FUENTE
FUE_10_0014,10.0,LATINA,PARQUE DE CERRO ALMODOVAR - 1¦ - 2¦ FASE,"436369,0549","4471674,351",40.3932404,-3.74976,CALLE LOS YEBENES N 145,FUENTE
FUE_10_0015,10.0,LATINA,PARQUE DE CERRO ALMODOVAR - 1¦ - 2¦ FASE,"436600,3009","4471738,579",40.3938367,-3.7470418,CALLE LOS YEBENES N 145-DENTRO DEL PARQUE,FUENTE
FUE_10_0016,10.0,LATINA,CALLE ALHAMBRA N 29,"436864,5863","4472384,941",40.3996794,-3.743992,"CUNA VERDE LA LATINA, JUNTO CALISTENIA",FUENTE
FUE_10_0017,10.0,LATINA,CUNA VERDE LA LATINA,"437289,2445","4472481,057",40.4005774,-3.7389978,CALLE CONCEJAL FRANCISCO JOSE JIMENEZ MARTIN N68,FUENTE
FUE_10_0018,10.0,LATINA,CUNA VERDE LA LATINA,"437411,6779","4472567,496",40.4013653,-3.7375635,CALLE CONCEJAL FRANCISCO JOSE JIMENEZ MARTIN N72,FUENTE
FUE_10_0019,10.0,LATINA,CUNA VERDE LA LATINA,"435853,1449","4472425,161",40.3999645,-3.7559141,CALLE CONCEJAL FRANCISCO JOSE JIMENEZ MARTIN N170,FUENTE
FUE_10_0020,10.0,LATINA,CUNA VERDE LA LATINA,"435815,7864","4472542,102",40.401015,-3.756366,CALLE CONCEJAL FRANCISCO JOSE JIMENEZ MARTIN N192,FUENTE
FUE_10_0022,10.0,LATINA,CUNA VERDE LA LATINA,"435657,5965","4472539,304",40.4009776,-3.7582297,CALLE SANCHORREJA N 12,FUENTE
FUE_10_0024,10.0,LATINA,CUNA VERDE LA LATINA,"435585,945","4472535,204",40.4009351,-3.7590735,CALLE LOS YEBENES N 15,FUENTE
FUE_10_0025,10.0,LATINA,CUNA VERDE LA LATINA,"435631,2561","4472660,025",40.4020631,-3.7585523,CALLE SANCHORREJA N 16,FUENTE
FUE_10_0029,10.0,LATINA,CUNA VERDE LA LATINA,"436579,2398","4472429,004",40.4000547,-3.7473587,CALLE CONCEJAL FRANCISCO JOSE JIMENEZ MARTIN N132,FUENTE
FUE_10_0032,10.0,LATINA,CUNA VERDE LA LATINA,"438417,5547","4473091,656",40.4061622,-3.7257616,PASEO DE LA ERMITA DEL SANTO N 32,FUENTE
FUE_10_0035,10.0,LATINA,PARQUE DE ALUCHE - ARIAS NAVARRO,"435583,5562","4471924,541",40.3954339,-3.7590399,CALLE TEMBLEQUE N 50,FUENTE
FUE_10_0037,10.0,LATINA,Z.A. PAU CARABANCHEL - UNIDAD III,"435020,1974","4469127,062",40.3701893,-3.7653923,CALLE FLAUTAS N 6,FUENTE
FUE_10_0038,10.0,LATINA,Z.A. PAU CARABANCHEL - UNIDAD III,"435078,29","4468924,45",40.3683686,-3.7646875,CALLE FAGOT N 2,FUENTE
FUE_10_0039,10.0,LATINA,Z.A. PARQUE CARAMUEL,"438101,7953","4473275,841",40.4077979,-3.7295004,CALLE CARAMUEL N 58,FUENTE
FUE_10_0040,10.0,LATINA,PZA. STA. CRISTINA - S. CRISPIN,"438297,8271","4473984,063",40.4141924,-3.727259,PLAZA SANTA CRISTINA N1,FUENTE
FUE_10_0041,10.0,LATINA,COL. DEHESA DEL PPE.,"432851,0468","4470435,1",40.3818007,-3.7910781,CALLE GRANADEROS N9-11,FUENTE
FUE_10_0043,10.0,LATINA,COL. DEHESA DEL PPE.,"432823,1889","4470350,66",40.3810378,-3.7913974,CALLE GRANADEROS N15,FUENTE
FUE_10_0044,10.0,LATINA,COL. DEHESA DEL PPE.,"432947,6512","4470365,789",40.3811841,-3.7899329,CALLE GRANADEROS N2,FUENTE
FUE_10_0045,10.0,LATINA,COL. DEHESA DEL PPE.,"432693,6822","4470228,111",40.3799233,-3.7929101,AVENIDA DE ARQUEROS N 26-DETRAS DEL COLEGIO,FUENTE
FUE_10_0046,10.0,LATINA,COL. DEHESA DEL PPE.,"432419,7097","4470033,832",40.378151,-3.7961167,AVDA. DE ARQUEROS N41,FUENTE
FUE_10_0047,10.0,LATINA,COL. DEHESA DEL PPE.,"432529,2787","4470175,262",40.3794339,-3.794841,AVENIDA DE ARQUEROS N 25-POSTERIOR,FUENTE
FUE_10_0048,10.0,LATINA,COL. DEHESA DEL PPE.,"432487,4073","4470126,282",40.3789893,-3.795329,AVENIDA DE ARQUEROS N 25-POSTERIOR,FUENTE
FUE_10_0049,10.0,LATINA,COL. DEHESA DEL PPE.,"432343,3372","4469951,873",40.3774065,-3.7970076,AVENIDA DE ARQUEROS N51,FUENTE
FUE_10_0050,10.0,LATINA,"CALLE NAVIA, 15","434931,69","4470872,47",40.3859057,-3.766613,CON CALLE  LUIS CHAMIZO,FUENTE
FUE_10_0054,10.0,LATINA,GTA. DE LOS CARMENES,"436818,8598","4471863,268",40.3949765,-3.7444791,C/MARCELINO CASTILLO N 30,FUENTE
FUE_10_0057,10.0,LATINA,JARDINES DE LA ALHAMBRA - CARLOS FUENTES,"436844,6759","4472699,493",40.4025115,-3.7442578,CALLE DE CARLOS FUENTES N 5,FUENTE
FUE_10_0058,10.0,LATINA,CINE,"434284,5791","4471811,483",40.3943139,-3.7743332,CALLE MANUEL GARCIA N 17 C/V CALLE DANIEL SEGOVIA,FUENTE
FUE_10_0059,10.0,LATINA,PZA. DE PATRICIO MNEZ.,"434607,5025","4472049,442",40.3964829,-3.770553,PLAZA DE PATRICIO MARTINEZ S/N,FUENTE
FUE_10_0060,10.0,LATINA,COL. MOLINO DE VIENTO,"437552,5836","4473418,699",40.4090439,-3.7359867,CALLE MAUREGATO S/N,FUENTE
FUE_10_0061,10.0,LATINA,PZA. FRANCISCANOS - NTRA. SRA. ROSARIO,"436192,8847","4473076,801",40.4058608,-3.7519762,PLAZA FRANCISCANOS N 3,FUENTE
FUE_10_0064,10.0,LATINA,APARCAMIENTO C/ FTE. DE LIMA,"433576,6595","4470571,224",40.383085,-3.7825447,CALLE FUENTE DE LIMA N 15,FUENTE
FUE_10_0069,10.0,LATINA,PARQUE EUROPA 3¦ FASE - API 10-07,"433591,5992","4470481,763",40.3822803,-3.7823594,CALLE FUENTE DE LIMA N 17,FUENTE
FUE_10_0070,10.0,LATINA,Z.A. SECTOR SURBATAN,"436113,1353","4472715,89",40.4026035,-3.7528796,CALLE CEBREROS N 152,FUENTE
FUE_10_0071,10.0,LATINA,JARDINES DE LA COL. CASILDA BUSTOS A,"434126,92","4470400,31",40.3815891,-3.7760449,"CALLE DE BLAS CABRERA CV  AVENIDA DE LAS AGUILAS
ANTES 'CALLE GENERAL ROMERO BASART CV AVDA GENERAL FANJUL",FUENTE
FUE_10_0073,10.0,LATINA,POBLADO C - CARABANCHEL - ZONAS XIX-XXIV,"434424,903","4469651,051",40.374863,-3.7724576,CALLE RAFAEL FINAT N 119,FUENTE
FUE_10_0082,10.0,LATINA,PARQUE DE LAS CRUCES,"435624,3653","4469933,42",40.3775002,-3.7583579,AVDA. LOS POBLADOS S/N-PARQUE LAS CRUCES,FUENTE
FUE_10_0083,10.0,LATINA,PARQUE DE LAS CRUCES,"435536,9276",4469672,40.3751385,-3.7593614,CALLE MASCARAQUE N 40,FUENTE
FUE_10_0085,10.0,LATINA,PARQUE DE LAS CRUCES,"435423,7188","4470663,336",40.3840601,-3.7607953,AVENIDA DE LOS POBLADOS N 47,FUENTE
FUE_10_0086,10.0,LATINA,PARQUE DE LAS CRUCES,"435215,1646","4470613,027",40.3835907,-3.7632471,CALLE VIDAUVA 4,FUENTE
FUE_10_0087,10.0,LATINA,EMPALME CAMPAMENTO,"434959,1158","4471493,685",40.3915041,-3.7663533,AVDA. PADRE PIQUER N27 POST.,FUENTE
FUE_10_0088,10.0,LATINA,EMPALME CAMPAMENTO,"434891,4775","4471597,616",40.392435,-3.7671608,AVDA. PADRE PIQUER N34,FUENTE
FUE_10_0089,10.0,LATINA,EMPALME CAMPAMENTO,"434852,9447","4471686,917",40.3932365,-3.767624,AVDA. PADRE PIQUER N18,FUENTE
FUE_10_0091,10.0,LATINA,PARQUE DE ALUCHE - ARIAS NAVARRO,"435505,9694","4471439,509",40.3910585,-3.759905,CALLE QUERO N 35,FUENTE
FUE_10_0092,10.0,LATINA,PARQUE DE ALUCHE - ARIAS NAVARRO,"435487,4944","4471250,168",40.3893514,-3.7601035,CALLE QUERO N 155,FUENTE
FUE_10_0094,10.0,LATINA,PARQUE DE ALUCHE - ARIAS NAVARRO,"435614,7842","4471493,918",40.3915571,-3.7586285,CALLE VALMOJADO N 125,FUENTE
FUE_10_0095,10.0,LATINA,ZA PARQUE CARAMUEL,"438251,3977","4473199,199",40.4071186,-3.72773,CALLE SEPULVEDA S/N,FUENTE
FUE_10_0097,10.0,LATINA,JARAIZ DE LA VERA,"436879,5474","4473219,335",40.4071972,-3.7438985,CALLE HIGUERAS N 15,FUENTE
FUE_10_0098,10.0,LATINA,JARDINES DE LA COL. CASILDA BUSTOS A,"434424,5479","4470435,554",40.38193,-3.7725425,CALLE JOSE DE CADALSO N15,FUENTE
FUE_10_0099,10.0,LATINA,CUNA VERDE LA LATINA,"435248,565","4472411,557",40.3997952,-3.7630364,C/SESENA 37. DENTRO DEL PARQUE. EN EL CARRIL BICI,FUENTE
FUE_10_0102,10.0,LATINA,GREGORIO VACAS FRENTE N14,"436623,0566","4472533,844",40.4010024,-3.7468528,CALLE GREGORIO VACAS N14,FUENTE
FUE_10_0103,10.0,LATINA,HIGUERAS ESQ. LUIS PANDO,"436734,5584","4472761,544",40.4030621,-3.7455616,CALLE HIGUERAS N 55,FUENTE
FUE_10_0104,10.0,LATINA,C/LATINA N 16,"436376,5588","4472573,547",40.4013414,-3.7497614,CALLE LATINA N 16,FUENTE
FUE_10_0108,10.0,LATINA,CALLE CINE N 16,"434349,57","4471783,97",40.3940712,-3.7735647,CALLE CINE N 16,FUENTE
FUE_10_0109,10.0,LATINA,CALLE CONCEJAL FRANCISCO JOSE JIMENEZ MARTIN CV C/BARBERAN Y COLLAR,"435446,7","4472050,24",40.3965556,-3.7606652,"PARQUE CUNA VERDE, ZONA PIRAMIDE",FUENTE
FUE_10_0111,10.0,LATINA,PASEO DE EXTREMADURA 156,437294,"4473529,43",40.4100219,-3.739045,PLAZA DEL METRO ALTO DE EXTREMADURA,FUENTE
FUE_10_0112,10.0,LATINA,CALLE VALLE INCLAN N 68,"434141,09","4469774,03",40.3759485,-3.7758132,JUNTO PISTA DEPORTIVA,FUENTE
FUE_10_0113,10.0,LATINA,CALLE ANSELMO LORENZO N 11,"434735,95","4470474,98",40.3823097,-3.7688782,ENTRE PISTAS DEPORTIVAS Y AREA INFANTIL,FUENTE
FUE_10_0114,10.0,LATINA,AV. LAS AGUILAS N 68,"433838,76","4470389,9",40.3814725,-3.7794383,FRENTE N 68,FUENTE
FUE_10_0116,10.0,LATINA,CUNA VERDE LA LATINA,"437629,93","4472506,9",40.4008358,-3.7349858,"CONCEJAL FRANCISCO JOSE JIMENEZ MARTIN, 5. ZONA CANINA JUNTO PUNTO LIMPIO",FUENTE
FUE_10_0117,10.0,LATINA,"PLAZA DEL PATRIARCA EIJO Y GARAY, 2","437432,65","4473211,21",40.4071657,-3.7373797,JUNTO ZONA INFANTIL,FUENTE
FUE_10_0118,10.0,LATINA,CALLE DUQUESA DE PARCENT FRENTE N 116,"436182,76","4471950,12",40.3957104,-3.7519825,"PARQUE DE CERRO ALMODOVAR, AREA CANINA",FUENTE
FUE_10_0120,10.0,LATINA,"CALLE MONTEHERMOSO, 18","434344,33","4471875,28",40.3948933,-3.7736358,C/V CALLE CINE 34 POSTERIOR,FUENTE
FUE_10_0122,10.0,LATINA,"CALLE RIOCABADO, 7","437349,29","4472712,3",40.402665,-3.7383129,C/V CONCEJAL FRANCISCO JOSE JIMENEZ MARTIN 46,FUENTE
FUE_10_0123,10.0,LATINA,"CALLE CUART DE POBLET, 119","436312,87","4472135,67",40.3973919,-3.750468,"PARQUE CUNA VERDE, AREA CANINA",FUENTE
FUE_10_0125,10.0,LATINA,"CALLE FUERTE DE NAVIDAD, 34","434851,41","4470252,44",40.380314,-3.7674953,CV CALLE MAESTRA JUSTA FREILE,FUENTE
FUE_10_0126,10.0,LATINA,"CALLE ARENAS DE SAN PEDRO, 29","433841,2","4471864,21",40.3947538,-3.7795627,ENTORNO DEL COLEGIO PUBLICO FERNANDEZ DE CORDOBA,FUENTE
FUE_10_0127,10.0,LATINA,"CALLE CEBREROS, 78","436432,35","4473026,97",40.4054302,-3.7491493,JUNTO ZONA INFANTIL,FUENTE
FB_900015,10.0,LATINA,MADRID RIO,"438633,9","4472963,8",40.4050263,-3.7231997,Z.09. - SALON DE PINOS - PUENTE DE SEGOVIA,FUENTE
FB_900016,10.0,LATINA,MADRID RIO,"438718,9","4473421,3",40.409154,-3.7222421,Z.09. - SALON DE PINOS - PUENTE DE SEGOVIA,FUENTE
FB_900017,10.0,LATINA,MADRID RIO,"438696,8","4473549,8",40.4103099,-3.722515,Z.09. - SALON DE PINOS - PUENTE DE SEGOVIA,FUENTE
FB_900018,10.0,LATINA,MADRID RIO,"438697,6","4473549,9",40.4103109,-3.7225055,Z.09. - SALON DE PINOS - PUENTE DE SEGOVIA,FUENTE
FB_900019,10.0,LATINA,MADRID RIO,"438698,4","4473550,1",40.4103127,-3.7224961,Z.09. - SALON DE PINOS - PUENTE DE SEGOVIA,FUENTE
FUE_11_0004,11.0,CARABANCHEL,PARQUE EMPERATRIZ MARIA DE AUSTRIA,"438402,2051","4469668,625",40.3753248,-3.7256113,"C/ CAZALEGAS, 5",FUENTE
FUE_11_0014,11.0,CARABANCHEL,PZA. NЄSRA. VALVANERA,"437157,7141","4471583,81",40.3924847,-3.7404591,"PLAZA EN AV. N¦ S¦ DE VALVANERA 114, CON AREA INFANTIL",FUENTE
FUE_11_0017,11.0,CARABANCHEL,COL. EXPERIMENTALES,"438456,9991","4471223,189",40.3893331,-3.7251161,"C VIEJO DE LEGANES, 57",FUENTE
FUE_11_0036,11.0,CARABANCHEL,"ANTONIO DE LEYVA 25, PARQUE DE COMILLAS","439343,64","4471721,2",40.3938844,-3.7147177,JUNTO ACCESO A COLEGIO,FUENTE
FUE_11_0043,11.0,CARABANCHEL,LTRL. VIA LUSITANA,"438153,2113","4470008,742",40.3783702,-3.7285773,"CV CALLE CARRERO JUAN RAMON, 3",FUENTE
FUE_11_0044,11.0,CARABANCHEL,LTRL. VIA LUSITANA,"438066,4597","4469916,27",40.3775308,-3.7295902,"VIA LUSITANA, 90",FUENTE
FUE_11_0045,11.0,CARABANCHEL,LTRL. VIA LUSITANA,"437738,7503","4469573,125",40.3744152,-3.7334168,"VIA LUSITANA, 116",FUENTE
FUE_11_0046,11.0,CARABANCHEL,LTRL. VIA LUSITANA,"438392,517","4470262,726",40.380676,-3.7257829,"VIA LUSITANA, 58",FUENTE
FUE_11_0064,11.0,CARABANCHEL,PARQUE EMPERATRIZ MARIA DE AUSTRIA,"438273,46","4469748,03",40.3760305,-3.7271355,"CALLE CARRANQUE 18, CERCA DE AREA CANINA",FUENTE
FUE_11_0066,11.0,CARABANCHEL,"CALLE CAZALEGAS, 9","438374,55","4469855,23",40.3770037,-3.7259552,PARQUE EMPERATRIZ MARIA DE AUSTRIA,FUENTE
FUE_11_0073,11.0,CARABANCHEL,PARQUE DE LA VOLATERIA Y ENTORNO,"437811,324","4469406,335",40.3729181,-3.7325458,DENTRO DE ARENERO INFANTIL,FUENTE
FUE_11_0080,11.0,CARABANCHEL,"AVDA. POBLADOS, 104","437361,6262","4469456,876",40.3733397,-3.7378474,CV AV EURO,FUENTE
FUE_11_0081,11.0,CARABANCHEL,JARDIN LA CHOCOLATERA,"435107,3924","4468153,842",40.3614289,-3.7642664,CALLE DEL PATRIMONIO DE LA HUMANIDAD 33 C/V PALAU DE LA MUSICA 5,FUENTE
FUE_11_0082,11.0,CARABANCHEL,JARDIN CUARTEL GRANDE,"435483,87","4468017,85",40.3602331,-3.759819,"CALLE MORALES 40, JUNTO ZONA INFANTIL",FUENTE
FUE_11_0084,11.0,CARABANCHEL,PARQUE DE LAS CRUCES,"435318,29","4469622,32",40.374674,-3.7619317,"CALLLE MUNTANADAS 5, CV CALLE VIRGEN DEL CAMINO",FUENTE
FUE_11_0086,11.0,CARABANCHEL,"CALLE BLANCA, 14","436098,18","4468511,479",40.3647272,-3.7526342,ARDITE,FUENTE
FUE_11_0087,11.0,CARABANCHEL,"AVDA CARABANCHEL, 53","436039,6325","4468185,262",40.361784,-3.7532911,CV AV PESETA,FUENTE
FUE_11_0088,11.0,CARABANCHEL,PARQUE JACINTO VERDAGUER,"439171,8947","4471841,671",40.3949571,-3.7167528,"C/ LA VERDAD, FRENTE N 5, JUNTO PISTA DEPORTIVA",FUENTE
FUE_11_0091,11.0,CARABANCHEL,CALLE AZCOITIA 7,"435966,961","4469556,627",40.3741323,-3.7542846,COLONIA LOYOLA,FUENTE
FUE_11_0092,11.0,CARABANCHEL,PARQUE DE LAS CRUCES,"435812,8962","4469705,417",40.3754608,-3.7561142," CALLE PARAGUAYA S/N, JUNTO ZONA DEPORTIVA",FUENTE
FUE_11_0094,11.0,CARABANCHEL,ALONDRA - AVECILLA,"437528,3592","4471081,358",40.3879863,-3.7360428,CALLE DE MATILDE HERNANDEZ 061,FUENTE
FUE_11_0095,11.0,CARABANCHEL,AGUACATE- AVDA PESETA,"436846,2597","4468447,559",40.3642084,-3.7438177,"CALLE DURO, 11",FUENTE
FUE_11_0108,11.0,CARABANCHEL,CALLE JOAQUIN TURINA 68,"435592,75","4469405,39",40.372741,-3.758677,JUNTO AREA INFANTIL PLAZA MANUEL MATEO,FUENTE
FUE_11_0109,11.0,CARABANCHEL,PARQUE DEL PAN BENDITO,"437317,11","4469564,92",40.3743096,-3.7383824,JUNTO AREA INFANTIL,FUENTE
FUE_11_0118,11.0,CARABANCHEL,COL. PARQUE EUGENIA DE MONTIJO,"436216,5069","4470005,725",40.3781971,-3.7513902,"JACOBINIA, 48",FUENTE
FUE_11_0127,11.0,CARABANCHEL,PARQUE SAN ISIDRO,"438211,117","4472209,082",40.3981962,-3.7281086,PLAZA DE LA FUENTE DEL TREBOL,FUENTE
FUE_11_0128,11.0,CARABANCHEL,C/ALGORTA CV C/OROYA,"438194,0373","4471508,961",40.3918879,-3.7282419,EN ZONA VERDE,FUENTE
FUE_11_0129,11.0,CARABANCHEL,C/ TORTA CV C/ PATRIMONIO DE LA HUMANIDAD,"435039,08","4468483,95",40.3643974,-3.7651044,"PAU CARABANCHEL. PINAR DE SAN JOSE, JUNTO HUERTO URBANO",FUENTE
FUE_11_0130,11.0,CARABANCHEL,C/ VIANA N 1,"438908,31","4470722,41",40.384855,-3.719751,JUNTO A ZONA INFANTIL ZV,FUENTE
FUE_11_0132,11.0,CARABANCHEL,CALLE NUESTRA SENORA DE LA ANTIGUA 52,"437115,4","4469834,76",40.3767253,-3.7407849,FRENTE N 52,FUENTE
FUE_11_0134,11.0,CARABANCHEL,GLORIETA DEL EJERCITO S/N,"436768,27","4471059,01",40.3877276,-3.7449953,ZONA ESTANCIAL,FUENTE
FUE_11_0135,11.0,CARABANCHEL,PLAZA DE LA EMPERATRIZ,"436227,86","4469504,58",40.3736834,-3.7512063,JUNTO APARCA BICIS,FUENTE
FUE_11_0136,11.0,CARABANCHEL,"CALLE ANTONIO ROMERO, 18","438086,18","4469573,87",40.3744477,-3.7293246,C/V CALLE ONTANILLA,FUENTE
FUE_11_0137,11.0,CARABANCHEL,"CALLE JOSEFA FERNANDEZ BUTERGA, 19",439108,"4471426,75",40.3912147,-3.7174659,C/V CALLE ALBERT CAMUS,FUENTE
FUE_11_0138,11.0,CARABANCHEL,"CALLE DE LA OCA, 69","437186,76","4471171,6",40.3887735,-3.7400761,C/V CALLE PINZON. METRO VISTALEGRE,FUENTE
FUE_11_0139,11.0,CARABANCHEL,"CALLE GENERAL RICARDOS, 53","438851,66","4471845,37",40.394967,-3.7205262,C/V CALLE SALLABERRY,FUENTE
FUE_11_0140,11.0,CARABANCHEL,"CALLE SUINTILA, 6","438166,94","4471811,91",40.394615,-3.7285906,C/V CALLE CHINDASVINTO,FUENTE
FUE_11_0141,11.0,CARABANCHEL,PARQUE SAN ISIDRO,"437959,77","4472127,03",40.3974384,-3.7310622,"CALLE CARLOS DABAN, 30 C/V CALLE ALCAUDON",FUENTE
FUE_11_0142,11.0,CARABANCHEL,"CALLE GUITARRA, 7","436080,45","4469268,68",40.371547,-3.752919,JUNTO PISTAS DEPORTIVAS,FUENTE
FB_900021,11.0,CARABANCHEL,MADRID RIO,"438703,9","4472517,1",40.4010074,-3.7223318,Z.12. - SALON DE PINOS - PUENTE DE SAN ISIDRO,FUENTE
FB_900022,11.0,CARABANCHEL,MADRID RIO,"439102,7","4472337,3",40.399417,-3.7176154,Z.12. - SALON DE PINOS - PUENTE DE SAN ISIDRO,FUENTE
FB_900023,11.0,CARABANCHEL,MADRID RIO,"439996,7","4471891,1",40.3954623,-3.7070392,Z.15. - SALON DE PINOS - PERRAULT,FUENTE
FB_900024,11.0,CARABANCHEL,MADRID RIO,"439477,1","4472066,7",40.3970066,-3.7131781,Z.15. - SALON DE PINOS - PERRAULT,FUENTE
FB_900025,11.0,CARABANCHEL,MADRID RIO,"439767,3","4471992,8",40.3963619,-3.7097517,Z.15. - SALON DE PINOS - PERRAULT,FUENTE
FB_900026,11.0,CARABANCHEL,MADRID RIO,"439767,7","4471993,6",40.3963691,-3.7097471,Z.15. - SALON DE PINOS - PERRAULT,FUENTE
FB_900027,11.0,CARABANCHEL,MADRID RIO,"439496,2","4472164,6",40.3978899,-3.7129623,Z.15. - SALON DE PINOS - PERRAULT,FUENTE
FB_900028,11.0,CARABANCHEL,MADRID RIO,"439496,8",4472164,40.3978845,-3.7129552,Z.15. - SALON DE PINOS - PERRAULT,FUENTE
FB_900029,11.0,CARABANCHEL,MADRID RIO,"439497,4","4472163,2",40.3978774,-3.712948,Z.15. - SALON DE PINOS - PERRAULT,FUENTE
FB_900030,11.0,CARABANCHEL,MADRID RIO,"439631,4","4472068,1",40.3970304,-3.7113601,Z.15. - SALON DE PINOS - PERRAULT,FUENTE
FB_900031,11.0,CARABANCHEL,MADRID RIO,"439631,9","4472068,9",40.3970376,-3.7113543,Z.15. - SALON DE PINOS - PERRAULT,FUENTE
FB_900032,11.0,CARABANCHEL,MADRID RIO,"439632,3","4472069,6",40.3970439,-3.7113497,Z.15. - SALON DE PINOS - PERRAULT,FUENTE
FB_900033,11.0,CARABANCHEL,MADRID RIO,"440127,6","4471828,6",40.3949087,-3.705491,Z.15. - SALON DE PINOS - PERRAULT,FUENTE
