id,type,name,trimmed_name,same_as_organization_wikidata,address,latitude,longitude,detail,zip_code,city,district,subdistrict,tax_code,register_date,register_date_alt_format,phone,email,website,category,geographical_scope,num_affiliates,asoc_affiliated,belongs_to_id1,belongs_to_id2,belongs_to_id3,belongs_to_id4
b706835de79a2b4e80506f582af3676a,Association,Onda Merlin Comunitaria-radio Sureste,onda_merlin_comunitaria_radio_sureste,,"Calle Diamante, 22",40.3522527,-3.6867994,,28021,Madrid,Villaverde,Los Rosales,G79092722,1994-10-14T00:00:00Z,1994-10-14,649857547,administracion@omcradio.org,http://www.omcradio.org,De Comunicación,Municipio,114,,584b98aac2dddf59ee2cf19ca4ccb75e,,,
9ab0d88431732957a618d4a469a0d4c3,Association,Asociacion Cultural Atenea,asociacion_cultural_atenea,,"Plaza Virgen De Los Llanos, 3",40.377465,-3.7799548,Y 4,28044,Madrid,Latina,Las Aguilas,G79675617,1994-11-10T00:00:00Z,1994-11-10,917051020,,,Culturales Y Casas Regionales,Barrio,625,,,,,
ec5aa0b7846082a2415f0902f0da88f2,Association,Asociacion De Padres De Alumnos Colegio Publico Daniel Vazquez Diaz,asociacion_de_padres_de_alumnos_colegio_publico_daniel_vazquez_diaz,,"Calle Armenteros, 46",40.4650584,-3.7131683,,28039,Madrid,Moncloa-Aravaca,Valdezarza,G28576478,1994-09-28T00:00:00Z,1994-09-28,600517703,ampacolegiodvd@gmail.com,,De Madres Y Padres Del Alumnado,Barrio,100,,f4f6dce2f3a0f9dada0c2b5b66452017,,,
2bcab9d935d219641434683dd9d18a03,Association,Asociacion De Vecinos De El Plantio Distrito Moncloa,asociacion_de_vecinos_de_el_plantio_distrito_moncloa,,"Calle Rafael Villa, 78 D",40.4720131,-3.825996299999999,2º D,28023,Madrid,Moncloa-Aravaca,El Plantio,G80907520,1994-07-11T00:00:00Z,1994-07-11,650543532,vecindarioelplantio@gmail.com,,Vecinales,Municipio,54,,,,,
7b13b2203029ed80337f27127a9f1d28,Association,Asociacion Mujeres Las Aguilas,asociacion_mujeres_las_aguilas,,"Calle Blas Cabrera, 125",40.3779324,-3.7681915,1º,28044,Madrid,Latina,Las Aguilas,G80286297,1994-09-26T00:00:00Z,1994-09-26,917050388,amlaguilas@hotmail.com,,De Mujeres,Distrito,328,,,,,
4fac9ba115140ac4f1c22da82aa0bc7f,Association,Asociacion Cultural Recreativa Escuela Futbol Carabanchel,asociacion_cultural_recreativa_escuela_futbol_carabanchel,,"Plaza Las Meninas, 2",40.3777652,-3.731243699999999,,28025,Madrid,Carabanchel,Abrantes,G80035066,1994-07-22T00:00:00Z,1994-07-22,914699538,,http://www.escuelafutbolcarabanchel.com,Culturales Y Casas Regionales,Distrito,723,,,,,
ac627ab1ccbdb62ec96e702f07f6425b,Association,Asociacion De Vecinos Las Musas Las Rosas,asociacion_de_vecinos_las_musas_las_rosas,,"Calle Carlos II, 12",40.4285091,-3.6077915,Bajo,28022,Madrid,San Blas-Canillejas,Rosas,G79500732,1988-04-19T00:00:00Z,1988-04-19,913131521,avvlasmusas2@hotmail.com,http://www.avlasmusas-lasrosas.org,Vecinales,Municipio,1111,,735b90b4568125ed6c3f678819b6e058,,,
9908279ebbf1f9b250ba689db6a0222b,Association,Centro Encuentro Y Formacion Opañel,centro_encuentro_y_formacion_opañel,,"Plaza Cantoria, 2",40.3928902,-3.7232036,Bajo Izq,28019,Madrid,Carabanchel,Opañel,G80589229,1994-08-07T00:00:00Z,1994-08-07,914729540,amo@amo.org.es,,De Mujeres,Barrio,117,,,,,
d93ed5b6db83be78efb0d05ae420158e,Association,Agrupacion Coral Fernando De Los Rios,agrupacion_coral_fernando_de_los_rios,,"Calle Marques De Jura Real, 26",40.3913224,-3.710978699999999,1ª Planta,28019,Madrid,Carabanchel,Comillas,G78680410,1994-06-28T00:00:00Z,1994-06-28,661301535,coralfdrios@hotmail.com,http://www.coralfernandodelosrios.org,Culturales Y Casas Regionales,Internacional,21,,,,,
287e03db1d99e0ec2edb90d079e142f3,Association,Asociacion De Madres Y Padres De Alumnos Colegio De Educacion Infantil Y Primaria Cuba,asociacion_de_madres_y_padres_de_alumnos_colegio_de_educacion_infantil_y_primaria_cuba,,"Calle Tembleque, 58",40.3952116,-3.7615634,,28024,Madrid,Latina,Aluche,G80428774,1994-02-06T00:00:00Z,1994-02-06,617296198,ampaceipcuba.aluche@gmail.com,,De Madres Y Padres Del Alumnado,Barrio,24,,f4f6dce2f3a0f9dada0c2b5b66452017,,,
ed3d2c21991e3bef5e069713af9fa6ca,Association,Asociacion Lucha Antidroga Latina. Alad-latina,asociacion_lucha_antidroga_latina._alad_latina,,"Calle Blas Cabrera, 125",40.3779324,-3.7681915,,28044,Madrid,Latina,Las Aguilas,G78781952,1988-04-18T00:00:00Z,1988-04-18,917050388,aladlatina@hotmail.com,,De Salud Y Apoyo Mutuo,Distrito,295,,076a0c97d09cf1a0ec3e19c7f2529f2b,,,
4311359ed4969e8401880e3c1836fbe1,Association,Asociacion De Madres Y Padres De Alumnos Escuela Infantil La Jara,asociacion_de_madres_y_padres_de_alumnos_escuela_infantil_la_jara,,"Calle Hijas De Jesus, 30",40.3844756,-3.7015326,,28026,Madrid,Usera,Almendrales,G80307267,1994-03-29T00:00:00Z,1994-03-29,914769480,ampa.lajara.usera@gmail.com,http://ampalajarausera.blogspot.com,De Madres Y Padres Del Alumnado,Municipio,90,,,,,
ca75910166da03ff9d4655a0338e6b09,Association,Asociacion Albar 42,asociacion_albar_42,,"Calle Muro, 9",40.4702146,-3.5844871,Bajo B,28042,Madrid,Barajas,Timon,G83988576,1994-04-21T00:00:00Z,1994-04-21,629455581,asociacionalbar42@hotmail.com,,Culturales Y Casas Regionales,Comunidad De Madrid,44,,,,,
6602294be910b1e3c4571bd98c4d5484,Association,Asociacion De Madres Y Padres De Alumnos  Del Instituto De Educacion Secundaria Santa Eugenia,asociacion_de_madres_y_padres_de_alumnos__del_instituto_de_educacion_secundaria_santa_eugenia,,"Calle Cerro Almodovar, 5",40.3846004,-3.6034988,,28031,Madrid,Villa Vallecas,Santa Eugenia,G80182819,1994-02-03T00:00:00Z,1994-02-03,655691162,info@ampaiessantaeugenia.es,http://ampaiessantaeugenia.es,De Madres Y Padres Del Alumnado,Municipio,48,,f4f6dce2f3a0f9dada0c2b5b66452017,,,
89fcd07f20b6785b92134bd6c1d0fa42,Association,Asociacion De Padres De Alumnos Colegio Publico Rosa Luxemburgo,asociacion_de_padres_de_alumnos_colegio_publico_rosa_luxemburgo,,"Calle Bardegueral, 16",40.4501052,-3.7714614,18,28023,Madrid,Moncloa-Aravaca,Aravaca,G79794244,1994-01-02T00:00:00Z,1994-01-02,650021740,amparosaluxemburgo@gmail.com,http://aparosaluxemburgo.org,De Madres Y Padres Del Alumnado,Municipio,268,,f4f6dce2f3a0f9dada0c2b5b66452017,,,
e2ef524fbf3d9fe611d5a8e90fefdc9c,Association,Asociacion De Vecinos Santa Ana De Fuencarral,asociacion_de_vecinos_santa_ana_de_fuencarral,,"Calle Hospitalet De Llobregat, 10",40.494884,-3.694293099999999,Bajo,28034,Madrid,Fuencarral-El Pardo,Valverde,G78383205,1988-04-18T00:00:00Z,1988-04-18,917343350,asociacion.santaana@hotmail.com,,Vecinales,Comunidad De Madrid,110,,735b90b4568125ed6c3f678819b6e058,,,
8f468c873a32bb0619eaeb2050ba45d1,Association,"Asociacion De Madres Y Padres Del Conservatorio Profesional De Musica ""teresa Berganza""","asociacion_de_madres_y_padres_del_conservatorio_profesional_de_musica_""teresa_berganza""",,"Calle Palmipedo, 3",40.40346359999999,-3.744976899999999,,28047,Madrid,Latina,Lucero,G80763659,1994-04-13T00:00:00Z,1994-04-13,915265176,secretaria@conservatorioteresaberganza.com,http://www.conservatorioteresaberganza.com.es,De Madres Y Padres Del Alumnado,Municipio,36,,,,,
4e0cb6fb5fb446d1c92ede2ed8780188,Association,Circulo Convivencial Limite - Cirvite,circulo_convivencial_limite___cirvite,,"Calle Esparta, 19",40.4486896,-3.615963099999999,,28022,Madrid,San Blas-Canillejas,Canillejas,G28870558,1994-04-29T00:00:00Z,1994-04-29,913249293,info@cirvite.org,http://www.cirvite.org,Otras De Acción Social,Estatal,85,,92977ae4d2ba21425a59afb269c2a14e,,,
5c936263f3428a40227908d5a3847c0b,Association,Asociacion Cultural Y Deportiva Acude - San Miguel,asociacion_cultural_y_deportiva_acude___san_miguel,,"Calle Jacinto Verdaguer, 34",40.3954405,-3.7185528,,28019,Madrid,Carabanchel,Opañel,G80879901,1994-01-03T00:00:00Z,1994-01-03,646583487,dalonsourbano@gmail.com,http://www.acudecarabanchel.com,Deportivas,Barrio,41,,,,,
d707329bece455a462b58ce00d1194c9,Association,Asociacion Jaire,asociacion_jaire,,"Pasaje Pradillo, 12",40.4413862,-3.6723659,,28002,Madrid,Chamartin,Prosperidad,G80618036,1994-07-02T00:00:00Z,1994-07-02,915191260,asocjaire@yahoo.es,http://www.jaire.es,Juveniles,Municipio,82,,d961e9f236177d65d21100592edb0769,,,
0f840be9b8db4d3fbd5ba2ce59211f55,Association,Asociacion De Vecinos Hispanoamerica,asociacion_de_vecinos_hispanoamerica,,"Calle Potosi, 8",40.4568238,-3.678541,5º A,28016,Madrid,Chamartin,Hispanoamerica,G80723323,1994-03-22T00:00:00Z,1994-03-22,669299360,info@metodosysistemas.com,,Vecinales,Municipio,95,,,,,
2ba596643cbbbc20318224181fa46b28,Association,Asociacion De Madres Y Padres De Alumnos Del Colegio Sagrados Corazones,asociacion_de_madres_y_padres_de_alumnos_del_colegio_sagrados_corazones,,"Calle Pan Y Toros, 45",40.3571601,-3.6940295,,28041,Madrid,Villaverde,Los Angeles,G80020407,1994-02-18T00:00:00Z,1994-02-18,913172526,scorazonesmad@planalfa.es,,De Madres Y Padres Del Alumnado,Barrio,96,,c0f168ce8900fa56e57789e2a2f2c9d0,,,
ef4e3b775c934dada217712d76f3d51f,Association,Asociacion De Madres Y Padres De Alumnos Cultura Y Democracia Colegio De Educacion Infantil Y Primaria Jorge Guillen,asociacion_de_madres_y_padres_de_alumnos_cultura_y_democracia_colegio_de_educacion_infantil_y_primaria_jorge_guillen,,"Avenida El Ferrol, 47",40.47539949999999,-3.707864499999999,,28029,Madrid,Fuencarral-El Pardo,El Pilar,G81146870,1994-02-21T00:00:00Z,1994-02-21,696583895,ampajorgeguillen.2009@gmail.com,,De Madres Y Padres Del Alumnado,Barrio,30,,f4f6dce2f3a0f9dada0c2b5b66452017,,,
a3d68b461bd9d3533ee1dd3ce4628ed4,Association,Asociacion De Padres De Alumnos Colegio Publico La Rioja,asociacion_de_padres_de_alumnos_colegio_publico_la_rioja,,"Calle Leon Felipe, 3",40.3881311,-3.6369945,,28038,Madrid,Puente De Vallecas,Palomeras Sureste,G79270948,1993-12-17T00:00:00Z,1993-12-17,917773912,ampa.larioja@gmail.com,,De Madres Y Padres Del Alumnado,Municipio,121,,f4f6dce2f3a0f9dada0c2b5b66452017,,,
812b4ba287f5ee0bc9d43bbf5bbe87fb,Association,Asociacion De Vecinos La Corrala  Latina-rastro-lavapies,asociacion_de_vecinos_la_corrala__latina_rastro_lavapies,,"Calle Lavapies, 38",40.4099114,-3.702702,,28012,Madrid,Centro,Embajadores,G78997780,1988-04-14T00:00:00Z,1988-04-14,914670509,lacorrala@telefonica.net,,Vecinales,Barrio,510,,735b90b4568125ed6c3f678819b6e058,,,
3cef96dcc9b8035d23f69e30bb19218a,Association,Asociacion De Vecinos De La Colonia Diego Velazquez,asociacion_de_vecinos_de_la_colonia_diego_velazquez,,"Plaza Las Meninas, 2",40.3777652,-3.731243699999999,Bajo C,28025,Madrid,Carabanchel,Abrantes,G28275758,1993-02-11T00:00:00Z,1993-02-11,915609935,avdiegovelazquez@gmail.com,,Vecinales,Barrio,1200,,735b90b4568125ed6c3f678819b6e058,,,
c8c41c4a18675a74e01c8a20e8a0f662,Association,Asociacion De La Juventud De Usera,asociacion_de_la_juventud_de_usera,,"Avenida Rafaela Ybarra, 30",40.3811986,-3.7113676,Bajo,28026,Madrid,Usera,Zofio,G81447393,1994-11-01T00:00:00Z,1994-11-01,914694771,,,Juveniles,Distrito,180,,,,,
b55ec28c52d5f6205684a473a2193564,Association,Asociacion De Madres Y Padres Del Colegio Nuestra Señora De La Paloma,asociacion_de_madres_y_padres_del_colegio_nuestra_señora_de_la_paloma,,"Calle Tabernillas, 2",40.4111997,-3.711323,,28005,Madrid,Centro,Palacio,G80137250,1993-05-11T00:00:00Z,1993-05-11,912219689,ampaloma@gmail.com,http://www.afalapaloma.com,De Madres Y Padres Del Alumnado,Municipio,244,,f4f6dce2f3a0f9dada0c2b5b66452017,,,
8d6dc35e506fc23349dd10ee68dabb64,Association,Asociacion Cultural Zazuar,asociacion_cultural_zazuar,,"Calle Castrillo De Aza, 13",40.384141,-3.6093149,Esc. Centro 4ºd,28031,Madrid,Villa Vallecas,Santa Eugenia,G80539026,1993-02-07T00:00:00Z,1993-02-07,913312652,asoculzazu@gmail.com,,Culturales Y Casas Regionales,Comunidad De Madrid,85,,,,,
3df1d4b96d8976ff5986393e8767f5b2,Association,Asociacion De Jubilados Y Pensionistas Del Mar De Madrid,asociacion_de_jubilados_y_pensionistas_del_mar_de_madrid,,"Calle Zurbano, 73",40.43776099999999,-3.693135,Planta Baja,28010,Madrid,Chamberi,Almagro,G78487303,1993-11-11T00:00:00Z,1993-11-11,915223658,sociocultu@yahoo.es,,De Personas Mayores. Jubiladas Y Pensionistas,Municipio,71,,,,,
b7892fb3c2f009c65f686f6355c895b5,Association,Asociacion De Padres De Alumnos Nuestra Señora De Las Victorias - Afanias,asociacion_de_padres_de_alumnos_nuestra_señora_de_las_victorias___afanias,,"Calle Muller, 25",40.4641233,-3.699155,Bj-pta.1,28039,Madrid,Tetuan,Valdeacederas,G80144595,1993-10-25T00:00:00Z,1993-10-25,670735217,ampansvictorias@gmail.com,,De Madres Y Padres Del Alumnado,Barrio,31,,92977ae4d2ba21425a59afb269c2a14e,,,
4daa3db355ef2b0e64b472968cb70f0d,Association,Asociacion De Padres De Alumnos Del Colegio La Presentacion,asociacion_de_padres_de_alumnos_del_colegio_la_presentacion,,"Calle Lardero, 14",40.41039079999999,-3.6103915,14,28032,Madrid,Vicalvaro,Ambroz,G80306376,1993-06-10T00:00:00Z,1993-06-10,917764323,ampapresentacion@gmail.com,https://www.ampapresentacion.miampa.com,De Madres Y Padres Del Alumnado,Barrio,459,,c0f168ce8900fa56e57789e2a2f2c9d0,,,
d2ed45a52bc0edfa11c2064e9edee8bf,Association,Asociacion De Madres Y Padres De Alumnos Colegio Publico Hernan Cortes,asociacion_de_madres_y_padres_de_alumnos_colegio_publico_hernan_cortes,,"Calle Los Yebenes, 241",40.3908522,-3.7501118,,28047,Madrid,Latina,Aluche,G79620597,1993-10-15T00:00:00Z,1993-10-15,627937353,hernancortes_ampa@hotmail.com,http://ceipbilinghernancortes.blogspot.com.es/,De Madres Y Padres Del Alumnado,Barrio,125,,f4f6dce2f3a0f9dada0c2b5b66452017,,,
0d0871f0806eae32d30983b62252da50,Association,Asociacion De Amas De Casa Nueva Esperanza,asociacion_de_amas_de_casa_nueva_esperanza,,"Calle Calanda, 17",40.4620567,-3.6442797,C/v C/ Utrillas. 14,28043,Madrid,Hortaleza,Canillas,G79178281,1993-09-07T00:00:00Z,1993-09-07,913000306,mamosa51@hotmail.com,,De Mujeres,Barrio,333,,735b90b4568125ed6c3f678819b6e058,,,
d045c59a90d7587d8d671b5f5aec4e7c,Association,Asociacion De Afectados De La Unidad De Actuacion 18/18 Madrid,asociacion_de_afectados_de_la_unidad_de_actuacion_18/18_madrid,,"Calle Boiro, 69",40.4668575,-3.5855781,,28042,Madrid,Barajas,Corralejos,,1993-05-10T00:00:00Z,1993-05-10,911398597,,,Vecinales,Barrio,9,,,,,
cbb6a3b884f4f88b3a8e3d44c636cbd8,Association,Asociacion Nazaret,asociacion_nazaret,,"Calle Cuart De Poblet, 11",40.3985222,-3.7452943,D,28047,Madrid,Latina,Lucero,G79476297,1993-08-09T00:00:00Z,1993-08-09,699102994,anazaret@gmail.com,http://www.nazaretasociacion.org,Otras De Acción Social,Barrio,30,,,,,
ccc0aa1b81bf81e16c676ddb977c5881,Association,Asociacion Cultural Abrantes - Asca,asociacion_cultural_abrantes___asca,,"Avenida Abrantes, 111",40.378774,-3.7305414,,28025,Madrid,Carabanchel,Abrantes,G80525231,1993-07-16T00:00:00Z,1993-07-16,913414265,terevegasanchez@gmail.com,,Culturales Y Casas Regionales,Municipio,70,,,,,
430c3626b879b4005d41b8a46172e0c0,Association,Asociacion De Personas Con Discapacidad Alameda (adala),asociacion_de_personas_con_discapacidad_alameda_(adala),,"Calle Medina De Pomar, 25",40.4518658,-3.5845924,,28042,Madrid,Barajas,Alameda De Osuna,G80572308,1993-06-07T00:00:00Z,1993-06-07,917476251,adala@asociacionadala.com,,De Salud Y Apoyo Mutuo,Municipio,68,,92977ae4d2ba21425a59afb269c2a14e,,,
6d0f846348a856321729a2f36734d1a7,Association,Club De Calva Ciudad Lineal,club_de_calva_ciudad_lineal,,"Calle Carlos Hernandez, 33",40.4309843,-3.647144,1º B,28017,Madrid,Ciudad Lineal,Ventas,G79847653,1993-06-24T00:00:00Z,1993-06-24,914089573,miguel_molero@hotmail.com,,Deportivas,Municipio,19,,,,,
1e056d2b0ebd5c878c550da6ac5d3724,Association,Asociacion De Madres Y Padres De Alumnos Colegio De Educacion Infantil Y Primaria Isaac Peral,asociacion_de_madres_y_padres_de_alumnos_colegio_de_educacion_infantil_y_primaria_isaac_peral,,"Glorieta Rufino Novalvos, 5",40.3863029,-3.7308902,,28025,Madrid,Carabanchel,Puerta Bonita,G83374504,1993-12-07T00:00:00Z,1993-12-07,666283586,,,De Madres Y Padres Del Alumnado,Barrio,100,,f4f6dce2f3a0f9dada0c2b5b66452017,,,
da0d1111d2dc5d489242e60ebcbaf988,Association,Asociacion De Vecinos Colonia Camino Alto San Isidro,asociacion_de_vecinos_colonia_camino_alto_san_isidro,,"Camino Alto De San Isidro, 5",40.3961124,-3.7214217,Local,28019,Madrid,Carabanchel,San Isidro,G80083108,1993-06-23T00:00:00Z,1993-06-23,914717708,avaltosanisidro@gmail.com,http://www.avaltosanisidro.org,Vecinales,Barrio,65,,735b90b4568125ed6c3f678819b6e058,,,
23ce1851341ec1fa9e0c259de10bf87c,Association,Asociacion Familiar San Vicente De Paul,asociacion_familiar_san_vicente_de_paul,,"Calle Portalegre, 112",40.3846072,-3.723956,Bajo Izq,28025,Madrid,Carabanchel,Abrantes,G78542750,1993-06-18T00:00:00Z,1993-06-18,666703786,asociacionsvpaul@live.com,,Otras De Acción Social,Barrio,221,,,,,
7634ea65a4e6d9041cfd3f7de18e334a,Association,Asociacion De Padres De Alumnos Colegio Publico Parque Aluche,asociacion_de_padres_de_alumnos_colegio_publico_parque_aluche,,"Calle Quero, 47",40.3912327,-3.7609748,Portal A,28024,Madrid,Latina,Aluche,G28800613,1993-09-06T00:00:00Z,1993-09-06,658965071,ampa.parquealuche.madrid@gmail.com,http://ampaparquealuche.blogspot.com,De Madres Y Padres Del Alumnado,Municipio,22,,f4f6dce2f3a0f9dada0c2b5b66452017,,,
e205ee2a5de471a70c1fd1b46033a75f,Association,Asociacion De Madres Y Padres De Alumnos Colegio Publico Ramon Perez De Ayala,asociacion_de_madres_y_padres_de_alumnos_colegio_publico_ramon_perez_de_ayala,,"Calle Motilla Del Palancar, 19",40.465929,-3.6330611,,28043,Madrid,Hortaleza,Canillas,G79462305,1993-05-31T00:00:00Z,1993-05-31,913886392,amparpa@outlook.es,http://www.amparamonperezayala.org,De Madres Y Padres Del Alumnado,Municipio,172,,f4f6dce2f3a0f9dada0c2b5b66452017,,,
621461af90cadfdaf0e8d4cc25129f91,Association,Asociacion Cultural Escuela De Adultos Arganzuela,asociacion_cultural_escuela_de_adultos_arganzuela,,"Calle Embajadores, 168",40.39559149999999,-3.6959204,,28045,Madrid,Arganzuela,Chopera,G80505399,1993-02-06T00:00:00Z,1993-02-06,679850240,margaritaboschaznar@gmail.com,,Culturales Y Casas Regionales,Municipio,159,,,,,
c8fbbc86abe8bd6a5eb6a3b4d0411301,Association,Accion Familiar Municipio De Madrid,accion_familiar_municipio_de_madrid,,"Calle Principe De Vergara, 128",40.4427388,-3.6781111,Esc.Dch. 1º Local,28002,Madrid,Chamartin,Ciudad Jardin,G28545820,1993-04-06T00:00:00Z,1993-04-06,914461011,administracion@accionfamiliar.org,http://www.accionfamiliar.org,Familias,Municipio,193,,,,,
f47d0ad31c4c49061b9e505593e3db98,Association,Asociacion De Vecinos Nuevas Palomeras,asociacion_de_vecinos_nuevas_palomeras,,"Avenida Pablo Neruda, 5",40.3926098,-3.6406692,Posterior,28038,Madrid,Puente De Vallecas,Palomeras Sureste,G78887742,1993-05-18T00:00:00Z,1993-05-18,910834467,nuevaspalomeras@hotmail.es,,Vecinales,Barrio,450,,735b90b4568125ed6c3f678819b6e058,,,
b6a1085a27ab7bff7550f8a3bd017df8,Association,Asociacion De Padres De Alumnos Colegio Montpellier,asociacion_de_padres_de_alumnos_colegio_montpellier,,"Calle Virgen Del Val, 7",40.4380033,-3.6542838,,28027,Madrid,Ciudad Lineal,San Pascual,G79340360,1993-02-03T00:00:00Z,1993-02-03,638062670,apa-contabilidad@colegiomontpellier.es,,De Madres Y Padres Del Alumnado,Barrio,1031,,c0f168ce8900fa56e57789e2a2f2c9d0,,,
acf4b89d3d503d8252c9c4ba75ddbf6d,Association,Asociacion De Vecinos Zona Residencial El Bosque,asociacion_de_vecinos_zona_residencial_el_bosque,,"Calle Añastro, 11",40.4680381,-3.6632352,Bajo,28033,Madrid,Hortaleza,Apostol Santiago,G80255979,1993-02-04T00:00:00Z,1993-02-04,913833092,avvelbosque@hotmail.com,http://www.asociaciondevecinoselbosque.es,Vecinales,Barrio,390,,735b90b4568125ed6c3f678819b6e058,,,
20aee3a5f4643755a79ee5f6a73050ac,Association,Asociacion De Padres De Alumnos Colegio Publico Amadeo Vives,asociacion_de_padres_de_alumnos_colegio_publico_amadeo_vives,,"Calle Los Yebenes, 6",40.3971466,-3.7556386,Y 8,28047,Madrid,Latina,Aluche,G28673861,1993-03-22T00:00:00Z,1993-03-22,627824269,amadeovivesapa@gmail.com,http://amadeovivesapa.org,De Madres Y Padres Del Alumnado,Municipio,112,,f4f6dce2f3a0f9dada0c2b5b66452017,,,
4b0250793549726d5c1ea3906726ebfe,Association,Asociacion De Vecinos De Palomeras Bajas,asociacion_de_vecinos_de_palomeras_bajas,,"Travesia Felipe De Diego, 31",40.3786452,-3.6600286,Posterior,28018,Madrid,Puente De Vallecas,Palomeras Bajas,G79732095,1993-10-03T00:00:00Z,1993-10-03,915071658,avpalomerasbajas@gmail.com,http://avpalomeras.web,Vecinales,Barrio,423,,735b90b4568125ed6c3f678819b6e058,,,
c2aee86157b4a40b78132f1e71a9e6f1,Association,Asociacion Cultural Puntos Suspensivos,asociacion_cultural_puntos_suspensivos,,"Calle Jose De Cadalso, 54",40.3799274,-3.7712879,Esc. 1. 3º A,28044,Madrid,Latina,Las Aguilas,G80489347,1993-01-03T00:00:00Z,1993-01-03,917060934,elcielotieneplayas@yahoo.es,,Culturales Y Casas Regionales,Municipio,18,,,,,
024d7f84fff11dd7e8d9c510137a2381,Association,Asociacion De Padres De Alumnos Del Instituto De Educacion Secundaria Isabel La Catolica,asociacion_de_padres_de_alumnos_del_instituto_de_educacion_secundaria_isabel_la_catolica,,"Calle Alfonso XII, 3",40.4075034,-3.6853733,Y 5,28014,Madrid,Retiro,Jeronimos,G28894665,1993-03-02T00:00:00Z,1993-03-02,915277875,ampa.isabella@gmail.com,http://www.ampaiesisabellacatolica.blogspot.com.es,De Madres Y Padres Del Alumnado,Barrio,280,,f4f6dce2f3a0f9dada0c2b5b66452017,,,
0a113ef6b61820daa5611c870ed8d5ee,Association,Asociacion De Madres Y Padres De Alumnos Colegio Publico Luis De Gongora,asociacion_de_madres_y_padres_de_alumnos_colegio_publico_luis_de_gongora,,"Calle Chantada, 34",40.4735153,-3.7132872,,28029,Madrid,Fuencarral-El Pardo,El Pilar,G28876894,1993-01-27T00:00:00Z,1993-01-27,917301660,luisdegongora.ampa@gmail.com,,De Madres Y Padres Del Alumnado,Municipio,56,,f4f6dce2f3a0f9dada0c2b5b66452017,,,
7ce3284b743aefde80ffd9aec500e085,Association,Asociacion Cultural Y Deportiva Villaverde - Ascudevi,asociacion_cultural_y_deportiva_villaverde___ascudevi,,"Paseo Talleres, 1",40.34871529999999,-3.700349,(cd.Boeticher),28021,Madrid,Villaverde,Los Angeles,G80273519,1993-09-02T00:00:00Z,1993-09-02,917951792,funde_vi@hotmail.com,http://srvillaverdeboetticher.com,Culturales Y Casas Regionales,Municipio,4,,,,,
704afe073992cbe4813cae2f7715336f,Association,Asociacion De Padres De Alumnos Colegio San Fermin,asociacion_de_padres_de_alumnos_colegio_san_fermin,,"Calle Estafeta, 17",40.3726993,-3.6921699,,28041,Madrid,Usera,San Fermin,G79882437,1993-02-02T00:00:00Z,1993-02-02,917920535,,,De Madres Y Padres Del Alumnado,Municipio,30,,f4f6dce2f3a0f9dada0c2b5b66452017,,,
0efe32849d230d7f53049ddc4a4b0c60,Association,Asociacion De Padres De Alumnos Colegio Publico Republica Del Paraguay,asociacion_de_padres_de_alumnos_colegio_publico_republica_del_paraguay,,"Calle Manresa, 60",40.4922274,-3.6944177,Bis,28034,Madrid,Fuencarral-El Pardo,Valverde,G85929917,1993-02-26T00:00:00Z,1993-02-26,917343881,paraguayampa@gmail.com,http://amparepublicadelparaguay.org.fapa,De Madres Y Padres Del Alumnado,Barrio,10,,f4f6dce2f3a0f9dada0c2b5b66452017,,,
6c3cf77d52820cd0fe646d38bc2145ca,Association,Asociacion De Padres De Alumnos Colegio Publico Jovellanos,asociacion_de_padres_de_alumnos_colegio_publico_jovellanos,,"Calle Monroy, 34",40.3791034,-3.783285,Bis,28044,Madrid,Latina,Las Aguilas,G79593513,1993-01-03T00:00:00Z,1993-01-03,915091944,apajovellanos@hotmail.com,,De Madres Y Padres Del Alumnado,Municipio,116,,f4f6dce2f3a0f9dada0c2b5b66452017,,,
1f50893f80d6830d62765ffad7721742,Association,Asociacion De Comerciantes De Aravaca,asociacion_de_comerciantes_de_aravaca,,"Calle Arroyo De La Elipa, 12",40.4319447,-3.6434516,Local 2,28017,Madrid,Ciudad Lineal,Pueblo Nuevo,G80182330,1993-02-22T00:00:00Z,1993-02-22,913571455,andres@aygaravaca.e.telefonica.net,http://www.comercioaravaca.com,Comerciantes.Empresarios.Profesionales Y Autónomos,Comunidad De Madrid,40,,a1d7311f2a312426d710e1c617fcbc8c,,,
4b0a59ddf11c58e7446c9df0da541a84,Association,Asociacion De Padres De Alumnos Centro Educacion Especial Francisco Del Pozo,asociacion_de_padres_de_alumnos_centro_educacion_especial_francisco_del_pozo,,"Callejon Domine, 6",40.4942709,-3.6867376,,28034,Madrid,Fuencarral-El Pardo,Valverde,G79689683,1993-01-28T00:00:00Z,1993-01-28,667022222,ampafcodelpozo@gmail.com,,De Madres Y Padres Del Alumnado,Municipio,7,,,,,
51ef186e18dc00c2d31982567235c559,Association,Asociacion De Padres De Alumnos De Las Escuelas Aguirre,asociacion_de_padres_de_alumnos_de_las_escuelas_aguirre,,"Calle Pio Baroja, 4",40.414589,-3.674669,,28009,Madrid,Retiro,Niño Jesus,G78803913,1993-01-25T00:00:00Z,1993-01-25,914092510,ampaescuelasaguirre@gmail.com,http://www.escuelasaguirre.com,De Madres Y Padres Del Alumnado,Barrio,209,,f4f6dce2f3a0f9dada0c2b5b66452017,,,
98d6f58ab0dafbb86b083a001561bb34,Association,Asociacion Nuestra Señora De Sonsoles,asociacion_nuestra_señora_de_sonsoles,,"Calle Gomez De Avellaneda, 2",40.4325866,-3.6448949,Bajo Dcha,28017,Madrid,Ciudad Lineal,Pueblo Nuevo,G80339500,1992-12-30T00:00:00Z,1992-12-30,913675693,eusebio_gonzalez@yahoo.es,,De Personas Mayores. Jubiladas Y Pensionistas,Barrio,15,,,,,
43feaeeecd7b2fe2ae2e26d917b6477d,Association,Asociacion De Madres Y Padres De Alumnos Colegio Santo Angel De La Guarda,asociacion_de_madres_y_padres_de_alumnos_colegio_santo_angel_de_la_guarda,,"Calle Villuercas, 4",40.3741073,-3.6672555,,28053,Madrid,Puente De Vallecas,Entrevias,G28832947,1993-08-01T00:00:00Z,1993-08-01,627933952,ampasantoangeldelaguarda@hotmail.com,,De Madres Y Padres Del Alumnado,Barrio,49,,c0f168ce8900fa56e57789e2a2f2c9d0,,,
aeb3135b436aa55373822c010763dd54,Association,Asociacion De Padres De Alumnos Del Colegio Publico Nuestra Señora De La Almudena,asociacion_de_padres_de_alumnos_del_colegio_publico_nuestra_señora_de_la_almudena,,"Calle Lope De Rueda, 48",40.4189662,-3.6780513,,28009,Madrid,Retiro,Ibiza,G28695484,1992-11-24T00:00:00Z,1992-11-24,645393787,afacpalmudena@gmail.com,,De Madres Y Padres Del Alumnado,Barrio,53,,f4f6dce2f3a0f9dada0c2b5b66452017,,,
22fb0cee7e1f3bde58293de743871417,Association,Ampa Ceip Ciudad De Roma,ampa_ceip_ciudad_de_roma,,"Calle Juan Esplandiu, 2",40.41527139999999,-3.6654135,,28007,Madrid,Retiro,Estrella,G80154297,1992-12-17T00:00:00Z,1992-12-17,,hola@ampacroma.org,http://www.ampacroma.org,De Madres Y Padres Del Alumnado,Municipio,320,,f4f6dce2f3a0f9dada0c2b5b66452017,,,
c7e1249ffc03eb9ded908c236bd1996d,Association,Asociacion De Vecinos Union De Carcavas-san Antonio,asociacion_de_vecinos_union_de_carcavas_san_antonio,,"Plaza Union Caravacas-San Antonio, S/N",40.4090363,-3.7025651,,28050,Madrid,Hortaleza,Valdefuentes,G78963956,1988-03-22T00:00:00Z,1988-03-22,648100453,secretaria@asociacioncarcavas.com,http://asociacioncarcavas.com,Vecinales,Barrio,1238,,735b90b4568125ed6c3f678819b6e058,,,
ede7e2b6d13a41ddf9f4bdef84fdc737,Association,Asociacion De Padres De Alumnos Colegio Valdeluz,asociacion_de_padres_de_alumnos_colegio_valdeluz,,"Calle Fermin Caballero, 53",40.48303,-3.7076177,,28034,Madrid,Fuencarral-El Pardo,El Pilar,G78646866,1992-11-24T00:00:00Z,1992-11-24,913780099,apa-vocalias@valdeluz.eu,http://www.colegio-valdelez.com,De Madres Y Padres Del Alumnado,Barrio,1079,,c0f168ce8900fa56e57789e2a2f2c9d0,,,
19b650660b253761af189682e03501dd,Association,Asociacion De Padres De Alumnos Colegio Publico Leopoldo Alas,asociacion_de_padres_de_alumnos_colegio_publico_leopoldo_alas,,"Calle Pedrezuela, 18",40.42810679999999,-3.6536304,,28017,Madrid,Ciudad Lineal,Ventas,G80149693,1992-10-28T00:00:00Z,1992-10-28,680363062,ampacpla@gmail.com,,De Madres Y Padres Del Alumnado,Municipio,25,,f4f6dce2f3a0f9dada0c2b5b66452017,,,
f9a40a4780f5e1306c46f1c8daecee3b,Association,Asociacion Familiar Del Alto De Extremadura,asociacion_familiar_del_alto_de_extremadura,,"Avenida Apostoles, 22",40.4059147,-3.739879,Bajo C,28011,Madrid,Latina,Puerta Del Angel,G79877346,1992-10-16T00:00:00Z,1992-10-16,919200557,vecinosaltoextremadura@hotmail.com,,Vecinales,Barrio,42,,735b90b4568125ed6c3f678819b6e058,,,
847cc55b7032108eee6dd897f3bca8a5,Association,Centro Juvenil Atocha,centro_juvenil_atocha,,"Ronda Atocha, 27",40.4062884,-3.6974217,,28012,Madrid,Arganzuela,Palos De Moguer,G28783793,1992-02-11T00:00:00Z,1992-02-11,915062100,cjatocha@valdoco.org,http://www.cjatocha.es,Juveniles,Municipio,398,,2cad8fa47bbef282badbb8de5374b894,,,
f7e9050c92a851b0016442ab604b0488,Association,Asociacion Cultural Y Deportiva Tajamar,asociacion_cultural_y_deportiva_tajamar,,"Calle Pio Felipe, 12",40.3964796,-3.6509969,,28038,Madrid,Puente De Vallecas,Numancia,G80463680,1992-10-22T00:00:00Z,1992-10-22,914772500,lelejalde@tajamar.es,,Culturales Y Casas Regionales,Municipio,966,,,,,
aff1621254f7c1be92f64550478c56e6,Association,Asociacion De Vecinos Plaza Del Hidrogeno,asociacion_de_vecinos_plaza_del_hidrogeno,,"Calle San Francisco El Grande, 19",40.3845006,-3.7094612,,28026,Madrid,Usera,Pradolongo,G79768743,1992-09-23T00:00:00Z,1992-09-23,,,,Vecinales,Comunidad De Madrid,640,,735b90b4568125ed6c3f678819b6e058,,,
3ef815416f775098fe977004015c6193,Association,Asociacion De Vecinos De Aluche,asociacion_de_vecinos_de_aluche,,"Calle Quero, 69",40.3900525,-3.7607049,Bajo,28024,Madrid,Latina,Aluche,G78610946,1988-03-17T00:00:00Z,1988-03-17,695951784,avaaluche@gmail.com,,Vecinales,Barrio,847,,735b90b4568125ed6c3f678819b6e058,,,
fe8c15fed5f808006ce95eddb7366e35,Association,Asociacion Cultural Candela,asociacion_cultural_candela,,"Calle Caceres, 48",40.3990275,-3.6996536,4º C Escalera Izq.,28045,Madrid,Arganzuela,Chopera,G79364105,1992-08-18T00:00:00Z,1992-08-18,666979099,candela@nodo50.org,http://www.asociacioncandela.org,Culturales Y Casas Regionales,Comunidad De Madrid,20,,,,,
f4552671f8909587cf485ea990207f3b,Association,Asociacion De Vecinos La Nueva Elipa,asociacion_de_vecinos_la_nueva_elipa,,"Calle Santa Felicidad, 29",40.4247246,-3.6499475,,28017,Madrid,Ciudad Lineal,Ventas,G78168663,1992-07-15T00:00:00Z,1992-07-15,912333048,nuevaelipa@hotmail.com,,Vecinales,Barrio,600,,735b90b4568125ed6c3f678819b6e058,,,
b86e8d03fe992d1b0e19656875ee557c,Association,Asociacion De Vecinos Cruz Del Rayo,asociacion_de_vecinos_cruz_del_rayo,,"Calle Gallarza, 3",40.44532090000001,-3.681122,,28002,Madrid,Chamartin,El Viso,G86216033,1992-07-31T00:00:00Z,1992-07-31,915612404,,,Vecinales,Barrio,40,,,,,
02a32ad2669e6fe298e607fe7cc0e1a0,Association,Asociacion De Vecinos Amistad Colonia San Luciano,asociacion_de_vecinos_amistad_colonia_san_luciano,,"Calle San Luciano, 11",40.363624,-3.6979451,(bodega),28041,Madrid,Villaverde,Los Angeles,G80131329,1992-06-30T00:00:00Z,1992-06-30,913171497,juliantesolarriba@gmail.com,,Vecinales,Barrio,100,,735b90b4568125ed6c3f678819b6e058,,,
fa83a11a198d5a7f0bf77a1987bcd006,Association,Asociacion De Vecinos La Merced Del Barrio De Quintana,asociacion_de_vecinos_la_merced_del_barrio_de_quintana,,"Calle Elfo, 132",40.4364701,-3.6441197,,28027,Madrid,Ciudad Lineal,Quintana,G78013646,1992-06-25T00:00:00Z,1992-06-25,914077714,quintana.av@gmail.com,,Vecinales,Barrio,130,,735b90b4568125ed6c3f678819b6e058,,,
f9028faec74be6ec9b852b0a542e2f39,Association,Asociacion Vecinal Cornisa De La Promocion Publica Cornisa De Orcasitas,asociacion_vecinal_cornisa_de_la_promocion_publica_cornisa_de_orcasitas,,"Calle Cristo De Lepanto, 9",40.3806822,-3.7009432,,28026,Madrid,Usera,Almendrales,G78956158,1992-09-07T00:00:00Z,1992-09-07,699221812,cornisa@cornisa.org,http://www.cornisa.org,Vecinales,Estatal,300,,735b90b4568125ed6c3f678819b6e058,,,
b0b183c207f46f0cca7dc63b2604f5cc,Association,Asociacion De Promocion Comunitaria Pan Bendito,asociacion_de_promocion_comunitaria_pan_bendito,,"Calle Carcastillo, 33",40.377197,-3.7387201,Bajo,28025,Madrid,Carabanchel,Puerta Bonita,G28964674,1992-06-19T00:00:00Z,1992-06-19,914654238,panben@panben.org,http://www.panben.org,Otras De Acción Social,Comunidad De Madrid,5,,,,,
301ad0e3bd5cb1627a2044908a42fdc2,Association,Asociacion Cultural Rosario Batan,asociacion_cultural_rosario_batan,,"Paseo Extremadura, 248",40.4054627,-3.7514984,Bajo,28011,Madrid,Latina,Lucero,G80458029,1992-05-27T00:00:00Z,1992-05-27,914647630,,,Culturales Y Casas Regionales,Barrio,137,,,,,
e0ec453e28e061cc58ac43f91dc2f3f0,Association,Asociacion Jubilados  Y Pensionistas Fuente De La Teja,asociacion_jubilados__y_pensionistas_fuente_de_la_teja,,"Calle Doctor Casal, 9",40.42693000000001,-3.7335917,Bajo,28008,Madrid,Moncloa-Aravaca,Casa De Campo,G28700896,1992-06-15T00:00:00Z,1992-06-15,915471757,,,De Personas Mayores. Jubiladas Y Pensionistas,Comunidad De Madrid,217,,,,,
8e82ab7243b7c66d768f1b8ce1c967eb,Association,Asociacion Scout Alamos-260,asociacion_scout_alamos_260,,"Calle Fuente del Pavo, S/N",40.4598533,-3.5836221,,28042,Madrid,Barajas,Alameda De Osuna,G79780185,1992-09-06T00:00:00Z,1992-09-06,600803825,alamos260@gmail.com,,Juveniles,Comunidad De Madrid,94,,faafda66202d234463057972460c04f5,d254c8a084d4545bd80577481aa03076,,
d554f7bb7be44a7267068a7df88ddd20,Association,Asociacion De Sordos De Madrid,asociacion_de_sordos_de_madrid,,"Paseo Santa Maria De La Cabeza, 37",40.4034829,-3.696721,,28045,Madrid,Arganzuela,Palos De Moguer,G28449262,1992-03-04T00:00:00Z,1992-03-04,914680265,asormadrid@asormadrid.org,http://www.asormadrid.org,De Personas Con Discapacidad,Municipio,514,,,,,
afda332245e2af431fb7b672a68b659d,Association,Asociacion De Mujeres Nosotras Mismas-chamberi,asociacion_de_mujeres_nosotras_mismas_chamberi,,"Calle San Bernardo, 120",40.4319497,-3.7047441,1º Izq. C,28015,Madrid,Chamberi,Trafalgar,G80351141,1992-04-24T00:00:00Z,1992-04-24,914424991,contacta@nosotrasmismas.org,http://www.nosotrasmismas.org,De Mujeres,Municipio,350,,892c3b1c6dccd52936e27cbd0ff683d6,,,
f0adc8838f4bdedde4ec2cfad0515589,Association,Asociacion De Padres De Alumnos Del Colegio Publico Manuel De Falla,asociacion_de_padres_de_alumnos_del_colegio_publico_manuel_de_falla,,"Avenida Real De Pinto, 27",40.3463758,-3.7058535,,28021,Madrid,Villaverde,Villaverde Alto C.H.,G78071495,1992-03-27T00:00:00Z,1992-03-27,917971448,ampamfalla@hotmail.com,,De Madres Y Padres Del Alumnado,Municipio,44,,f4f6dce2f3a0f9dada0c2b5b66452017,,,
96b9bff013acedfb1d140579e2fbeb63,Association,Asociacion Juvenil Deportivo Cultural La Mancha,asociacion_juvenil_deportivo_cultural_la_mancha,,"Plaza Campo de Criptana, 3",40.3821489,-3.6988522,,28026,Madrid,Usera,Almendrales,G80287808,1992-09-04T00:00:00Z,1992-09-04,687742365,jose.antonio.camunas@gmail.com,,Deportivas,Municipio,2300,,,,,
81e74d678581a3bb7a720b019f4f1a93,Association,Asociacion Juvenil Pan Bendito,asociacion_juvenil_pan_bendito,,"Calle Carcastillo, 29",40.3773364,-3.7377521,Bajo,28025,Madrid,Carabanchel,Puerta Bonita,G28708279,1992-02-04T00:00:00Z,1992-02-04,915255602,panben@panben.org,http://www.panben.org,Juveniles,Barrio,5,,,,,
43ec517d68b6edd3015b3edc9a11367b,Association,Asociacion De Vecinos De La Chimenea,asociacion_de_vecinos_de_la_chimenea,http://wikidata.org/entity/Q24349105,"Calle Hermenegildo Bielsa, S/N",40.3892636,-3.7017099,S/n (soportales),28026,Madrid,Usera,Moscardo,G28702801,1988-02-23T00:00:00Z,1988-02-23,914756475,informacionavlachimenea@gmail.com,http://avlachimenea.com,Otras De Acción Social,Barrio,450,,735b90b4568125ed6c3f678819b6e058,,,
32b30a250abd6331e03a2a1f16466346,Association,Asociacion De Madres Y Padres De Alumnos Del Colegio Publico Menendez Pelayo,asociacion_de_madres_y_padres_de_alumnos_del_colegio_publico_menendez_pelayo,,"Calle Mendez Alvaro, 16",40.405283,-3.6910977,,28045,Madrid,Arganzuela,Palos De Moguer,G79305280,1992-02-25T00:00:00Z,1992-02-25,699967033,ampaceipmenendezpelayo@gmail.com,http://apamenendezpelayo.wordpress.com,De Madres Y Padres Del Alumnado,Municipio,191,,f4f6dce2f3a0f9dada0c2b5b66452017,,,
a8ecbabae151abacba7dbde04f761c37,Association,Asociacion De Vecinos Barriada De Virgen Del Puerto,asociacion_de_vecinos_barriada_de_virgen_del_puerto,,"Calle Juan Duque, 32",40.4105717,-3.7196063,Bajo B,28005,Madrid,Arganzuela,Imperial,G80162746,1992-03-27T00:00:00Z,1992-03-27,913645404,,,Vecinales,Municipio,354,,076023edc9187cf1ac1f1163470e479a,,,
846c260d715e5b854ffad5f70a516c88,Association,Asociacion De Padres De Alumnos Colegio El Carmelo Teresiano,asociacion_de_padres_de_alumnos_colegio_el_carmelo_teresiano,,"Calle Nuñomoral, 1",40.37693400000001,-3.7793066,,28044,Madrid,Latina,Las Aguilas,G28911154,1992-10-03T00:00:00Z,1992-10-03,917052427,ampa@carmeloteresiano.com,http://www.apacarmeloteresiano.esy.es,De Madres Y Padres Del Alumnado,Barrio,679,,c0f168ce8900fa56e57789e2a2f2c9d0,,,
1aa48fc4880bb0c9b8a3bf979d3b917e,Association,Asociacion De Vecinos Poligono H De San Blas,asociacion_de_vecinos_poligono_h_de_san_blas,,"Plaza Ignacio Ugalde, 5",40.4303035,-3.6139053,,28037,Madrid,San Blas-Canillejas,Hellin,G79736583,1992-03-16T00:00:00Z,1992-03-16,913205199,avpoligonohsanblas@yahoo.es,http://www.poligonohsanblas.com,Vecinales,Barrio,616,,735b90b4568125ed6c3f678819b6e058,,,
1141938ba2c2b13f5505d7c424ebae5f,Association,Asociacion San Antonio Maria Claret Tercera Edad,asociacion_san_antonio_maria_claret_tercera_edad,,"Calle Corazon De Maria, 1",40.4403979,-3.672113,,28002,Madrid,Chamartin,Prosperidad,G78300639,1992-02-18T00:00:00Z,1992-02-18,914163540,,,De Personas Mayores. Jubiladas Y Pensionistas,Barrio,50,,d254c8a084d4545bd80577481aa03076,,,
7a53928fa4dd31e82c6ef826f341daec,Association,Asociacion De Madres Y Padres De Alumnos Del Colegio Publico Lorenzo Luzuriaga,asociacion_de_madres_y_padres_de_alumnos_del_colegio_publico_lorenzo_luzuriaga,,"Calle Valencia de Don Juan, 19",40.4852429,-3.7054769,,28034,Madrid,Fuencarral-El Pardo,La Paz,G79858783,1992-02-14T00:00:00Z,1992-02-14,647905116,contacto@ampalorenzoluzuriaga.com,http://ampalorenzoluzuriaga.com,De Madres Y Padres Del Alumnado,Municipio,30,,f4f6dce2f3a0f9dada0c2b5b66452017,,,
f033ab37c30201f73f142449d037028d,Association,Asociacion De Vecinos Antonio Machado,asociacion_de_vecinos_antonio_machado,,"Calle Belianes, 18",40.4700426,-3.6457945,Local,28043,Madrid,Hortaleza,Pinar Del Rey,G78952033,1988-04-15T00:00:00Z,1988-04-15,660980385,aa.vv.pinardelrey@gmail.com,,Vecinales,Barrio,184,,735b90b4568125ed6c3f678819b6e058,,,
c9f0f895fb98ab9159f51fd0297e236d,Association,Asociacion Cultural Nuestra Señora De Fatima,asociacion_cultural_nuestra_señora_de_fatima,,"Calle Codorniz, 4",40.3812489,-3.7491632,Local,28047,Madrid,Carabanchel,Vista Alegre,G78416393,1987-12-30T00:00:00Z,1987-12-30,628267020,acultufatima@gmail.com,,Culturales Y Casas Regionales,Barrio,2200,,,,,
28267ab848bcf807b2ed53c3a8f8fc8a,Association,Asociacion Deportiva Estrecho,asociacion_deportiva_estrecho,,"Calle Francos Rodriguez, 5",40.4551003,-3.7040498,,28039,Madrid,Tetuan,Bellas Vistas,G79481818,1992-01-22T00:00:00Z,1992-01-22,914500000,,,Deportivas,Municipio,204,,,,,
9e3cfc48eccf81a0d57663e129aef3cb,Association,"Asociacion Vecinal ""solidaridad"" De Cuatro Caminos-tetuan","asociacion_vecinal_""solidaridad""_de_cuatro_caminos_tetuan",,"Calle Infanta Mercedes, 86",40.4621799,-3.69455,1º C,28020,Madrid,Tetuan,Castillejos,G79695938,1992-02-24T00:00:00Z,1992-02-24,915795760,vecinostetuan@gmail.com,http://avccaminostetuan.blogspot.com.es/,Vecinales,Barrio,167,,735b90b4568125ed6c3f678819b6e058,,,
35cf8659cfcb13224cbd47863a34fc58,Association,Asociacion Cristianos Jovenes De Usera - Cju,asociacion_cristianos_jovenes_de_usera___cju,,"Calle San Filiberto, 9",40.3856205,-3.7130266,,28026,Madrid,Usera,Moscardo,G79143962,1993-03-24T00:00:00Z,1993-03-24,914696877,virgendelafuensanta@gmail.com,,Juveniles,Barrio,65,,,,,
7c590f01490190db0ed02a5070e20f01,Association,Asociacion De Madres Y Padres  De Alumnos Del Colegio De Educacion Infantil Y Primaria  Ramon Gomez De La Serna,asociacion_de_madres_y_padres__de_alumnos_del_colegio_de_educacion_infantil_y_primaria__ramon_gomez_de_la_serna,,"Calle Godella, 170",40.3397529,-3.689508,,28021,Madrid,Villaverde,San Cristobal,G28882025,1992-02-18T00:00:00Z,1992-02-18,915054053,ampagomezdelaserna@gmail.com,,De Madres Y Padres Del Alumnado,Municipio,60,,f4f6dce2f3a0f9dada0c2b5b66452017,,,
df7f28ac89ca37bf1abd2f6c184fe1cf,Association,Asociacion De Vecinos Calle Chile-chamartin,asociacion_de_vecinos_calle_chile_chamartin,,"Calle Chile, 18",40.4566091,-3.6758436,1º A,28016,Madrid,Chamartin,Hispanoamerica,G80178270,1992-01-31T00:00:00Z,1992-01-31,603128100,r.menarguez@hotmail.es,,Vecinales,Barrio,20,,,,,
68053af2923e00204c3ca7c6a3150cf7,Association,Asociacion Mujeres Nuevas Amistades,asociacion_mujeres_nuevas_amistades,,"Calle Sierra De Gredos, 26",40.379283,-3.6266683,Parroquia De San Timoteo,28031,Madrid,Villa Vallecas,Casco H.Vallecas,G80181969,1992-08-01T00:00:00Z,1992-08-01,913039983,ac-nuevas-amistades@hotmail.com,,De Mujeres,Barrio,155,,,,,
3621f1454cacf995530ea53652ddf8fb,Association,Asociacion De Padres De Alumnos Colegio Jesus Maria,asociacion_de_padres_de_alumnos_colegio_jesus_maria,,"Calle De Los Hermanos Garcia Noblejas, 68",40.4292786,-3.633476999999999,,28037,Madrid,Ciudad Lineal,Pueblo Nuevo,G78777224,1991-12-18T00:00:00Z,1991-12-18,635297384,apajesusmaria@gmail.com,http://www.jesusmariagarcianoblejas.org/index.php/es/apa,De Madres Y Padres Del Alumnado,Municipio,400,,c0f168ce8900fa56e57789e2a2f2c9d0,,,
61b4a64be663682e8cb037d9719ad8cd,Association,Club Nuestra Señora De Atocha,club_nuestra_señora_de_atocha,,"Avenida Ciudad De Barcelona, 1",40.405108,-3.6827508,,28007,Madrid,Retiro,Pacifico,G80345176,1992-01-31T00:00:00Z,1992-01-31,914331057,,,De Personas Mayores. Jubiladas Y Pensionistas,Barrio,215,,,,,
4b04a686b0ad13dce35fa99fa4161c65,Association,Asociacion Cultural Amigos De La Zarzuela De Madrid,asociacion_cultural_amigos_de_la_zarzuela_de_madrid,,"Calle Tellez, 15",40.4029834,-3.6805079,Ptal. 3. Esc. 6. 6º D,28007,Madrid,Retiro,Pacifico,G78903663,1992-01-30T00:00:00Z,1992-01-30,914332074,mjfiandor@hotmail.com,,Culturales Y Casas Regionales,Municipio,31,,,,,
fc8001f834f6a5f0561080d134d53d29,Association,Asociacion Ciudad Joven,asociacion_ciudad_joven,,"Calle Avelino Fernandez De La Poza, 55",40.38288910000001,-3.673871399999999,,28053,Madrid,Puente De Vallecas,Entrevias,G78899903,1992-01-22T00:00:00Z,1992-01-22,915076281,gestion@ciudadjoven.org,http://www.ciudadjoven.org,Otras De Acción Social,Comunidad De Madrid,65,,,,,
67d96d458abdef21792e6d8e590244e7,Association,Asociacion Cultural Coral In Terra Pax,asociacion_cultural_coral_in_terra_pax,,"Calle Maestra Justa Freire, 72",40.3738155,-3.7656812,(parroquia Ntra. Sra. Del Aire),28044,Madrid,Latina,Las Aguilas,G79992350,1992-01-31T00:00:00Z,1992-01-31,914615113,coralinterrapax@gmail.com,,Culturales Y Casas Regionales,Comunidad De Madrid,22,,,,,
28dd2c7955ce926456240b2ff0100bde,Association,Asociacion De Vecinos Virgen Del Cortijo,asociacion_de_vecinos_virgen_del_cortijo,,"Calle Oña, 21",40.488776,-3.6669462,Portal 10,28050,Madrid,Hortaleza,Valdefuentes,G78947686,1988-04-13T00:00:00Z,1988-04-13,917661867,asociacion@virgencortijo.org,http://www.virgencortijo.org,Vecinales,Barrio,505,,735b90b4568125ed6c3f678819b6e058,,,
288cc0ff022877bd3df94bc9360b9c5d,Association,Asociacion De Mujeres Nosotras Mismas - Puente De Vallecas,asociacion_de_mujeres_nosotras_mismas___puente_de_vallecas,,"Calle Sierra Carbonera, 32",40.3919486,-3.6644286,,28053,Madrid,Puente De Vallecas,San Diego,G79425039,1991-11-28T00:00:00Z,1991-11-28,914778662,nmismasvk@hotmail.com,http://www.mujeres.e.telefonica.net,De Mujeres,Municipio,80,,,,,
f2201f5191c4e92cc5af043eebfd0946,Association,Asociacion De Vecinos De Las Victorias,asociacion_de_vecinos_de_las_victorias,,"Calle Azucenas, 34",40.4640902,-3.6999668,,28039,Madrid,Tetuan,Valdeacederas,G80121957,1991-11-18T00:00:00Z,1991-11-18,913867157,,,Vecinales,Distrito,25,,,,,
959a557f5f6beb411fd954f3f34b21c3,Association,Centro Deportivo Cultural Vallecas,centro_deportivo_cultural_vallecas,,"Calle Mohernando, 1",40.3962262,-3.6489377,,28038,Madrid,Puente De Vallecas,Portazgo,G79242939,1991-05-11T00:00:00Z,1991-05-11,625138661,cdvfernando@yahoo.es,http://www.vallecascdv.com,Deportivas,Distrito,481,,,,,
d840cc5d906c3e9c84374c8919d2074e,Association,Asociacion Juvenil La Pandilla,asociacion_juvenil_la_pandilla,,"Calle Puebla De Sanabria, 18",40.3508763,-3.7084599,Bajo,28021,Madrid,Villaverde,Villaverde Alto C.H.,G28772226,1991-10-31T00:00:00Z,1991-10-31,917984882,sanfelixmadrid@gmail.com,http://wwww.parroquiasanfelix.es,Juveniles,Distrito,120,,,,,
470e7a4f017a5476afb7eeb3f8b96f9b,Association,Asociacion Cultural Peña Rodense,asociacion_cultural_peña_rodense,,"Calle Paz, 4",40.4154651,-3.7042353,1º Dcha,28012,Madrid,Centro,Sol,G79264701,1991-10-16T00:00:00Z,1991-10-16,647555161,asoperodense@hotmail.com,,Culturales Y Casas Regionales,Municipio,70,,f7cade80b7cc92b991cf4d2806d6bd78,,,
2823f4797102ce1a1aec05359cc16dd9,Association,Asociacion Desarrollo Educacion Permanente Adultos Tetuan - Adepa,asociacion_desarrollo_educacion_permanente_adultos_tetuan___adepa,,"Calle Pinos Alta, 63",40.4680374,-3.6982573,,28029,Madrid,Tetuan,Valdeacederas,G78559572,1991-03-10T00:00:00Z,1991-03-10,917333837,agballes6666@gmail.com,,Otras De Acción Social,Comunidad De Madrid,90,,,,,
e49b8b4053df9505e1f48c3a701c0682,Association,Asociacion Ayuda A La Poblacion Necesitada - Apcionn,asociacion_ayuda_a_la_poblacion_necesitada___apcionn,,"Avenida Nuestra Señora De Fatima, 28",40.3850451,-3.7464375,Loc. Post.,28047,Madrid,Carabanchel,Vista Alegre,G79926036,1991-11-06T00:00:00Z,1991-11-06,915258082,,,Otras De Acción Social,Municipio,38,,,,,
185e65bc40581880c4f2c82958de8cfe,Association,Asociacion De Padres De Alumnos Del Instituto De Educacion Secundaria  Alameda De Osuna,asociacion_de_padres_de_alumnos_del_instituto_de_educacion_secundaria__alameda_de_osuna,,"Calle Antonio Sancha, S/N",40.4590186,-3.5902639,,28042,Madrid,Barajas,Alameda De Osuna,G28844843,1991-04-09T00:00:00Z,1991-04-09,917472122,info@apaiesalamedadeosuna.org,http://www.apaiesalamedadeosuna.org,De Madres Y Padres Del Alumnado,Municipio,300,,f4f6dce2f3a0f9dada0c2b5b66452017,,,
0537fb40a68c18da59a35c2bfe1ca554,Association,Asociacion De Madres Y Padres De Alumnos Del Colegio Publico Isabel La Catolica,asociacion_de_madres_y_padres_de_alumnos_del_colegio_publico_isabel_la_catolica,,"Calle Barcelo, 2",40.4263924,-3.6995308,,28004,Madrid,Centro,Justicia,G28886687,1991-07-15T00:00:00Z,1991-07-15,915222463,presidencia.ampa.ilc@gmail.com,http://www.ampaisabellacatolica.com/,De Madres Y Padres Del Alumnado,Municipio,265,,f4f6dce2f3a0f9dada0c2b5b66452017,,,
2e65f2f2fdaf6c699b223c61b1b5ab89,Association,Casa Castilla La Mancha Zona Centro,casa_castilla_la_mancha_zona_centro,,"Calle Paz, 4",40.4154651,-3.7042353,1º D,28012,Madrid,Centro,Sol,G28543379,1991-08-08T00:00:00Z,1991-08-08,915227278,info@casaclmmadrid.org,http://www.casaclmmadrid.org,Culturales Y Casas Regionales,Municipio,292,,f7cade80b7cc92b991cf4d2806d6bd78,cb70ab375662576bd1ac5aaf16b3fca4,,
df263d996281d984952c07998dc54358,Association,Asociacion Aula Familiar,asociacion_aula_familiar,,"Calle Alcantara, 59",40.4317227,-3.6737921,6º D,28006,Madrid,Salamanca,Lista,G28936938,1991-05-07T00:00:00Z,1991-05-07,914029638,aulafamiliar@aulafamiliar.org,http://www.aulafamiliar.org,Otras De Acción Social,Municipio,142,,,,,
e995f98d56967d946471af29d7bf99f1,Association,Asociacion Cultural Taller De Teatro La Barja,asociacion_cultural_taller_de_teatro_la_barja,,"Calle Hermandad, 3",40.3844532,-3.727682,2º B,28025,Madrid,Carabanchel,Abrantes,G78385119,1991-04-24T00:00:00Z,1991-04-24,696803877,labarjateatro@yahoo.es,,Culturales Y Casas Regionales,Distrito,20,,320722549d1751cf3f247855f937b982,,,
ba3866600c3540f67c1e9575e213be0a,Association,Asociacion De Padres De Alumnos Instituto De Educacion Secundaria Ramon Y Cajal,asociacion_de_padres_de_alumnos_instituto_de_educacion_secundaria_ramon_y_cajal,,"Avenida Manoteras, 55",40.4876393,-3.6600662,,28050,Madrid,Hortaleza,Valdefuentes,G78760832,1991-06-13T00:00:00Z,1991-06-13,629247633,amparamonycajal@fapaginerdelosrios.org,,De Madres Y Padres Del Alumnado,Barrio,120,,f4f6dce2f3a0f9dada0c2b5b66452017,,,
d5cfead94f5350c12c322b5b664544c1,Association,Asociacion De Padres De Alumnos Colegio Publico Mejico,asociacion_de_padres_de_alumnos_colegio_publico_mejico,,"Avenida Badajoz, 74",40.443482,-3.6507196,,28027,Madrid,Ciudad Lineal,San Pascual,G79045498,1991-06-06T00:00:00Z,1991-06-06,640092606,info@ampamejico.org,http://www.ampamejico.org,De Madres Y Padres Del Alumnado,Municipio,68,,f4f6dce2f3a0f9dada0c2b5b66452017,,,
d4c2e4a3297fe25a71d030b67eb83bfc,Association,Asociacion De Padres De Alumnos Colegio Raimundo Lulio,asociacion_de_padres_de_alumnos_colegio_raimundo_lulio,,"Avenida San Diego, 63",40.38676,-3.6678299,65,28053,Madrid,Puente De Vallecas,San Diego,G80042294,1991-05-30T00:00:00Z,1991-05-30,914781997,aparaimundolulio.madrid@gmail.com,http://www.raimundolulio.org,De Madres Y Padres Del Alumnado,Municipio,716,,c0f168ce8900fa56e57789e2a2f2c9d0,,,
0d3180d672e08b4c5312dcdafdf6ef36,Association,Asociacion De Padres De Alumnos Del Colegio Purisima Concepcion,asociacion_de_padres_de_alumnos_del_colegio_purisima_concepcion,,"Calle Puebla, 20",40.4223003,-3.7035974,,28004,Madrid,Centro,Universidad,G28698736,1991-05-28T00:00:00Z,1991-05-28,915219758,amalvid@yahoo.es,,De Madres Y Padres Del Alumnado,Municipio,111,,c0f168ce8900fa56e57789e2a2f2c9d0,,,
7f1171a78ce0780a2142a6eb7bc4f3c8,Association,Asociacion Lucha Salud Mental Y Cambios Sociales. Alusamen,asociacion_lucha_salud_mental_y_cambios_sociales._alusamen,,"Calle Peña Gorbea, 4",40.3956729,-3.6677841,,28053,Madrid,Puente De Vallecas,San Diego,G79849899,1991-05-23T00:00:00Z,1991-05-23,914771866,alusamen1990@yahoo.es,http://www.alusamen.org.es,De Salud Y Apoyo Mutuo,Estatal,246,,,,,
aba3b6fd5d186d28e06ff97135cade7f,Association,Esperanto Liceo De Madrid,esperanto_liceo_de_madrid,,"Calle Rodriguez San Pedro, 13",40.4314665,-3.709540699999999,3º-7,28015,Madrid,Chamberi,Arapiles,G28726248,1991-05-22T00:00:00Z,1991-05-22,914468079,madrid@esperanto.es,http://www.esperanto.es/mel,Culturales Y Casas Regionales,Municipio,43,,,,,
32bb90e8976aab5298d5da10fe66f21d,Association,Asociacion De Padres De Alumnos Del Colegio Publico Doctor Tolosa Latour,asociacion_de_padres_de_alumnos_del_colegio_publico_doctor_tolosa_latour,,"Calle Asturianos, 4",40.3818356,-3.6423252,,28018,Madrid,Puente De Vallecas,Palomeras Sureste,G78959145,1988-06-04T00:00:00Z,1988-06-04,620114932,ampatolosalatour@gmail.com,http://www.ampatolosalatour.com,De Madres Y Padres Del Alumnado,Municipio,165,,f4f6dce2f3a0f9dada0c2b5b66452017,,,
2afe4567e1bf64d32a5527244d104cea,Association,Casa De Valencia De Alcantara En Madrid,casa_de_valencia_de_alcantara_en_madrid,,"Calle Benjamin Palencia, 43",40.3947562,-3.6438297,Local 4,28038,Madrid,Puente De Vallecas,Portazgo,G79457446,1991-05-21T00:00:00Z,1991-05-21,917784617,,,Culturales Y Casas Regionales,Comunidad De Madrid,145,,,,,
d14220ee66aeec73c49038385428ec4c,Association,Casa De Andalucia Los Palacios,casa_de_andalucia_los_palacios,,"Calle Apartado De Correos, 41046",40.4737314,-3.8683123,,28080,Madrid,Villaverde,Los Angeles,G79805818,1991-05-13T00:00:00Z,1991-05-13,,cdandalucia.lospalacios@hotmail.es,http://www.casadeandalucialospalacios.com,Culturales Y Casas Regionales,Distrito,75,,cb70ab375662576bd1ac5aaf16b3fca4,c60d870eaad6a3946ab3e8734466e532,,
e2c420d928d4bf8ce0ff2ec19b371514,Association,Asociacion De Vecinos De Chamberi El Organillo,asociacion_de_vecinos_de_chamberi_el_organillo,,"Calle Melendez Valdes, 24",40.4331898,-3.7107101,Bajo A,28015,Madrid,Chamberi,Arapiles,G79007035,1988-03-15T00:00:00Z,1988-03-15,914482391,avvelorganillo@gmail.com,http://www.cyberorganillo.org,Vecinales,Distrito,835,,735b90b4568125ed6c3f678819b6e058,,,
500e75a036dc2d7d2fec5da1b71d36cc,Association,Asociacion De Padres De Alumnos Del Colegio San Pedro Apostol,asociacion_de_padres_de_alumnos_del_colegio_san_pedro_apostol,,"Plaza Jubilado, 4",40.47430430000001,-3.5772585,,28042,Madrid,Barajas,Casco H.Barajas,G81145088,1991-04-18T00:00:00Z,1991-04-18,913055605,csanpedro@planalfa.es,,De Madres Y Padres Del Alumnado,Municipio,32,,,,,
8f14e45fceea167a5a36dedd4bea2543,Association,Asociacion De Vecinos Moratalaz Este-avance,asociacion_de_vecinos_moratalaz_este_avance,,"Calle Fuente Carrantona, S/N",40.4057308,-3.6327081,,28030,Madrid,Moratalaz,Horcajo,G78668373,1987-12-28T00:00:00Z,1987-12-28,917720074,info@avancemoratalaz.es,http://www.avancemoratalaz.es,Vecinales,Barrio,3150,,735b90b4568125ed6c3f678819b6e058,,,
afd4836712c5e77550897e25711e1d96,Association,Asociacion Cultural Peña Los Buenos,asociacion_cultural_peña_los_buenos,,"Calle Brunete, 4",40.5165196,-3.7750267,Bj. D,28048,Madrid,Fuencarral-El Pardo,El Pardo,,1991-08-04T00:00:00Z,1991-08-04,913761434,,,Culturales Y Casas Regionales,Municipio,50,,,,,
e555ebe0ce426f7f9b2bef0706315e0c,Association,Asociacion De Padres De Alumnos Colegio Publico Amos Acero,asociacion_de_padres_de_alumnos_colegio_publico_amos_acero,,"Calle Rodriguez Espinosa, 54",40.3898188,-3.664185599999999,,28053,Madrid,Puente De Vallecas,Palomeras Bajas,G28872083,1991-03-25T00:00:00Z,1991-03-25,677394169,,,De Madres Y Padres Del Alumnado,Municipio,30,,f4f6dce2f3a0f9dada0c2b5b66452017,,,
14bfa6bb14875e45bba028a21ed38046,Association,Asociacion De Vecinos Paloma-dehesa De La Villa,asociacion_de_vecinos_paloma_dehesa_de_la_villa,,"Calle Aguilar De Campoo, 13",40.4635351,-3.718886,Post,28039,Madrid,Moncloa-Aravaca,Valdezarza,G79357760,1988-11-03T00:00:00Z,1988-11-03,678039491,avvpalomadehesa@gmail.com,http://www.avpalomadehesa.com,Vecinales,Comunidad De Madrid,2329,,735b90b4568125ed6c3f678819b6e058,,,
3328bdf9a4b9504b9398284244fe97c2,Association,Centro Altatorre De Personas Sordas De Madrid,centro_altatorre_de_personas_sordas_de_madrid,,"Calle San Marcelo, 5",40.4271019,-3.6577824,,28017,Madrid,Ciudad Lineal,Ventas,G28746691,1991-03-18T00:00:00Z,1991-03-18,913552957,altatorre52@gmail.com,http://www.altatorre.org,De Personas Con Discapacidad,Comunidad De Madrid,264,,d210cf373cf002a04ec72ee395f66306,,,
08d98638c6fcd194a4b1e6992063e944,Association,Asociacion De Padres De Alumnos Del Colegio Publico La Guindalera,asociacion_de_padres_de_alumnos_del_colegio_publico_la_guindalera,,"Calle Boston, S/N",40.4373625,-3.6665369,,28028,Madrid,Salamanca,Guindalera,G79638565,1991-03-15T00:00:00Z,1991-03-15,644061678,ampaguindalera@gmail.com,https://ampacolegioguindalera.wordpress.com/,De Madres Y Padres Del Alumnado,Barrio,180,,f4f6dce2f3a0f9dada0c2b5b66452017,,,
fccb3cdc9acc14a6e70a12f74560c026,Association,Asociacion De Padres De Alumnos Colegio Publico Fray Junipero Serra,asociacion_de_padres_de_alumnos_colegio_publico_fray_junipero_serra,,"Calle Almonacid, 16",40.3957146,-3.6591378,Bis,28038,Madrid,Puente De Vallecas,Numancia,G79584082,1991-02-28T00:00:00Z,1991-02-28,616335980,ampafrayju@gmail.com,,De Madres Y Padres Del Alumnado,Barrio,48,,f4f6dce2f3a0f9dada0c2b5b66452017,,,
ca9c267dad0305d1a6308d2a0cf1c39c,Association,Asociacion De Madres Y Padres De Alumnos Colegio Divino Maestro,asociacion_de_madres_y_padres_de_alumnos_colegio_divino_maestro,,"Paseo Extremadura, 165",40.4079668,-3.7430746,,28011,Madrid,Latina,Lucero,G28665297,1991-11-03T00:00:00Z,1991-11-03,914641401,ampadima@gmail.com,http://www.ampadima.org,De Madres Y Padres Del Alumnado,Barrio,350,,,,,
9fe8593a8a330607d76796b35c64c600,Association,Asociacion Mixta De Separados De Madrid,asociacion_mixta_de_separados_de_madrid,,"Calle Santa Felicidad, 26",40.4249022,-3.6506207,Local 6,28017,Madrid,Ciudad Lineal,Ventas,G28746535,1991-11-03T00:00:00Z,1991-11-03,913692070,asemadrid@yahoo.es,http://www.asema-madrid.es,Otras De Acción Social,Municipio,34,,,,,
dc6a70712a252123c40d2adba6a11d84,Association,Asociacion De Vecinos Osa Mayor De Aravaca,asociacion_de_vecinos_osa_mayor_de_aravaca,,"Calle Olivo, 33",40.4586745,-3.7822304,,28023,Madrid,Moncloa-Aravaca,Aravaca,G79736948,1991-08-03T00:00:00Z,1991-08-03,913071328,asovosamayoraravaca@yahoo.es,,Vecinales,Barrio,50,,735b90b4568125ed6c3f678819b6e058,,,
0d7de1aca9299fe63f3e0041f02638a3,Association,Asociacion Mediadores De La Integracion - Ami,asociacion_mediadores_de_la_integracion___ami,,"Calle Finisterre, 24",40.4786079,-3.702048,Local Post,28029,Madrid,Fuencarral-El Pardo,La Paz,G79542627,1991-07-03T00:00:00Z,1991-07-03,917335852,asociacionami@yahoo.es,,Otras De Acción Social,Comunidad De Madrid,120,,92977ae4d2ba21425a59afb269c2a14e,,,
192fc044e74dffea144f9ac5dc9f3395,Association,Patronato Padre Pulgar,patronato_padre_pulgar,,"Calle San Jaime, 21",40.3800917,-3.626886,,28031,Madrid,Villa Vallecas,Casco H.Vallecas,G28504272,1991-11-03T00:00:00Z,1991-11-03,913030140,,,Juveniles,Comunidad De Madrid,94,,,,,
fae0b27c451c728867a567e8c1bb4e53,Association,Asociacion De Madres Y Padres De Alumnos Del Colegio Publico Calderon De La Barca,asociacion_de_madres_y_padres_de_alumnos_del_colegio_publico_calderon_de_la_barca,,"Calle Calderon, 2",40.4705906,-3.5838603,,28042,Madrid,Barajas,Timon,G79750691,1991-02-27T00:00:00Z,1991-02-27,623485502,ampaceipcalderon@gmail.com,http://ampacalderonbarajas.blogspot.com/,De Madres Y Padres Del Alumnado,Municipio,168,,f4f6dce2f3a0f9dada0c2b5b66452017,,,
84117275be999ff55a987b9381e01f96,Association,Asociacion Coral Madrileña Ciudad Lineal,asociacion_coral_madrileña_ciudad_lineal,,"Calle Santo Domingo Savio, 2",40.4304228,-3.6343394,,28017,Madrid,Ciudad Lineal,Pueblo Nuevo,G79186060,1991-02-23T00:00:00Z,1991-02-23,639908846,petermoya@hotmail.com,,Culturales Y Casas Regionales,Municipio,21,,,,,
2291d2ec3b3048d1a6f86c2c4591b7e0,Association,Asociacion De Vecinos La Barriada De San Fermin,asociacion_de_vecinos_la_barriada_de_san_fermin,,"Avenida San Fermin, 32",40.3713505,-3.6896134,1º,28041,Madrid,Usera,San Fermin,G79111845,1991-02-26T00:00:00Z,1991-02-26,917920897,avsf@san-fermin.org,,Vecinales,Barrio,570,,735b90b4568125ed6c3f678819b6e058,,,
68264bdb65b97eeae6788aa3348e553c,Association,Asociacion Coral Maestro Barbieri,asociacion_coral_maestro_barbieri,,"Calle Sebastian Herrera, 6",40.4036855,-3.6998072,Portal 1.2ºd,28012,Madrid,Arganzuela,Palos De Moguer,G78496098,1991-02-22T00:00:00Z,1991-02-22,685611531,secretaria@coralmaestrobarbieri.es,http://www.coralmaestrobarbieri.es,Culturales Y Casas Regionales,Municipio,45,,,,,
3d2d8ccb37df977cb6d9da15b76c3f3a,Association,Centro Dia Y Club Ancianos San Antonio,centro_dia_y_club_ancianos_san_antonio,,"Calle Jaen, 8",40.4503176,-3.7025334,Bajo,28020,Madrid,Tetuan,Cuatro Caminos,G80117534,1991-02-14T00:00:00Z,1991-02-14,915348120,centrodediasanantonio@gmail.com,,De Personas Mayores. Jubiladas Y Pensionistas,Barrio,150,,,,,
ab233b682ec355648e7891e66c54191b,Association,Asociacion De Padres De Alumnos Del Colegio Ignacio Zuloaga,asociacion_de_padres_de_alumnos_del_colegio_ignacio_zuloaga,,"Calle Alejandro Rodriguez, 34",40.4563691,-3.711582299999999,,28039,Madrid,Tetuan,Bellas Vistas,G28873446,1991-02-13T00:00:00Z,1991-02-13,697273154,ampazuloaga@gmail.com,http://ampazuloaga.blogspot.com.es,De Madres Y Padres Del Alumnado,Barrio,150,,f4f6dce2f3a0f9dada0c2b5b66452017,,,
eaae339c4d89fc102edd9dbdb6a28915,Association,Asociacion De Vecinos La Union Parque Europa,asociacion_de_vecinos_la_union_parque_europa,,"Calle Fuente Del Tiro, 27",40.3832744,-3.7792613,Parroquia,28024,Madrid,Latina,Las Aguilas,G78857018,1991-11-02T00:00:00Z,1991-11-02,917058476,avvlaunion@hotmail.com,,Vecinales,Barrio,542,,735b90b4568125ed6c3f678819b6e058,,,
55743cc0393b1cb4b8b37d09ae48d097,Association,Asociacion De Padres De Alumnos Del Instituto De Educacion Secundaria Pacifico,asociacion_de_padres_de_alumnos_del_instituto_de_educacion_secundaria_pacifico,,"Calle Luis Mitjans, 41",40.404094,-3.6686816,,28007,Madrid,Retiro,Adelfas,G79840195,1991-06-02T00:00:00Z,1991-06-02,915519036,pilarrodrigo46@hotmail.com,,De Madres Y Padres Del Alumnado,Municipio,50,,,,,
0ff39bbbf981ac0151d340c9aa40e63e,Association,Asociacion Club Tercera Edad San Romualdo,asociacion_club_tercera_edad_san_romualdo,,"Calle Ascao, 30",40.4299624,-3.640601,Ptal. 2. Bj.. Pta. 2,28017,Madrid,Ciudad Lineal,Pueblo Nuevo,G78297207,1991-01-30T00:00:00Z,1991-01-30,913675135,sanromualdo@planalfa.es,,De Personas Mayores. Jubiladas Y Pensionistas,Barrio,180,,,,,
5e9f92a01c986bafcabbafd145520b13,Association,Asociacion De Padres De Alumnos Colegio Sagrado Corazon,asociacion_de_padres_de_alumnos_colegio_sagrado_corazon,,"Plaza Madre Maria Ana Mogas, 12",40.4944582,-3.6893016,,28034,Madrid,Fuencarral-El Pardo,Valverde,G78890332,1991-01-30T00:00:00Z,1991-01-30,917340218,,,De Madres Y Padres Del Alumnado,Barrio,710,,c0f168ce8900fa56e57789e2a2f2c9d0,,,
4ffce04d92a4d6cb21c1494cdfcd6dc1,Association,Asociacion Grupo De Mujeres De Comillas,asociacion_grupo_de_mujeres_de_comillas,,"Calle Inmaculada Concepcion, 41",40.3912094,-3.7124334,Bis,28019,Madrid,Carabanchel,Comillas,G79634143,1991-01-24T00:00:00Z,1991-01-24,915602930,mujeres@avcomillas.org,http://www.avcomillas.org,De Mujeres,Distrito,160,,,,,
ea5d2f1c4608232e07d3aa3d998e5135,Association,Hogar Parroquial Nuestra Señora De Fatima,hogar_parroquial_nuestra_señora_de_fatima,,"Calle Maximo San Juan, 2",40.4323404,-3.6506852,Planta Baja,28017,Madrid,Ciudad Lineal,Ventas,G78229929,1988-04-03T00:00:00Z,1988-04-03,913263228,nsrfatima@hotmail.com,,Culturales Y Casas Regionales,Barrio,120,,c0f168ce8900fa56e57789e2a2f2c9d0,,,
0f96613235062963ccde717b18f97592,Association,Asociacion Krecer,asociacion_krecer,,"Calle Gerardo Diego, 7",40.3855191,-3.6425976,Bajo,28018,Madrid,Puente De Vallecas,Palomeras Sureste,G79487518,1991-01-22T00:00:00Z,1991-01-22,913803484,gestion@krecer.org,http://www.krecer.org,Otras De Acción Social,Distrito,67,,8c235f89a8143a28a1d6067e959dd858,,,
c5ab0bc60ac7929182aadd08703f1ec6,Association,Asociacion De Padres De Alumnos Del Colegio De Educacion Infantil Y Primaria  Antonio De Nebrija,asociacion_de_padres_de_alumnos_del_colegio_de_educacion_infantil_y_primaria__antonio_de_nebrija,,"Calle Juan Jose Martinez Seco, 77",40.35211899999999,-3.6861347,,28021,Madrid,Villaverde,Los Rosales,G28673531,1991-01-15T00:00:00Z,1991-01-15,630072382,ampanebrija@hotmail.com,,De Madres Y Padres Del Alumnado,Municipio,105,,f4f6dce2f3a0f9dada0c2b5b66452017,,,
03afdbd66e7929b125f8597834fa83a4,Association,Asociacion De Vecinos Pradera Tercio Terol- Carmenes,asociacion_de_vecinos_pradera_tercio_terol__carmenes,,"Calle Tercio, 7",40.3933259,-3.727845399999999,Bajo,28019,Madrid,Carabanchel,San Isidro,G28682359,1988-04-03T00:00:00Z,1988-04-03,914717268,amendezfeito@yahoo.com,,Vecinales,Barrio,290,,735b90b4568125ed6c3f678819b6e058,,,
051e4e127b92f5d98d3c79b195f2b291,Association,Asociacion Por Una Nueva Vida - Punvi,asociacion_por_una_nueva_vida___punvi,,"Calle Besolla, 7",40.37684,-3.7354953,,28025,Madrid,Carabanchel,Abrantes,G79255576,1990-12-18T00:00:00Z,1990-12-18,914662845,asociacionpunvi@gmail.com,,De Salud Y Apoyo Mutuo,Municipio,129,,,,,
42e77b63637ab381e8be5f8318cc28a2,Association,Asociacion De Vecinos Los Hogares Uva Villaverde,asociacion_de_vecinos_los_hogares_uva_villaverde,,"Calle Potes, 2",40.3510156,-3.70933,Puerta 35,28021,Madrid,Villaverde,Villaverde Alto C.H.,G78659372,1990-07-12T00:00:00Z,1990-07-12,917951073,loshogares@hotmail.com,,Vecinales,Barrio,186,,735b90b4568125ed6c3f678819b6e058,,,
48ab2f9b45957ab574cf005eb8a76760,Association,Asociacion Fantid San Fermin. Familias Antidroga,asociacion_fantid_san_fermin._familias_antidroga,,"Calle Adora, 5",40.36925069999999,-3.689538799999999,Bajo,28041,Madrid,Usera,San Fermin,G79621280,1990-11-29T00:00:00Z,1990-11-29,917923917,,http://www.alucinos.org,De Salud Y Apoyo Mutuo,Municipio,27,,076a0c97d09cf1a0ec3e19c7f2529f2b,,,
3871bd64012152bfb53fdf04b401193f,Association,Asociacion De Vecinos Barrio Aeropuerto,asociacion_de_vecinos_barrio_aeropuerto,,"Calle Pradoluengo, S/N",40.4513692,-3.5820167,S/n Pabellon 1,28042,Madrid,Barajas,Aeropuerto,G79020707,1990-11-16T00:00:00Z,1990-11-16,913290282,avvbaeropuerto@gmail.com,http://barriodelaeropuerto.es,Vecinales,Municipio,255,,735b90b4568125ed6c3f678819b6e058,,,
851ddf5058cf22df63d3344ad89919cf,Association,Asociacion De Padres De Alumnos Del Colegio Publico Padre Poveda,asociacion_de_padres_de_alumnos_del_colegio_publico_padre_poveda,,"Avenida Alfonso XIII, 23",40.45116549999999,-3.66783,,28002,Madrid,Chamartin,Ciudad Jardin,G28726982,1990-10-26T00:00:00Z,1990-10-26,639307180,ampapoveda.madrid@gmail.com,http://www.ampapadrepoveda.org,De Madres Y Padres Del Alumnado,Municipio,300,,f4f6dce2f3a0f9dada0c2b5b66452017,,,
8ebda540cbcc4d7336496819a46a1b68,Association,Asociacion Familiar Ur Del Poblado Dirigido De Fuencarral,asociacion_familiar_ur_del_poblado_dirigido_de_fuencarral,,"Avenida Cardenal Herrera Oria, 80",40.4912945,-3.691387599999999,A,28034,Madrid,Fuencarral-El Pardo,Valverde,G79569448,1990-10-23T00:00:00Z,1990-10-23,913720118,asociacion.ur@gmail.com,,Vecinales,Comunidad De Madrid,520,,735b90b4568125ed6c3f678819b6e058,,,
7f39f8317fbdb1988ef4c628eba02591,Association,Asociacion Amigos Del Retiro,asociacion_amigos_del_retiro,,"Paseo Julio Romero De Torres, S/N",40.4123553,-3.6809134,(la Cabaña),28009,Madrid,Retiro,Ibiza,G79087870,1988-03-03T00:00:00Z,1988-03-03,679367339,julio.molinos@gmail.com,,Culturales Y Casas Regionales,Barrio,135,,,,,
d7a728a67d909e714c0774e22cb806f2,Association,Asociacion De Vecinos La Paz,asociacion_de_vecinos_la_paz,,"Calle Montanchez, 27",40.3735191,-3.6706976,Local,28053,Madrid,Puente De Vallecas,Entrevias,G28765675,1990-10-24T00:00:00Z,1990-10-24,918332760,aavvlapaz@yahoo.es,,Vecinales,Barrio,209,,735b90b4568125ed6c3f678819b6e058,,,
996a7fa078cc36c46d02f9af3bef918b,Association,Asociacion De Madres Y Padres De Alumnos Comunidad Infantil De Villaverde,asociacion_de_madres_y_padres_de_alumnos_comunidad_infantil_de_villaverde,,"Calle Villastar, 10",40.3432908,-3.7115421,,28021,Madrid,Villaverde,Villaverde Alto C.H.,G79372926,1988-09-28T00:00:00Z,1988-09-28,654960989,ampa.comunidadinfantil@gmail.com,http://www.apmaci.terra.es,De Madres Y Padres Del Alumnado,Barrio,27,,,,,
072b030ba126b2f4b2374f342be9ed44,Association,Asociacion Vecinal Los Pinos De Retiro Sur,asociacion_vecinal_los_pinos_de_retiro_sur,,"Calle Jativa, 6",40.3985829,-3.6736296,1ª A,28007,Madrid,Retiro,Adelfas,G78929841,1988-03-03T00:00:00Z,1988-03-03,630071627,,,Vecinales,Barrio,482,,735b90b4568125ed6c3f678819b6e058,,,
b2eeb7362ef83deff5c7813a67e14f0a,Association,Asociacion De Madres Y Padres Del Colegio Publico Nuestra Señora De La Luz,asociacion_de_madres_y_padres_del_colegio_publico_nuestra_señora_de_la_luz,,"Calle Bismuto, 1",40.34385,-3.7057941,,28021,Madrid,Villaverde,San Andres,G79083937,1990-09-26T00:00:00Z,1990-09-26,917951766,,,De Madres Y Padres Del Alumnado,Municipio,22,,f4f6dce2f3a0f9dada0c2b5b66452017,,,
dbe272bab69f8e13f14b405e038deb64,Association,Asociacion De Padres De Alumnos Mirabel Instituto De Educacion Secundaria Maria De Molina,asociacion_de_padres_de_alumnos_mirabel_instituto_de_educacion_secundaria_maria_de_molina,,"Calle Mirabel, 22",40.3805269,-3.780140299999999,,28044,Madrid,Latina,Las Aguilas,G80040447,1990-09-27T00:00:00Z,1990-09-27,917054656,ampamariamolina@yahoo.es,,De Madres Y Padres Del Alumnado,Municipio,70,,,,,
766ebcd59621e305170616ba3d3dac32,Association,Asociacion De Madres Y Padres De Alumnos Colegio De Educacion Infantil Y Primaria Jorge Manrique,asociacion_de_madres_y_padres_de_alumnos_colegio_de_educacion_infantil_y_primaria_jorge_manrique,,"Plaza Pintor Lucas, 17",40.3881374,-3.7101748,,28026,Madrid,Usera,Moscardo,G78770930,1990-11-09T00:00:00Z,1990-11-09,638042915,ampaceipjorgemanrique@gmail.com,http://ampaceipjorgemanrique.blogspot.com,De Madres Y Padres Del Alumnado,Municipio,160,,f4f6dce2f3a0f9dada0c2b5b66452017,,,
a9a1d5317a33ae8cef33961c34144f84,Association,Asociacion De Vecinos La Colmena De Santa Eugenia,asociacion_de_vecinos_la_colmena_de_santa_eugenia,,"Calle Virgen De Las Viñas, 16",40.3813095,-3.6069804,Mercado De Santa Eugenia,28031,Madrid,Villa Vallecas,Santa Eugenia,G79592655,1990-07-23T00:00:00Z,1990-07-23,630024584,avecinoslacolmena@gmail.com,,Vecinales,Barrio,87,,bb04af0f7ecaee4aae62035497da1387,735b90b4568125ed6c3f678819b6e058,,
f5deaeeae1538fb6c45901d524ee2f98,Association,Asociacion De Vecinos Barrio De San Juan Bautista,asociacion_de_vecinos_barrio_de_san_juan_bautista,,"Plaza Valvanera, 1",40.4499022,-3.657597699999999,Local,28043,Madrid,Ciudad Lineal,San Juan Bautista,G28588614,1990-06-07T00:00:00Z,1990-06-07,639763501,contactopsjb@gmail.com,http://avsanjuanbautista.wordpress.com,Vecinales,Comunidad De Madrid,817,,735b90b4568125ed6c3f678819b6e058,,,
9ad6aaed513b73148b7d49f70afcfb32,Association,Asociacion De Padres De Alumnos Colegio Maria Inmaculada,asociacion_de_padres_de_alumnos_colegio_maria_inmaculada,,"Calle Joaquin Turina, 62",40.3721714,-3.7581128,,28044,Madrid,Carabanchel,Buenavista,G79425815,1990-07-26T00:00:00Z,1990-07-26,915093005,mariainmaculada.ampa@gmail.com,,De Madres Y Padres Del Alumnado,Comunidad De Madrid,212,,c0f168ce8900fa56e57789e2a2f2c9d0,,,
069d3bb002acd8d7dd095917f9efe4cb,Association,Asociacion Mujeres Distrito 21,asociacion_mujeres_distrito_21,,"Calle La Rioja, 9",40.4570825,-3.5894401,5º F,28042,Madrid,Barajas,Alameda De Osuna,G79399598,1990-07-16T00:00:00Z,1990-07-16,917470479,mujeresdistrito21@hotmail.com,,De Mujeres,Municipio,250,,,,,
66f041e16a60928b05a7e228a89c3799,Association,Asociacion De Vecinos Manzanares Poblado De San Francisco,asociacion_de_vecinos_manzanares_poblado_de_san_francisco,,"Calle Braojos, 64",40.48023999999999,-3.7387,Bajo Izq,28035,Madrid,Fuencarral-El Pardo,Fuentelarreina,G79520698,1988-02-23T00:00:00Z,1988-02-23,696796462,asvenmanzanares@gmail.com,,Vecinales,Barrio,62,,735b90b4568125ed6c3f678819b6e058,,,
a8849b052492b5106526b2331e526138,Association,Escuela Popular De Oporto,escuela_popular_de_oporto,,"Calle Busaco, 2",40.3820839,-3.7252826,Bajo Dcha,28025,Madrid,Carabanchel,Abrantes,G28944163,1990-09-07T00:00:00Z,1990-09-07,915650254,escueladeoporto@gmail.com,http://www.escuelapopulardeoporto.org,Culturales Y Casas Regionales,Barrio,380,,,,,
f0e52b27a7a5d6a1a87373dffa53dbe5,Association,Asociacion De Vecinos La Unidad San Cristobal Los Angeles,asociacion_de_vecinos_la_unidad_san_cristobal_los_angeles,,"Calle Rocafort, 5",40.3419738,-3.6903553,1º,28021,Madrid,Villaverde,San Cristobal,G79114336,1990-06-06T00:00:00Z,1990-06-06,640054418,launidadsancristobal@gmail.com,,Vecinales,Barrio,250,,735b90b4568125ed6c3f678819b6e058,,,
e6b4b2a746ed40e1af829d1fa82daa10,Association,Asociacion De Madres Y Padres De Alumnos Del Instituto De Educacion Secundaria Celestino Mutis,asociacion_de_madres_y_padres_de_alumnos_del_instituto_de_educacion_secundaria_celestino_mutis,,"Calle Huerta De Villaverde, 15",40.3478891,-3.7129672,,28021,Madrid,Villaverde,Villaverde Alto C.H.,G28870830,1990-06-07T00:00:00Z,1990-06-07,630011260,ampaiescelestinomutis@gmail.com,,De Madres Y Padres Del Alumnado,Barrio,153,,f4f6dce2f3a0f9dada0c2b5b66452017,,,
72b32a1f754ba1c09b3695e0cb6cde7f,Association,Asociacion Vecinal La Unidad De Villaverde Este,asociacion_vecinal_la_unidad_de_villaverde_este,,"Calle Diamante, 22",40.3522527,-3.6867994,Bajo,28021,Madrid,Villaverde,Los Rosales,G79398491,1988-02-29T00:00:00Z,1988-02-29,915052624,launidaddevillaverde@gmail.com,http://www.launidaddevillaverde.org,Vecinales,Barrio,236,,735b90b4568125ed6c3f678819b6e058,,,
8b16ebc056e613024c057be590b542eb,Association,Asociacion De Vecinos La Fraternidad De Los Carmenes,asociacion_de_vecinos_la_fraternidad_de_los_carmenes,,"Calle Escalonilla, 19",40.3961025,-3.7414064,,28047,Madrid,Latina,Aluche,G28838027,1990-05-07T00:00:00Z,1990-05-07,657530563,avvlafraternidad@gmail.com,,Vecinales,Barrio,68,,735b90b4568125ed6c3f678819b6e058,,,
99c5e07b4d5de9d18c350cdf64c5aa3d,Association,Asociacion De Padres De Alumnos Del Colegio Publico Alfonso X El Sabio,asociacion_de_padres_de_alumnos_del_colegio_publico_alfonso_x_el_sabio,,"Calle Fuente De San Pedro, 6",40.4030466,-3.6038153,,28032,Madrid,Vicalvaro,Casco H.Vicalvaro,G28745719,1990-06-27T00:00:00Z,1990-06-27,611403262,ampa.alfonsox@gmail.com,http://www.ampa-alfonsoxelsabio.com,De Madres Y Padres Del Alumnado,Municipio,20,,f4f6dce2f3a0f9dada0c2b5b66452017,,,
8eefcfdf5990e441f0fb6f3fad709e21,Association,Asociacion De Vicalvaro De Alcoholicos Rehabilitados - Avar,asociacion_de_vicalvaro_de_alcoholicos_rehabilitados___avar,,"Calle Ladera De Los Almendros, 6",40.4032712,-3.6234029,,28032,Madrid,Vicalvaro,Casco H.Vicalvaro,G79396289,1990-06-25T00:00:00Z,1990-06-25,682322931,alcoholicosrehabilitados@gmail.com,http://alcoholicosrehabilitados.blogspot.com.es/,De Salud Y Apoyo Mutuo,Municipio,265,,a0f3601dc682036423013a5d965db9aa,,,
58ae749f25eded36f486bc85feb3f0ab,Association,Asociacion De Madres Y Padres Del Colegio De Educacion Infantil Y Primaria   Navas De Tolosa,asociacion_de_madres_y_padres_del_colegio_de_educacion_infantil_y_primaria___navas_de_tolosa,,"Calle Benimamet, 109",40.3448001,-3.6859762,,28021,Madrid,Villaverde,San Cristobal,G28517647,1990-06-14T00:00:00Z,1990-06-14,699624144,cp.navasdetolosa.madrid@educa.madrid.org,,De Madres Y Padres Del Alumnado,Municipio,50,,f4f6dce2f3a0f9dada0c2b5b66452017,,,
a9a6653e48976138166de32772b1bf40,Association,Asociacion Jovenes Ex-toxicomanos La Colmena,asociacion_jovenes_ex_toxicomanos_la_colmena,,"Calle Rio Esmeralda, 4",40.3837315,-3.6524636,3º A,28018,Madrid,Puente De Vallecas,Portazgo,G78332038,1990-05-23T00:00:00Z,1990-05-23,667946992,,,Otras De Acción Social,Comunidad De Madrid,10,,,,,
9f61408e3afb633e50cdf1b20de6f466,Association,Asociacion De Padres De Alumnos Instituto De Educacion Secundaria Antonio Dominguez Ortiz,asociacion_de_padres_de_alumnos_instituto_de_educacion_secundaria_antonio_dominguez_ortiz,,"Calle Andaluces, S/N",40.3902839,-3.6382724,,28038,Madrid,Puente De Vallecas,Palomeras Sureste,G79887824,1988-02-26T00:00:00Z,1988-02-26,917770981,m.rosa_65@hotmail.com,,De Madres Y Padres Del Alumnado,Municipio,228,,f4f6dce2f3a0f9dada0c2b5b66452017,,,
15de21c670ae7c3f6f3f1f37029303c9,Association,Asociacion De Madres Y Padres De Alumnos Del Colegio Publico Doctor Severo Ochoa,asociacion_de_madres_y_padres_de_alumnos_del_colegio_publico_doctor_severo_ochoa,,"Calle Ezcaray, 3",40.409796,-3.6119515,,28032,Madrid,Vicalvaro,Casco H.Vicalvaro,G78083748,1990-06-15T00:00:00Z,1990-06-15,913719966,ampaseveroochoa@hotmail.com,,De Madres Y Padres Del Alumnado,Barrio,55,,f4f6dce2f3a0f9dada0c2b5b66452017,,,
94c7bb58efc3b337800875b5d382a072,Association,Asociacion De Padres De Alumnos Del Colegio Liceo Oroquieta,asociacion_de_padres_de_alumnos_del_colegio_liceo_oroquieta,,"Calle Sahara, 79",40.3550445,-3.6917622,,28041,Madrid,Villaverde,Los Rosales,G79611414,1990-06-14T00:00:00Z,1990-06-14,917961495,,,De Madres Y Padres Del Alumnado,Municipio,33,,f4f6dce2f3a0f9dada0c2b5b66452017,,,
7f24d240521d99071c93af3917215ef7,Association,Asociacion De Vecinos Orcasur,asociacion_de_vecinos_orcasur,,"Avenida Orcasur, 24",40.3673013,-3.7017506,,28041,Madrid,Usera,Orcasur,G78395795,1990-11-06T00:00:00Z,1990-11-06,911689648,aavvorcasur@gmail.com,http://aavvorcasur.blogspot.es,Vecinales,Barrio,150,,735b90b4568125ed6c3f678819b6e058,,,
8d34201a5b85900908db6cae92723617,Association,Asociacion De Padres De Alumnos Colegio Publico Lepanto,asociacion_de_padres_de_alumnos_colegio_publico_lepanto,,"Calle Valderrey, 9",40.4684437,-3.7210309,,28035,Madrid,Moncloa-Aravaca,Valdezarza,G79444006,1990-07-06T00:00:00Z,1990-07-06,913160937,apaclepanto@yahoo.es,http://apaclepanto.blogspot.com,De Madres Y Padres Del Alumnado,Barrio,402,,f4f6dce2f3a0f9dada0c2b5b66452017,,,
c75b6f114c23a4d7ea11331e7c00e73c,Association,Sociedad Ornitologica De Villaverde,sociedad_ornitologica_de_villaverde,,"Calle Potes, 2",40.3510156,-3.70933,Local 35,28021,Madrid,Villaverde,Villaverde Alto C.H.,G78652179,1990-11-06T00:00:00Z,1990-11-06,601142183,sociedadornitologicavillaverde@gmail.com,,Culturales Y Casas Regionales,Estatal,190,,fe709c654eac84d5239d1a12a4f71877,,,
97e8527feaf77a97fc38f34216141515,Association,Asociacion Nuestra Señora Virgen De La Torre,asociacion_nuestra_señora_virgen_de_la_torre,,"Calle Puerto De Lumbreras, 40",40.38205079999999,-3.6208502,Portal 2 Bajo A,28031,Madrid,Villa Vallecas,Casco H.Vallecas,R7800164A,1990-07-06T00:00:00Z,1990-07-06,634297576,avirgendelatorre@gmail.com,,Culturales Y Casas Regionales,Municipio,650,,,,,
81448138f5f163ccdba4acc69819f280,Association,Asociacion Vecinal Orcasitas,asociacion_vecinal_orcasitas,,"Plaza Asociacion, 1",40.3697225,-3.7081405,,28041,Madrid,Usera,Orcasitas,G28697779,1990-07-06T00:00:00Z,1990-07-06,913415318,asociacion@orcasitas.net,http://www.orcasitas.org,Vecinales,Barrio,3600,,735b90b4568125ed6c3f678819b6e058,,,
16c222aa19898e5058938167c8ab6c57,Association,Asociacion De Ciudadanos Consumidores Y Usuarios De Retiro - Acum,asociacion_de_ciudadanos_consumidores_y_usuarios_de_retiro___acum,,"Avenida Menendez Pelayo, 45",40.4173463,-3.678160399999999,,28009,Madrid,Retiro,Ibiza,G80180029,1990-05-31T00:00:00Z,1990-05-31,913640276,,,De Personas Consumidoras Y Usuarias,Distrito,322,,4f4adcbf8c6f66dcfc8a3282ac2bf10a,,,
5737034557ef5b8c02c0e46513b98f90,Association,Asociacion Juvenil Iris Vallecano,asociacion_juvenil_iris_vallecano,,"Calle Leoneses, 6",40.38237,-3.6481062,,28018,Madrid,Puente De Vallecas,Palomeras Sureste,G79038477,1990-06-06T00:00:00Z,1990-06-06,917770948,somosirisvk@gmail.com,http://www.asociaciones-chispa-e-irisvallecano.webnode.cat,Juveniles,Barrio,30,,,,,
7bcdf75ad237b8e02e301f4091fb6bc8,Association,Asociacion De Vecinos Guernica Pan Bendito,asociacion_de_vecinos_guernica_pan_bendito,,"Plaza Anocibar, 6",40.3766365,-3.736336,,28025,Madrid,Carabanchel,Puerta Bonita,G79161485,1990-06-06T00:00:00Z,1990-06-06,,aavvguernica@gmail.com,,Vecinales,Municipio,6,,735b90b4568125ed6c3f678819b6e058,,,
5ea1649a31336092c05438df996a3e59,Association,Asociacion De Madres Y Padres De Alumnos Colegio Publico San Jose Lucero,asociacion_de_madres_y_padres_de_alumnos_colegio_publico_san_jose_lucero,,"Calle Palmipedo, 12",40.4038364,-3.7462332,14,28047,Madrid,Latina,Lucero,G79240693,1990-06-06T00:00:00Z,1990-06-06,914647203,,,Culturales Y Casas Regionales,Barrio,157,,f4f6dce2f3a0f9dada0c2b5b66452017,,,
37f0e884fbad9667e38940169d0a3c95,Association,Club Natacion Marbella Carabanchel,club_natacion_marbella_carabanchel,,"Calle Eugenia De Montijo, 76",40.37913,-3.74732,1ª,28025,Madrid,Carabanchel,Vista Alegre,G80564628,1990-05-28T00:00:00Z,1990-05-28,916322285,cnmarbellacarabanchel@yahoo.es,http://www.natacioncarabanchel.es,Deportivas,Barrio,21,,,,,
13f320e7b5ead1024ac95c3b208610db,Association,Grupo Danzas Nuestra Señora De Valverde,grupo_danzas_nuestra_señora_de_valverde,,"Calle Islas Bermudas, 28",40.4940861,-3.6882071,,28034,Madrid,Fuencarral-El Pardo,Valverde,G79984746,1990-05-24T00:00:00Z,1990-05-24,653786866,mariafernandezcrespo25@hotmail.com,,Culturales Y Casas Regionales,Municipio,93,,,,,
ba2fd310dcaa8781a9a652a31baf3c68,Association,Asociacion De Padres De Alumnos Del Colegio Publico Jose Calvo Sotelo,asociacion_de_padres_de_alumnos_del_colegio_publico_jose_calvo_sotelo,,"Avenida Ciudad De Barcelona, 83",40.40097249999999,-3.6736931,,28007,Madrid,Retiro,Adelfas,G79907580,1990-05-21T00:00:00Z,1990-05-21,608680894,ampacalvosotelo@hotmail.com,https://www.ampasotelo.es/,De Madres Y Padres Del Alumnado,Distrito,252,,f4f6dce2f3a0f9dada0c2b5b66452017,,,
9a1158154dfa42caddbd0694a4e9bdc8,Association,Asociacion De Vecinos Los Rosales,asociacion_de_vecinos_los_rosales,,"Calle Niquel, 16",40.3523874,-3.680190899999999,,28021,Madrid,Villaverde,Butarque,G79522397,1988-01-19T00:00:00Z,1988-01-19,677033694,avvlosrosales.villaverde@gmail.com,,Vecinales,Barrio,320,,735b90b4568125ed6c3f678819b6e058,,,
ebd9629fc3ae5e9f6611e2ee05a31cef,Association,Asociacion De Vecinos San Roque De Corralejos-coronales Distrito 21 Barajas,asociacion_de_vecinos_san_roque_de_corralejos_coronales_distrito_21_barajas,,"Calle Benisoda, 30",40.4664276,-3.5874091,,28042,Madrid,Barajas,Corralejos,G79178075,1990-05-21T00:00:00Z,1990-05-21,695197641,av.sanroque30@hotmail.com,,Vecinales,Municipio,348,,735b90b4568125ed6c3f678819b6e058,,,
f3f27a324736617f20abbf2ffd806f6d,Association,Asociacion De Vecinos La Union De Hortaleza,asociacion_de_vecinos_la_union_de_hortaleza,,"Calle Abarzuza, S/N",40.4761809,-3.6496566,Blq. 31 Bj.,28033,Madrid,Hortaleza,Pinar Del Rey,G78939394,1990-05-18T00:00:00Z,1990-05-18,917630924,avvuniondehortaleza@nodo50.org,http://www.nodo50.org/avvuniondehortaleza,Vecinales,Barrio,128,,735b90b4568125ed6c3f678819b6e058,,,
59b90e1005a220e2ebc542eb9d950b1e,Association,Asociacion Cultural Pablo Picasso,asociacion_cultural_pablo_picasso,,"Calle Seseña, 9",40.3977576,-3.7587681,Pl. B Izq.,28024,Madrid,Latina,Aluche,G78585700,1990-02-26T00:00:00Z,1990-02-26,915188786,radio876@gmail.com,http://www.ondalatina.com.es,Culturales Y Casas Regionales,Municipio,17,,,,,
10a7cdd970fe135cf4f7bb55c0e3b59f,Association,Asociacion De Madres Y Padres De Alumnos Colegio Santa Cristina,asociacion_de_madres_y_padres_de_alumnos_colegio_santa_cristina,,"Avenida Portugal, 67",40.4146778,-3.7284255,,28011,Madrid,Latina,Puerta Del Angel,G28874808,1990-05-14T00:00:00Z,1990-05-14,914798157,,,De Madres Y Padres Del Alumnado,Municipio,126,,,,,
a760880003e7ddedfef56acb3b09697f,Association,Asociacion Casa De Cantabria En Madrid,asociacion_casa_de_cantabria_en_madrid,,"Calle Pio Baroja, 10",40.4132346,-3.6754232,,28009,Madrid,Retiro,Niño Jesus,G28740785,1990-11-05T00:00:00Z,1990-11-05,673854285,secretaria@casacantabriamadrid.com,http://www.casacantabriamadrid.com,Culturales Y Casas Regionales,Comunidad De Madrid,308,,cb70ab375662576bd1ac5aaf16b3fca4,,,
2d6cc4b2d139a53512fb8cbb3086ae2e,Association,Asociacion De Padres De Alumnos Del Colegio Publico Palacio Valdes,asociacion_de_padres_de_alumnos_del_colegio_publico_palacio_valdes,,"Paseo Prado, 38",40.4106201,-3.6929512,,28014,Madrid,Centro,Cortes,G28629426,1990-07-05T00:00:00Z,1990-07-05,647066892,ampapalaciovaldes@gmail.com,http://www.ampapalaciovaldes.wordpress.com,De Madres Y Padres Del Alumnado,Barrio,56,,f4f6dce2f3a0f9dada0c2b5b66452017,,,
cee631121c2ec9232f3a2f028ad5c89b,Association,Asociacion De Padres De Alumnos Colegio Publico Gustavo Adolfo Becquer,asociacion_de_padres_de_alumnos_colegio_publico_gustavo_adolfo_becquer,,"Calle Santa Genoveva, 32",40.4239852,-3.6490851,,28017,Madrid,Ciudad Lineal,Ventas,G28870954,1990-04-24T00:00:00Z,1990-04-24,914051507,ampabecquer14@hotmail.com,,De Madres Y Padres Del Alumnado,Barrio,60,,f4f6dce2f3a0f9dada0c2b5b66452017,,,
c0c7c76d30bd3dcaefc96f40275bdc0a,Association,Asociacion De Vecinos De Vista Alegre,asociacion_de_vecinos_de_vista_alegre,,"Calle Bruno Garcia, 10",40.3888127,-3.7429932,,28025,Madrid,Carabanchel,Vista Alegre,G79030771,1988-02-15T00:00:00Z,1988-02-15,626701938,fcoronado7@hotmail.com,,Vecinales,Barrio,134,,,,,
e4da3b7fbbce2345d7772b0674a318d5,Association,Asociacion De Vecinos Familiar San Cristobal,asociacion_de_vecinos_familiar_san_cristobal,,"Calle Conde De Torralba, 19",40.4795984,-3.6846708,,28046,Madrid,Chamartin,Castilla,G28698389,1987-12-21T00:00:00Z,1987-12-21,656332711,aso.sancristobalcastilla@gmail.com,,Vecinales,Barrio,105,,735b90b4568125ed6c3f678819b6e058,,,
b534ba68236ba543ae44b22bd110a1d6,Association,Asociacion De Familias. Madres Y Padres Del Alumnado Afa Del Colegio Lourdes De Madrid,asociacion_de_familias._madres_y_padres_del_alumnado_afa_del_colegio_lourdes_de_madrid,,"Calle San Roberto, 8",40.4029026,-3.7596422,Dup.,28011,Madrid,Latina,Lucero,G79349692,1990-05-04T00:00:00Z,1990-05-04,915180358,afa@colegiolourdes.fuhem.es,http://www.afalourdes.es,De Madres Y Padres Del Alumnado,Municipio,502,,f4f6dce2f3a0f9dada0c2b5b66452017,,,
1be3bc32e6564055d5ca3e5a354acbef,Association,Asociacion De Vecinos General Ricardos,asociacion_de_vecinos_general_ricardos,,"Calle El Toboso, 52",40.3931268,-3.7298645,,28019,Madrid,Carabanchel,San Isidro,G79541124,1990-04-04T00:00:00Z,1990-04-04,914721053,vecinalgricardos@gmail.com,,Vecinales,Barrio,198,,735b90b4568125ed6c3f678819b6e058,,,
f457c545a9ded88f18ecee47145a72c0,Association,Asociacion De Madres Y Padres De Alumnos Del Colegio De Educacion Infantil Y Primaria Cristobal Colon De Villaverde - Madrid,asociacion_de_madres_y_padres_de_alumnos_del_colegio_de_educacion_infantil_y_primaria_cristobal_colon_de_villaverde___madrid,,"Carretera Carabanchel A Villaverde, 109",40.3502342,-3.7059328,,28041,Madrid,Villaverde,Villaverde Alto C.H.,G78826542,1988-11-02T00:00:00Z,1988-11-02,686736248,apacristobalcolon@gmail.com,,De Madres Y Padres Del Alumnado,Barrio,80,,f4f6dce2f3a0f9dada0c2b5b66452017,,,
c3c59e5f8b3e9753913f4d435b53c308,Association,Asociacion De Mujeres Y Consumidores De Madrid - Unae,asociacion_de_mujeres_y_consumidores_de_madrid___unae,,"Calle Villanueva, 8",40.4225496,-3.6892167,3º Dcha,28001,Madrid,Salamanca,Recoletos,G79466322,1990-03-27T00:00:00Z,1990-03-27,915757219,unaejuridico@gmail.com,,De Mujeres,Municipio,206,,515ab26c135e92ed8bf3a594d67e4ade,,,
7d04bbbe5494ae9d2f5a76aa1c00fa2f,Association,Asociacion De Padres De Alumnos Figaro Del Instituto De Educacion Secundaria Mariano Jose De Larra,asociacion_de_padres_de_alumnos_figaro_del_instituto_de_educacion_secundaria_mariano_jose_de_larra,,"Calle Camarena, 181",40.3882705,-3.7540218,,28047,Madrid,Latina,Aluche,G79941571,1990-03-22T00:00:00Z,1990-03-22,917192105,apa.larra@hotmail.com,,De Madres Y Padres Del Alumnado,Barrio,82,,f4f6dce2f3a0f9dada0c2b5b66452017,,,
eba0dc302bcd9a273f8bbb72be3a687b,Association,Sociedad Protectora De Animales Y Plantas De Madrid - Spapm,sociedad_protectora_de_animales_y_plantas_de_madrid___spapm,,"Calle Ochagavia, 34",40.4640828,-3.7171838,,28039,Madrid,Moncloa-Aravaca,Valdezarza,G28215192,1990-03-20T00:00:00Z,1990-03-20,913119133,abogado@spap.net,http://www.spap.net,Medioambientales Y Ecologistas,Comunidad De Madrid,559,,,,,
e1e32e235eee1f970470a3a6658dfdd5,Association,Asociacion Ciudadana De Consumidores Y Usuarios De Ciudad Lineal - Acum,asociacion_ciudadana_de_consumidores_y_usuarios_de_ciudad_lineal___acum,,"Calle Virgen De La Alegria, 10",40.4333921,-3.6568456,,28027,Madrid,Ciudad Lineal,Concepcion,G80158082,1990-03-13T00:00:00Z,1990-03-13,913640276,info@cecumadrid.org,,De Personas Consumidoras Y Usuarias,Distrito,375,,4f4adcbf8c6f66dcfc8a3282ac2bf10a,,,
9461cce28ebe3e76fb4b931c35a169b0,Association,Asociacion De Padres De Alumnos Colegio Publico Dionisio Ridruejo,asociacion_de_padres_de_alumnos_colegio_publico_dionisio_ridruejo,,"Calle Zipaquira, 14",40.4730182,-3.6345275,,28033,Madrid,Hortaleza,Pinar Del Rey,G80205818,1990-03-14T00:00:00Z,1990-03-14,913819923,ampadionisio@gmail.com,http://ampadionisio.blogspot.com,De Madres Y Padres Del Alumnado,Municipio,115,,f4f6dce2f3a0f9dada0c2b5b66452017,,,
cfee398643cbc3dc5eefc89334cacdc1,Association,Asociacion De Padres De Alumnos Del Colegio De Jesus,asociacion_de_padres_de_alumnos_del_colegio_de_jesus,,"Calle Timon, 18",40.4725867,-3.585105299999999,,28042,Madrid,Barajas,Timon,G28854917,1990-08-03T00:00:00Z,1990-08-03,913293938,ampadejesus@gmail.com,,De Madres Y Padres Del Alumnado,Barrio,600,,,,,
598b3e71ec378bd83e0a727608b5db01,Association,Asociacion Cultural Pintores Madrileños Taller Abierto,asociacion_cultural_pintores_madrileños_taller_abierto,,"Calle Pasa, 6",40.4142611,-3.708848,Local Izdo,28005,Madrid,Centro,Palacio,G80164296,1990-09-03T00:00:00Z,1990-09-03,620452360,asoc.tallerabierto@gmail.com,http://www.pintorestallerabierto.com,Culturales Y Casas Regionales,Municipio,31,,,,,
8e6b42f1644ecb1327dc03ab345e618b,Association,Asociacion De Padres De Alumnos Colegio Publico Pablo Picasso,asociacion_de_padres_de_alumnos_colegio_publico_pablo_picasso,,"Calle Angel Luis De La Herran, 35",40.4711297,-3.6471,,28043,Madrid,Hortaleza,Pinar Del Rey,G79933719,1990-02-26T00:00:00Z,1990-02-26,913817997,juntadirectiva@apa-pablo-picasso.es,http://www.apa-pablo-picasso.es,De Madres Y Padres Del Alumnado,Barrio,251,,f4f6dce2f3a0f9dada0c2b5b66452017,,,
51d92be1c60d1db1d2e5e7a07da55b26,Association,Asociacion De Padres De Alumnos Instituto De Educacion Secundaria Ciudad De Jaen,asociacion_de_padres_de_alumnos_instituto_de_educacion_secundaria_ciudad_de_jaen,,"Calle Madre Rosa Blanco, 25",40.3713361,-3.7019266,,28041,Madrid,Usera,Orcasur,G79691846,1990-02-13T00:00:00Z,1990-02-13,657997701,ampaiesciudadjaen@gmail.com,,De Madres Y Padres Del Alumnado,Municipio,100,,f4f6dce2f3a0f9dada0c2b5b66452017,,,
7fe1f8abaad094e0b5cb1b01d712f708,Association,Asociacion De Padres De Alumnos Fernando Moro Del Colegio Publico Manuel Sainz De Vicuña,asociacion_de_padres_de_alumnos_fernando_moro_del_colegio_publico_manuel_sainz_de_vicuña,,"Calle Camino De Los Vinateros, 104",40.4094954,-3.6499294,Bajo,28030,Madrid,Moratalaz,Marroquina,G28879393,1990-08-02T00:00:00Z,1990-08-02,914379346,apasainzvicuna@telefonica.net,http://www.ampasainzvicuna.blogspot.com,De Madres Y Padres Del Alumnado,Barrio,380,,f4f6dce2f3a0f9dada0c2b5b66452017,,,
d07e70efcfab08731a97e7b91be644de,Association,Asociacion De Madres Y Padres De Alumnos Colegio Publico Hermanos Pinzon,asociacion_de_madres_y_padres_de_alumnos_colegio_publico_hermanos_pinzon,,"Calle Azor, 4",40.3987038,-3.7685289,,28024,Madrid,Latina,Campamento,G79649703,1990-05-02T00:00:00Z,1990-05-02,635886865,pablogilcorona@gmail.com,http://www.ampacolegiopinzon.blogspost.com.es,De Madres Y Padres Del Alumnado,Barrio,55,,f4f6dce2f3a0f9dada0c2b5b66452017,,,
e44fea3bec53bcea3b7513ccef5857ac,Association,Centro De Animacion Social Valdeperales,centro_de_animacion_social_valdeperales,,"Calle Isla De Arosa, 8",40.4808953,-3.715297699999999,,28035,Madrid,Fuencarral-El Pardo,Peñagrande,V79383170,1990-12-27T00:00:00Z,1990-12-27,917307791,valdeperales@valdeperales.org,http://www.valdeperales.com,Otras De Acción Social,Barrio,102,,d961e9f236177d65d21100592edb0769,,,
9431c87f273e507e6040fcb07dcb4509,Association,Asociacion Azabache,asociacion_azabache,,"Calle Casuarina, 20",40.3784219,-3.7653433,5º B Dcha,28044,Madrid,Latina,Las Aguilas,G79190856,1990-12-20T00:00:00Z,1990-12-20,649493552,azabache_ociotl@yahoo.es,,Otras De Acción Social,Barrio,30,,92977ae4d2ba21425a59afb269c2a14e,,,
67f7fb873eaf29526a11a9b7ac33bfac,Association,Asociacion De Madres Y Padres De Alumnos Colegio De Educacion Infantil Y Primaria Mesonero Romanos,asociacion_de_madres_y_padres_de_alumnos_colegio_de_educacion_infantil_y_primaria_mesonero_romanos,,"Calle Pont De Molins, 31",40.3936418,-3.6444831,,28038,Madrid,Puente De Vallecas,Portazgo,G28873552,1989-11-29T00:00:00Z,1989-11-29,639755858,mesoneroampa@hotmail.com,,De Madres Y Padres Del Alumnado,Comunidad De Madrid,125,,f4f6dce2f3a0f9dada0c2b5b66452017,,,
13f3cf8c531952d72e5847c4183e6910,Association,Asociacion De Padres De Alumnos Colegio Publico Legado Crespo,asociacion_de_padres_de_alumnos_colegio_publico_legado_crespo,,"Paseo Acacias, 2",40.4048812,-3.7039507,,28005,Madrid,Arganzuela,Acacias,G80913718,1989-04-12T00:00:00Z,1989-04-12,915286325,apalegadocrespo@gmail.com,http://apalegadocrespo.tumblr.com,De Madres Y Padres Del Alumnado,Municipio,51,,f4f6dce2f3a0f9dada0c2b5b66452017,,,
eed5af6add95a9a6f1252739b1ad8c24,Association,Asociacion De Padres De Alumnos Colegio Santa Francisca Javier Cabrini,asociacion_de_padres_de_alumnos_colegio_santa_francisca_javier_cabrini,,"Calle Santa Francisca Javier Cabrini, 2",40.4642833,-3.637789999999999,,28043,Madrid,Hortaleza,Canillas,G28872810,1989-05-23T00:00:00Z,1989-05-23,695249294,apacolegiocabrini@gmail.com,http://www.apacabrini.es,De Madres Y Padres Del Alumnado,Barrio,706,,c0f168ce8900fa56e57789e2a2f2c9d0,,,
1651cf0d2f737d7adeab84d339dbabd3,Association,"Asociacion De Madres Y Padres De Alumnos Del Instituto De Enseñanza Secundaria ""gran Capitan"" De Madrid","asociacion_de_madres_y_padres_de_alumnos_del_instituto_de_enseñanza_secundaria_""gran_capitan""_de_madrid",,"Paseo Melancolicos, 51",40.4036056,-3.7199915,,28005,Madrid,Arganzuela,Imperial,G80039746,1989-11-22T00:00:00Z,1989-11-22,623180153,tesoreria@ampaiesgrancapitan.org,http://www.ampaiesgrancapitan.org,De Madres Y Padres Del Alumnado,Municipio,389,,f4f6dce2f3a0f9dada0c2b5b66452017,,,
fccb60fb512d13df5083790d64c4d5dd,Association,Asociacion De Vecinos Ramon Gomez De La Serna,asociacion_de_vecinos_ramon_gomez_de_la_serna,,"Calle Ramon Gomez De La Serna, 47",40.4841284,-3.7253281,Sotano,28035,Madrid,Fuencarral-El Pardo,Peñagrande,G80069339,1989-11-17T00:00:00Z,1989-11-17,629137250,avvrgs@gmail.com,,Vecinales,Comunidad De Madrid,300,,735b90b4568125ed6c3f678819b6e058,,,
17e62166fc8586dfa4d1bc0e1742c08b,Association,Asociacion De Vecinos De Carabanchel Alto,asociacion_de_vecinos_de_carabanchel_alto,,"Calle Gomez De Arteche, 15",40.369565,-3.7549315,Bajo,28044,Madrid,Carabanchel,Buenavista,G28440774,1988-02-24T00:00:00Z,1988-02-24,915089562,carabanchelalto@aavvmadrid.org,http://www.carabanchelalto.org,Vecinales,Barrio,505,,735b90b4568125ed6c3f678819b6e058,,,
3c7781a36bcd6cf08c11a970fbe0e2a6,Association,Asociacion Casa De La Region De Murcia,asociacion_casa_de_la_region_de_murcia,,"Calle Costanilla De Los Angeles, 13",40.41940659999999,-3.708171,3º Dcha,28013,Madrid,Centro,Palacio,G78292653,1989-11-09T00:00:00Z,1989-11-09,647613334,casamadrid@murciaenmadrid.org,http://www.murciaenmadrid.org,Culturales Y Casas Regionales,Municipio,338,,cb70ab375662576bd1ac5aaf16b3fca4,,,
d1f255a373a3cef72e03aa9d980c7eca,Association,Asociacion Juvenil Scout Proel 334,asociacion_juvenil_scout_proel_334,,"Calle Andorra, 15",40.4624187,-3.6454872,Bajo,28043,Madrid,Hortaleza,Canillas,G79909990,1989-01-08T00:00:00Z,1989-01-08,669096597,,,Juveniles,Barrio,91,,faafda66202d234463057972460c04f5,d254c8a084d4545bd80577481aa03076,,
e46bc064f8e92ac2c404b9871b2a4ef2,Association,Asociacion Cultural Nuestra Señora Del Carmen De Villaverde,asociacion_cultural_nuestra_señora_del_carmen_de_villaverde,,"Paseo Alberto Palacios, 46",40.3447903,-3.7131088,Piso 3º. Puerta A,28021,Madrid,Villaverde,Villaverde Alto C.H.,G10886646,2022-09-08T00:00:00Z,2022-09-08,667649544,hvirgendelcarmen@gmail.com,,Culturales Y Casas Regionales,Comunidad De Madrid,400,,,,,
e038453073d221a4f32d0bab94ca7cee,Association,Asociacion Vecinal Barrio De Tres Olivos,asociacion_vecinal_barrio_de_tres_olivos,,"Ronda Caballero De La Mancha, 210",40.5004284,-3.6890574,,28034,Madrid,Fuencarral-El Pardo,Valverde,G10818029,2022-05-08T00:00:00Z,2022-05-08,609650321,avtresolivos@gmail.com,,Vecinales,Comunidad De Madrid,214,,,,,
a7f0d2b95c60161b3f3c82f764b1d1c9,Association,Club Deportivo Elemental C.R.V.V. Club Radio Control Villa De Vallecas,club_deportivo_elemental_c.r.v.v._club_radio_control_villa_de_vallecas,,"Calle Monte De Montjuich, 13",40.3808714,-3.6151263,6º C,28031,Madrid,Villa Vallecas,Santa Eugenia,G88272901,2022-04-08T00:00:00Z,2022-04-08,616372715,eusebio39952@gmail.com,,Deportivas,Comunidad De Madrid,45,,,,,
60495b4e033e9f60b32a6607b587aadd,Association,Asociacion Cultural Tarambana Espectaculos,asociacion_cultural_tarambana_espectaculos,,"Calle Dolores Armengot, 31",40.3857614,-3.7432511,,28025,Madrid,Carabanchel,Vista Alegre,G87430112,2022-03-08T00:00:00Z,2022-03-08,609077017,info@tarambana.net,,Culturales Y Casas Regionales,Estatal,12,,,,,
174f8f613332b27e9e8a5138adb7e920,Association,Susurros De Luz,susurros_de_luz,,"Calle Zurbano, 84",40.43758520000001,-3.692554899999999,Escalera A. Planta 2ª. Puerta 1,28010,Madrid,Chamberi,Almagro,G87972592,2022-07-21T00:00:00Z,2022-07-21,639608805,somos@susurrosdeluz.com,http://www.susurrosdeluz.org,Otras De Acción Social,Estatal,29,,,,,
18a9042b3fc5b02fe3d57fea87d6992f,Association,Asociacion Internacional De Miembros De Cuerpos De Seguridad Y Emergencias  -aimcse,asociacion_internacional_de_miembros_de_cuerpos_de_seguridad_y_emergencias___aimcse,,"Calle Espoz Y Mina, 2",40.4165082,-3.7023837,Planta 1ª. Puerta Caja,28012,Madrid,Centro,Sol,G86913415,2022-07-18T00:00:00Z,2022-07-18,657612694,vicentehersa@gmail.com,http://www.aimcse.org,Comerciantes.Empresarios.Profesionales Y Autónomos,Estatal,1762,,,,,
bd22c2ef9e6f0fa97825c6be879f8fa4,Association,Internet De Las Personas Emancipatic,internet_de_las_personas_emancipatic,,"Calle Mateo Inurria, 11",40.4666946,-3.6867648,Piso 6º. Puerta A,28036,Madrid,Chamartin,Castilla,G86870672,2022-07-18T00:00:00Z,2022-07-18,610514543,presidente@emancipatic.org,http://www.emancipatic.org,De Personas Mayores. Jubiladas Y Pensionistas,Estatal,25,,,,,
37588c655ca22f7ca1664a2b211188ff,Association,Asociacion De Vecinos Del Distrito 9,asociacion_de_vecinos_del_distrito_9,,"Calle Poema Sinfonico, 31",40.3724287,-3.7723237,1º B,28054,Madrid,Latina,Cuatro Vientos,G09952979,2022-07-18T00:00:00Z,2022-07-18,654911571,manuel@excelco.es,,Comerciantes.Empresarios.Profesionales Y Autónomos,Comunidad De Madrid,25,,,,,
9f60ab2b55468f104055b16df8f69e81,Association,Asociacion Keymyr Llave De La Paz,asociacion_keymyr_llave_de_la_paz,,"Calle Juan Alvarez Mendizabal, 44",40.4266548,-3.7161817,1º B,28008,Madrid,Moncloa-Aravaca,Arguelles,G09962499,2022-05-07T00:00:00Z,2022-05-07,915401627,etra@etraarquitectos.com,http://www.keymyr.org,Otras De Acción Social,Estatal,78,,,,,
42e7aaa88b48137a16a1acd04ed91125,Association,Agrupacion De Madrileños Y Amigos Los Castizos,agrupacion_de_madrileños_y_amigos_los_castizos,,"Calle Olivar, 7",40.4112781,-3.7016164,Bajo,28012,Madrid,Centro,Embajadores,G78241841,1989-07-26T00:00:00Z,1989-07-26,913691252,correo@loscastizos.es,http://www.loscastizos.es,Culturales Y Casas Regionales,Municipio,94,,cdd96eedd7f695f4d61802f8105ba2b0,,,
2d199f9abd28ea425d262558bde5cf22,Association,Asociacion Huerto Ecologico Pavones,asociacion_huerto_ecologico_pavones,,"Calle Hacienda De Pavones, 344",40.3997367,-3.635121,,28030,Madrid,Moratalaz,Pavones,G10793255,2022-05-07T00:00:00Z,2022-05-07,618020564,huertoecologicopavones@gmail.com,,Medioambientales Y Ecologistas,Comunidad De Madrid,37,,,,,
810dfbbebb17302018ae903e9cb7a483,Association,Asociacion Vecinal Barrio De Cuatro Vientos - Madrid,asociacion_vecinal_barrio_de_cuatro_vientos___madrid,,"Calle Tordesillas, 27",40.36655469999999,-3.7595791,,28044,Madrid,Carabanchel,Buenavista,G10742989,2022-05-07T00:00:00Z,2022-05-07,658445374,avcuatrovientos@gmail.com,http://avcuatrovientos.es,Vecinales,Comunidad De Madrid,12,,,,,
d714d2c5a796d5814c565d78dd16188d,Association,Foro De Cultura Pueblo De Vallecas,foro_de_cultura_pueblo_de_vallecas,,"Calle Sierra De Gredos, 13",40.3792538,-3.62601,3º C,28031,Madrid,Villa Vallecas,Casco H.Vallecas,G10646313,2022-05-07T00:00:00Z,2022-05-07,,cultura.forovivallecas@gmail.com,,Culturales Y Casas Regionales,Comunidad De Madrid,9,,,,,
109f91266ef89cc3690079b28abfe9a3,Association,Asociacion De Directores De Seguridad Privada Online Adispo,asociacion_de_directores_de_seguridad_privada_online_adispo,,"Avenida Peseta, 91",40.3627717,-3.7493113,3º B,28054,Madrid,Carabanchel,Buenavista,G86674900,2022-05-07T00:00:00Z,2022-05-07,657612694,vicentehersa@gmail.com,http://www.adispo.es,Comerciantes.Empresarios.Profesionales Y Autónomos,Estatal,3091,,,,,
a655fbe4b8d7439994aa37ddad80de56,Association,Asociacion Nacional De Hogares Para Niños Privados De Ambiente Familiar Nuevo Futuro,asociacion_nacional_de_hogares_para_niños_privados_de_ambiente_familiar_nuevo_futuro,,"Calle Breton De Los Herreros, 57",40.4394985,-3.693625,Planta Baja - Puerta F,28003,Madrid,Chamberi,Rios Rosas,G28309862,2022-05-07T00:00:00Z,2022-05-07,914411198,madrid@nuevofuturo.org,http://www.nuevofuturo.org,Infantiles,Estatal,33,,,,,
605ac7e4c16b8a013b4779b81f883e66,Association,Club Deportivo Elemental Triatlon Carabanchel,club_deportivo_elemental_triatlon_carabanchel,,"Calle Datil, 23",40.376219,-3.7477514,3º B,28025,Madrid,Carabanchel,Puerta Bonita,G87066320,2022-05-07T00:00:00Z,2022-05-07,657083677,triatloncarabanchel@gmail.com,http://www.triatloncarabanchel.es,Deportivas,Comunidad De Madrid,11,,,,,
6195f47dcff14b8f242aa333cdb2703e,Association,Solidaridad Intergeneracional,solidaridad_intergeneracional,,"Calle Agustin De Betancourt, 17",40.4444395,-3.6954982,Planta 8,28003,Madrid,Chamberi,Rios Rosas,G49225980,2022-05-07T00:00:00Z,2022-05-07,980557838,info@solidaridadintergeneracional.es,http://www.solidaridadintergeneracional.es,Otras De Acción Social,Estatal,1603,,,,,
5eb13cb69b6e20dd7a42030f5936a9dc,Association,Asociacion Creando Inclusion,asociacion_creando_inclusion,,"Calle Anillo Verde, 51",40.4088176,-3.6055996,Planta Baja,28032,Madrid,Vicalvaro,Casco H.Vicalvaro,G88610969,2022-05-07T00:00:00Z,2022-05-07,623036303,info@asociacioncreandoinclusion.org,http://www.asociacioncreandoinclusion.org,De Personas Con Discapacidad,Estatal,20,,,,,
