Gis_X,Gis_Y,Distrito,Barrio,Número de Plazas,Longitud,Latitud,Direccion
"440443,61","4474290,65",1  CENTRO,01-06 SOL,30,-3.701998,40.4171107,"ALCALA, CALLE, DE, 2"
"440480,56","4474301,74",1  CENTRO,01-06 SOL,30,-3.7015636,40.4172132,"ALCALA, CALLE, DE, 6"
"440134,83","4474678,23",1  CENTRO,01-05 UNIVERSIDAD,24,-3.7056739,40.42058,"MIGUEL MOYA, CALLE, DE, 1"
"440012,98","4475760,68",7  CHAMBERÍ,07-02 ARAPILES,18,-3.7072122,40.4303224,"CONDE DEL VALLE DE SUCHIL, PLAZA, DEL, 2"
"440396,4","4475565,36",1  CENTRO,01-05 UNIVERSIDAD,24,-3.7026739,40.4285905,"MANUELA MALASAÑA, CALLE, DE, 3"
"440447,06","4475539,6",1  CENTRO,01-04 JUSTICIA,27,-3.7020743,40.428362,"FUENCARRAL, CALLE, DE, 106"
"440754,26","4475071,08",1  CENTRO,01-04 JUSTICIA,24,-3.6984093,40.4241633,"HORTALEZA, CALLE, DE, 63"
"440811,97","4475187,49",1  CENTRO,01-04 JUSTICIA,21,-3.6977399,40.4252161,"HORTALEZA, CALLE, DE, 75"
"441020,56","4475463,16",7  CHAMBERÍ,07-04 ALMAGRO,24,-3.6953067,40.4277143,"ALONSO MARTINEZ, PLAZA, DE, 6"
"439813,51","4474129,47",1  CENTRO,01-01 PALACIO,24,-3.7094093,40.4156134,"SAN MIGUEL, PLAZA, DE, 9"
"441292,12","4475204,43",1  CENTRO,01-04 JUSTICIA,24,-3.6920816,40.4254027,"MARQUES DE LA ENSENADA, CALLE, DEL, 16"
"440314,86","4475395,19",1  CENTRO,01-05 UNIVERSIDAD,24,-3.7036192,40.4270517,"SAN ANDRES, CALLE, DE, 20"
"440095,53","4475560,73",1  CENTRO,01-05 UNIVERSIDAD,24,-3.7062202,40.4285271,"SAN BERNARDO, CALLE, DE, 87"
"439733,78","4475434,65",1  CENTRO,01-05 UNIVERSIDAD,24,-3.7104727,40.4273652,"CONDE DUQUE, CALLE, DEL, 22"
"439486,2","4475284,13",9  MONCLOA-ARAVACA,09-02 ARGÜELLES,24,-3.7133768,40.4259913,"VENTURA RODRIGUEZ, CALLE, DE, 1"
"439996,77","4475313,59",1  CENTRO,01-05 UNIVERSIDAD,21,-3.7073611,40.4262937,"NORTE, CALLE, DEL, 10"
"439982,39","4474941,66",1  CENTRO,01-05 UNIVERSIDAD,21,-3.7074955,40.4229421,"SAN BERNARDO, CALLE, DE, 22"
"440263,35","4474964,43",1  CENTRO,01-05 UNIVERSIDAD,24,-3.7041859,40.4231675,"CARLOS CAMBRONERO, PLAZA, DE, 2"
"440653,13","4474711,92",1  CENTRO,01-04 JUSTICIA,24,-3.6995679,40.4209206,"PEDRO ZEROLO, PLAZA, DE, 1"
"441007,98","4474817,8",1  CENTRO,01-04 JUSTICIA,24,-3.6953951,40.4218997,"PRIM, CALLE, DE, 4"
"441021,37","4474517,89",1  CENTRO,01-04 JUSTICIA,24,-3.6952095,40.4191989,"ALCALA, CALLE, DE, 49"
"441014,52","4474516,49",1  CENTRO,01-04 JUSTICIA,6,-3.6952901,40.4191858,"ALCALA, CALLE, DE, 49"
"440064,4","4474630,53",1  CENTRO,01-06 SOL,24,-3.7064995,40.4201452,"JACOMETREZO, CALLE, DE, 1"
"439912,56","4474639,35",1  CENTRO,01-01 PALACIO,24,-3.7082901,40.4202137,"SANTO DOMINGO, PLAZA, DE, S/N"
"439715,67","4474384,75",1  CENTRO,01-01 PALACIO,24,-3.7105866,40.417906,"CARLOS III, CALLE, DE, 1"
"440104,48","4474318,99",1  CENTRO,01-06 SOL,24,-3.7059978,40.4173416,"CELENQUE, PLAZA, DEL, 1"
"440102,16","4474309,87",1  CENTRO,01-06 SOL,24,-3.7060243,40.4172593,"CELENQUE, PLAZA, DEL, 1"
"441082,03","4475031,58",1  CENTRO,01-04 JUSTICIA,24,-3.6945421,40.4238308,"SALESAS, PLAZA, DE LAS, 8"
"440984,74","4473861,49",1  CENTRO,01-03 CORTES,27,-3.6955803,40.4132831,"JESUS, CALLE, DE, frente 6"
"440752,57","4474394,64",1  CENTRO,01-03 CORTES,24,-3.6983662,40.4180695,"ALCALA, CALLE, DE, 26"
"440968,62","4474190,29",1  CENTRO,01-03 CORTES,24,-3.6958008,40.416244,"MARQUES DE CUBAS, CALLE, DEL, 25"
"439635,83","4474544,08",1  CENTRO,01-01 PALACIO,27,-3.7115428,40.4193355,"PAVIA, CALLE, DE, 6"
"440050,38","4474208,74",1  CENTRO,01-06 SOL,27,-3.706625,40.4163446,"MAYOR, CALLE, 18"
"440090,59","4474042,64",1  CENTRO,01-06 SOL,18,-3.7061355,40.4148511,"PROVINCIA, PLAZA, DE LA, 1"
"440340,26","4474220,99",1  CENTRO,01-06 SOL,21,-3.7032096,40.4164757,"CARRETAS, CALLE, DE LAS, 3"
"440313,43","4473992,08",1  CENTRO,01-03 CORTES,24,-3.7035044,40.4144117,"JACINTO BENAVENTE, PLAZA, DE, S/N"
"439730,93","4473970,93",1  CENTRO,01-01 PALACIO,24,-3.7103676,40.4141792,"CORDON, PLAZA, DEL, 1"
"439614,82","4474265,33",1  CENTRO,01-01 PALACIO,24,-3.711764,40.4168229,"RAMALES, PLAZA, DE, 5"
"439409,3","4473605,14",1  CENTRO,01-01 PALACIO,24,-3.7141234,40.4108606,"SAN FRANCISCO, PLAZA, DE, 5"
439637,"4473651,64",1  CENTRO,01-01 PALACIO,24,-3.7114443,40.4112961,"SAN FRANCISCO, CARRERA, DE, 1"
439844,"4473646,66",1  CENTRO,01-01 PALACIO,27,-3.7090043,40.4112662,"CEBADA, PLAZA, DE LA, 16"
"440207,51","4473923,52",1  CENTRO,01-02 EMBAJADORES,24,-3.7047463,40.4137865,"CONDE DE ROMANONES, CALLE, DEL, 2"
"440694,54","4473746,65",1  CENTRO,01-02 EMBAJADORES,18,-3.6989898,40.412228,"ATOCHA, CALLE, DE, 56"
"440757,78","4473584,46",1  CENTRO,01-02 EMBAJADORES,24,-3.6982294,40.4107714,"SANTA ISABEL, CALLE, DE, 32"
"440391,04","4473511,6",1  CENTRO,01-02 EMBAJADORES,24,-3.7025446,40.4100889,"LAVAPIES, CALLE, DE, 36"
"440274,63","4473482,26",1  CENTRO,01-02 EMBAJADORES,21,-3.7039138,40.4098162,"MESON DE PAREDES, CALLE, DEL, 35"
"439659,1","4473168,86",1  CENTRO,01-02 EMBAJADORES,21,-3.7111381,40.4069486,"PUERTA DE TOLEDO, GLORIETA, DE LA, 1"
"439998,9","4472999,74",2  ARGANZUELA,02-02 ACACIAS,24,-3.7071178,40.4054496,"RIBERA DE CURTIDORES, CALLE, DE LA, 28"
"440368,37","4472905,07",2  ARGANZUELA,02-02 ACACIAS,24,-3.702755,40.4046233,"EMBAJADORES, GLORIETA, DE, 7 B"
"440424,7","4472996,09",1  CENTRO,01-02 EMBAJADORES,24,-3.7020997,40.4054473,"EMBAJADORES, GLORIETA, DE, 2"
"440667,66","4473061,04",1  CENTRO,01-02 EMBAJADORES,24,-3.6992427,40.4060497,"ATOCHA, RONDA, DE, 36"
"441180,67","4473307,92",1  CENTRO,01-02 EMBAJADORES,24,-3.69322,40.4083102,"SANTA ISABEL, CALLE, DE, 57"
"441148,47","4473243,04",1  CENTRO,01-02 EMBAJADORES,27,-3.6935934,40.4077234,"EMPERADOR CARLOS V, PLAZA, DEL, 7"
"440544,34","4474002,06",1  CENTRO,01-03 CORTES,24,-3.7007838,40.4145181,"SANTA ANA, PLAZA, DE, 9"
"440543,46","4473309,62",1  CENTRO,01-02 EMBAJADORES,24,-3.7007295,40.4082802,"VALENCIA, CALLE, DE, frente 2"
"440592,35","4475345,44",1  CENTRO,01-04 JUSTICIA,21,-3.7003435,40.4266233,"BARCELO, CALLE, DE, 7"
"440455,56","4475063,26",1  CENTRO,01-05 UNIVERSIDAD,24,-3.7019295,40.4240716,"SAN ILDEFONSO, PLAZA, DE, 8"
"440335,43","4474443,96",1  CENTRO,01-06 SOL,24,-3.7032875,40.418484,"CARMEN, PLAZA, DEL, 1"
"439536,86","4475688,34",1  CENTRO,01-05 UNIVERSIDAD,24,-3.7128181,40.4296363,"SANTA CRUZ DE MARCENADO, CALLE, DE, 24"
"440791,91","4474859,51",1  CENTRO,01-04 JUSTICIA,24,-3.6979458,40.4222601,"AUGUSTO FIGUEROA, CALLE, DE, 33"
"440271,27","4475221,1",1  CENTRO,01-05 UNIVERSIDAD,21,-3.7041167,40.4254802,"ESPIRITU SANTO, CALLE, DEL, 30"
"441616,3","4474541,2",3  RETIRO,03-05 JERÓNIMOS,24,-3.6881994,40.4194508,"INDEPENDENCIA, PLAZA, DE LA, 7"
"442720,29","4474753,26",3  RETIRO,03-04 IBIZA,24,-3.675206,40.4214379,"O'DONNELL, CALLE, DE, 30"
"442956,32","4474735,99",3  RETIRO,03-04 IBIZA,24,-3.6724223,40.4212986,"O'DONNELL, CALLE, DE, 48"
"443103,74","4474356,79",3  RETIRO,03-04 IBIZA,24,-3.6706508,40.4178926,"IBIZA, CALLE, DE, 64"
"441513,53","4474235,07",3  RETIRO,03-05 JERÓNIMOS,24,-3.6893825,40.4166859,"ANTONIO MAURA, CALLE, DE, 15"
"441190,08","4473587,45",1  CENTRO,01-03 CORTES,24,-3.6931349,40.410829,"ALMADEN, CALLE, DE, 28"
"441358,92","4473802,81",3  RETIRO,03-05 JERÓNIMOS,21,-3.6911649,40.412781,"ESPALTER, CALLE, DE, 1"
"441551,54","4473499,36",3  RETIRO,03-05 JERÓNIMOS,27,-3.6888669,40.4100609,"ALFONSO XII, CALLE, DE, 54"
"442494,99","4474064,79",3  RETIRO,03-05 JERÓNIMOS,24,-3.6777994,40.4152203,"MENENDEZ PELAYO, AVENIDA, DE, frente 63"
"442816,22","4474149,49",3  RETIRO,03-06 NIÑO JESÚS,24,-3.674021,40.4160054,"DOCE DE OCTUBRE, CALLE, DEL, 28"
"443189,11","4474115,08",3  RETIRO,03-06 NIÑO JESÚS,24,-3.669623,40.415721,"DOCTOR ESQUERDO, CALLE, DEL, 62"
"443229,99","4473642,11",3  RETIRO,03-03 ESTRELLA,24,-3.669099,40.411463,"ASTROS, PLAZA, DE LOS, S/N"
"442595,78","4473679,92",3  RETIRO,03-05 JERÓNIMOS,24,-3.6765768,40.4117601,"MENENDEZ PELAYO, AVENIDA, DE, S/N"
"442436,91","4473301,34",3  RETIRO,03-05 JERÓNIMOS,24,-3.6784149,40.4083387,"MENENDEZ PELAYO, AVENIDA, DE, S/N"
"442712,67","4473182,27",3  RETIRO,03-06 NIÑO JESÚS,24,-3.6751544,40.4072851,"MEDITERRANEO, AVENIDA, DEL, 19"
"443083,53","4473073,95",3  RETIRO,03-01 PACÍFICO,22,-3.6707742,40.4063347,"CONDE DE CASAL, PLAZA, DEL, 8"
"442755,86","4472436,57",3  RETIRO,03-02 ADELFAS,24,-3.6745783,40.4005704,"CERRO DE LA PLATA, CALLE, DEL, 2"
"442252,73","4472937,49",3  RETIRO,03-01 PACÍFICO,24,-3.6805524,40.4050482,"MENENDEZ PELAYO, AVENIDA, DE, 38"
"441412,24","4473206,43",2  ARGANZUELA,02-07 ATOCHA,24,-3.6904816,40.4074122,"CIUDAD DE BARCELONA, AVENIDA, DE LA, S/N"
"441391,88","4473230,32",2  ARGANZUELA,02-07 ATOCHA,27,-3.6907238,40.407626,"CIUDAD DE BARCELONA, AVENIDA, DE LA, S/N"
"441288,14","4473447,57",3  RETIRO,03-05 JERÓNIMOS,24,-3.6919663,40.4095758,"CLAUDIO MOYANO, CALLE, DE, S/N"
"443177,93","4473311,29",3  RETIRO,03-03 ESTRELLA,24,-3.669683,40.4084793,"LIRA, CALLE, DE LA, frente 2"
"442770,38","4473844,96",3  RETIRO,03-06 NIÑO JESÚS,24,-3.6745339,40.4132589,"PIO BAROJA, CALLE, DE, 8 B"
"442918,27","4472746,05",3  RETIRO,03-02 ADELFAS,24,-3.6726923,40.4033695,"DOCTOR ESQUERDO, CALLE, DEL, 191"
"442319,29","4474723,43",3  RETIRO,03-05 JERÓNIMOS,27,-3.6799299,40.4211415,"MENENDEZ PELAYO, AVENIDA, DE, frente 9"
"441180,29","4474447,71",1  CENTRO,01-03 CORTES,21,-3.6933298,40.4185779,"PRADO, PASEO, DEL, S/N"
"442016,68","4475450,66",4  SALAMANCA,04-01 RECOLETOS,24,-3.6835631,40.4276717,"AYALA, CALLE, DE, 44"
"442004,11","4475843,28",4  SALAMANCA,04-06 CASTELLANA,24,-3.6837471,40.4312077,"VELAZQUEZ, CALLE, DE, 73"
"442728,15","4475399,8",4  SALAMANCA,04-02 GOYA,24,-3.6751716,40.4272628,"AYALA, CALLE, DE, 102"
"442000,33","4475163,96",4  SALAMANCA,04-01 RECOLETOS,24,-3.6837297,40.4250878,"GOYA, CALLE, DE, 18"
"442014,61","4475162,88",4  SALAMANCA,04-01 RECOLETOS,6,-3.6835613,40.4250791,"GOYA, CALLE, DE, 20"
"442417,66","4475274,35",4  SALAMANCA,04-02 GOYA,24,-3.6788203,40.4261113,"HERMOSILLA, CALLE, DE, 73"
"441767,83","4475291,85",4  SALAMANCA,04-01 RECOLETOS,24,-3.6864821,40.4262237,"CLAUDIO COELLO, CALLE, DE, 45"
"441518,8","4475235,48",4  SALAMANCA,04-01 RECOLETOS,24,-3.6894124,40.4256984,"GOYA, CALLE, DE, 3"
"441407,18","4474977,73",4  SALAMANCA,04-01 RECOLETOS,21,-3.6907044,40.4233686,"RECOLETOS, PASEO, DE, 22"
"441721,55",4474897,4  SALAMANCA,04-01 RECOLETOS,24,-3.6869914,40.4226634,"CLAUDIO COELLO, CALLE, DE, 19"
"442140,46","4474825,84",4  SALAMANCA,04-01 RECOLETOS,27,-3.6820471,40.4220516,"ALCALA, CALLE, DE, 111"
"442301,64","4474872,66",4  SALAMANCA,04-02 GOYA,27,-3.6801515,40.4224846,"MENENDEZ PELAYO, AVENIDA, DE, 1"
"442705,5","4475058,99",4  SALAMANCA,04-02 GOYA,24,-3.6754079,40.4241911,"FELIPE II, AVENIDA, DE, 5"
"442829,62","4475270,48",4  SALAMANCA,04-02 GOYA,24,-3.6739638,40.4261048,"ALCANTARA, CALLE, DE, 2"
"442835,81","4475123,85",4  SALAMANCA,04-02 GOYA,24,-3.6738777,40.4247843,"GOYA, CALLE, DE, 99"
"443212,16","4474936,49",4  SALAMANCA,04-02 GOYA,24,-3.6694246,40.4231223,"JORGE JUAN, CALLE, DE, 131"
"441967,18","4474727,67",4  SALAMANCA,04-01 RECOLETOS,24,-3.6840806,40.4211552,"ALCALA, CALLE, DE, 95"
"441766,91","4475752,49",4  SALAMANCA,04-06 CASTELLANA,24,-3.6865351,40.4303733,"JOSE ORTEGA Y GASSET, CALLE, DE, 4"
"441505,58","4475354,07",4  SALAMANCA,04-01 RECOLETOS,21,-3.6895792,40.4267658,"CASTELLANA, PASEO, DE LA, 4"
"441684,37","4475386,27",4  SALAMANCA,04-01 RECOLETOS,24,-3.6874745,40.4270684,"SERRANO, CALLE, DE, 46"
"441647,49","4475141,87",4  SALAMANCA,04-01 RECOLETOS,18,-3.6878868,40.4248642,"SERRANO, CALLE, DE, 32"
"441649,86","4475157,87",4  SALAMANCA,04-01 RECOLETOS,18,-3.6878604,40.4250085,"SERRANO, CALLE, DE, 34"
"441599,07","4474779,37",4  SALAMANCA,04-01 RECOLETOS,24,-3.6884243,40.4215952,"SERRANO, CALLE, DE, 8"
"443111,6","4475416,83",4  SALAMANCA,04-02 GOYA,27,-3.670653,40.4274425,"MARTIRES CONCEPCIONISTAS, CALLE, DE LAS, 2"
"442191,64","4475721,98",4  SALAMANCA,04-06 CASTELLANA,24,-3.6815253,40.4301281,"JOSE ORTEGA Y GASSET, CALLE, DE, 32"
"438921,15","4476262,7",9  MONCLOA-ARAVACA,09-01 CASA DE CAMPO,24,-3.7201316,40.4347654,"MORET, PASEO, DE, S/N"
"439144,16","4476128,65",7  CHAMBERÍ,07-01 GAZTAMBIDE,24,-3.7174896,40.4335742,"ARCIPRESTE DE HITA, CALLE, DEL, 8"
"439120,04","4476174,12",7  CHAMBERÍ,07-01 GAZTAMBIDE,24,-3.7177783,40.433982,"ARCIPRESTE DE HITA, CALLE, DEL, 12"
"438517,07","4476028,6",9  MONCLOA-ARAVACA,09-02 ARGÜELLES,24,-3.7248727,40.4326267,"MORET, PASEO, DE, 11"
"438865,35","4475484,09",9  MONCLOA-ARAVACA,09-01 CASA DE CAMPO,24,-3.7207145,40.4277472,"PINTOR ROSALES, PASEO, DEL, frente 38"
"439145,29","4475490,01",9  MONCLOA-ARAVACA,09-02 ARGÜELLES,24,-3.7174151,40.4278211,"QUINTANA, CALLE, DE, 13"
"439181,48","4475218,76",9  MONCLOA-ARAVACA,09-02 ARGÜELLES,24,-3.7169626,40.4253802,"MARQUES DE CERRALBO, PLAZA, DEL, S/N"
"439621,73",4475069,9  MONCLOA-ARAVACA,09-02 ARGÜELLES,24,-3.7117588,40.4240632,"ESPAÑA, PLAZA, DE, S/N"
"439614,47","4475083,02",9  MONCLOA-ARAVACA,09-02 ARGÜELLES,24,-3.7118457,40.4241889,"ESPAÑA, PLAZA, DE, S/N"
"439020,83","4475833,31",9  MONCLOA-ARAVACA,09-02 ARGÜELLES,24,-3.7189152,40.4309046,"ALTAMIRANO, CALLE, DE, 24"
"441605,64","4472470,47",2  ARGANZUELA,02-06 PALOS DE MOGUER,24,-3.688135,40.4007959,"JUAN MARTIN EL EMPECINADO, CALLE, DE, 16"
"441738,36","4472542,79",2  ARGANZUELA,02-07 ATOCHA,24,-3.6865777,40.4014567,"MENDEZ ALVARO, CALLE, DE, 7"
"441043,78","4472723,55",2  ARGANZUELA,02-06 PALOS DE MOGUER,24,-3.6947791,40.4030362,"PALOS DE LA FRONTERA, CALLE, DE, frente 27"
"440718,1","4472592,85",2  ARGANZUELA,02-06 PALOS DE MOGUER,24,-3.6986046,40.4018356,"SANTA MARIA DE LA CABEZA, PASEO, DE, 58"
"440941,06","4475664,68",7  CHAMBERÍ,07-04 ALMAGRO,24,-3.6962626,40.429524,"SANTA ENGRACIA, CALLE, DE, 16"
"439482,59","4475800,04",7  CHAMBERÍ,07-01 GAZTAMBIDE,24,-3.7134685,40.4306386,"GUZMAN EL BUENO, CALLE, DE, 2"
"440683,01","4475810,28",7  CHAMBERÍ,07-03 TRAFALGAR,24,-3.6993182,40.4308173,"MANUEL SILVELA, CALLE, DE, 18"
"441067,49","4476306,28",7  CHAMBERÍ,07-04 ALMAGRO,24,-3.6948316,40.4353128,"FERNANDEZ DE LA HOZ, CALLE, DE, 29"
"440480,69","4476228,15",7  CHAMBERÍ,07-03 TRAFALGAR,24,-3.7017424,40.4345672,"GENERAL ALVAREZ DE CASTRO, CALLE, DEL, 4"
"439915,53","4476159,21",7  CHAMBERÍ,07-02 ARAPILES,24,-3.7083987,40.4339055,"FERNANDO EL CATOLICO, CALLE, DE, 19"
"439313,53","4476733,24",7  CHAMBERÍ,07-01 GAZTAMBIDE,24,-3.7155506,40.4390329,"CEA BERMUDEZ, CALLE, DE, 59"
"439301,59","4476734,02",7  CHAMBERÍ,07-01 GAZTAMBIDE,3,-3.7156915,40.4390391,"CEA BERMUDEZ, CALLE, DE, 59"
"440777,63","4476658,85",7  CHAMBERÍ,07-05 RÍOS ROSAS,24,-3.6982818,40.4384684,"JOSE ABASCAL, CALLE, DE, 33"
"440489,99","4477022,03",7  CHAMBERÍ,07-05 RÍOS ROSAS,20,-3.7017071,40.4417195,"SANTA ENGRACIA, CALLE, DE, 129"
"440293,7","4477027,45",7  CHAMBERÍ,07-05 RÍOS ROSAS,24,-3.704022,40.4417543,"BRAVO MURILLO, CALLE, DE, 44"
"440334,34","4477541,61",7  CHAMBERÍ,07-05 RÍOS ROSAS,24,-3.7035911,40.4463889,"SANTA ENGRACIA, CALLE, DE, 168"
"440637,08","4477625,61",6  TETUÁN,06-02 CUATRO CAMINOS,24,-3.7000292,40.4471673,"DULCINEA, CALLE, DE, 3"
"441017,45","4477274,01",7  CHAMBERÍ,07-05 RÍOS ROSAS,24,-3.6955114,40.444027,"MARIA DE GUZMAN, CALLE, DE, 58"
"441237,54","4476990,04",7  CHAMBERÍ,07-05 RÍOS ROSAS,24,-3.6928901,40.4414845,"SAN JUAN DE LA CRUZ, PLAZA, DE, S/N"
"441417,02","4477410,33",5  CHAMARTÍN,05-01 EL VISO,24,-3.6908127,40.4452833,"CASTELLANA, PASEO, DE LA, 106"
"441885,33","4477430,27",5  CHAMARTÍN,05-01 EL VISO,24,-3.6852925,40.4454958,"REPUBLICA ARGENTINA, PLAZA, DE LA, 6"
"441352,15","4477455,81",7  CHAMBERÍ,07-05 RÍOS ROSAS,24,-3.6915818,40.4456884,"CASTELLANA, PASEO, DE LA, frente 108"
"441442,67","4476752,13",5  CHAMARTÍN,05-01 EL VISO,24,-3.6904495,40.4393558,"JOSE GUTIERREZ ABASCAL, CALLE, DE, S/N"
"442081,95","4476666,37",5  CHAMARTÍN,05-01 EL VISO,24,-3.6829045,40.438628,"VELAZQUEZ, CALLE, DE, 134"
"442081,16","4476654,37",5  CHAMARTÍN,05-01 EL VISO,3,-3.6829127,40.4385198,"VELAZQUEZ, CALLE, DE, 134"
"441537,59","4476315,08",7  CHAMBERÍ,07-04 ALMAGRO,12,-3.6892902,40.4354253,"CASTELLANA, PASEO, DE LA, 43"
"441641,97","4476103,45",4  SALAMANCA,04-06 CASTELLANA,24,-3.6880402,40.4335262,"CASTELLANA, PASEO, DE LA, S/N"
"442474,52","4476217,99",4  SALAMANCA,04-05 LISTA,24,-3.6782355,40.434616,"DIEGO DE LEON, CALLE, DE, 54"
"442707,74","4475961,24",4  SALAMANCA,04-05 LISTA,24,-3.6754628,40.4323192,"JUAN BRAVO, CALLE, DE, 50"
"443050,11","4475675,85",4  SALAMANCA,04-05 LISTA,24,-3.671401,40.4297717,"JOSE ORTEGA Y GASSET, CALLE, DE, 87"
"442435,7","4477286,68",5  CHAMARTÍN,05-01 EL VISO,18,-3.67879,40.4442406,"MARIA FRANCISCA, CALLE, DE, 1"
"442372,1","4477741,71",5  CHAMARTÍN,05-01 EL VISO,24,-3.6795811,40.4483353,"DOCTOR ARCE, AVENIDA, DEL, 45"
"442194,78","4478041,13",5  CHAMARTÍN,05-01 EL VISO,24,-3.6816993,40.4510203,"SERRANO, CALLE, DE, 210"
"441672,11","4477914,69",5  CHAMARTÍN,05-01 EL VISO,24,-3.6878512,40.4498448,"LA HABANA, PASEO, DE, 42"
"441443,38","4477835,19",5  CHAMARTÍN,05-01 EL VISO,24,-3.690541,40.4491125,"CASTELLANA, PASEO, DE LA, S/N"
"441047,89","4477810,45",6  TETUÁN,06-02 CUATRO CAMINOS,24,-3.6952023,40.4488617,"ORENSE, CALLE, DE, 10"
"440733,5","4478240,82",6  TETUÁN,06-02 CUATRO CAMINOS,24,-3.6989497,40.4527163,"GENERAL PERON, AVENIDA, DEL, frente 4"
"441230,1","4478196,25",6  TETUÁN,06-02 CUATRO CAMINOS,24,-3.6930894,40.45235,"GENERAL PERON, AVENIDA, DEL, frente 36"
"441097,89","4478466,69",6  TETUÁN,06-02 CUATRO CAMINOS,24,-3.6946736,40.4547769,"ORENSE, CALLE, DE, 36"
"440575,2","4478749,38",6  TETUÁN,06-02 CUATRO CAMINOS,24,-3.700864,40.4572863,"SAN GERMÁN, CALLE, DE, 55"
"441385,88","4478959,93",6  TETUÁN,06-03 CASTILLEJOS,24,-3.6913229,40.4592406,"SOR ANGELA DE LA CRUZ, CALLE, DE, 2"
"441554,84","4478963,2",5  CHAMARTÍN,05-05 NUEVA ESPAÑA,24,-3.6893305,40.459282,"CASTELLANA, PASEO, DE LA, S/N"
"441946,46","4478886,67",5  CHAMARTÍN,05-04 HISPANOAMÉRICA,24,-3.6847049,40.45862,"ALBERTO ALCOCER, AVENIDA, DE, 22 A"
"442024,96","4478401,51",5  CHAMARTÍN,05-04 HISPANOAMÉRICA,24,-3.6837348,40.4542549,"LA HABANA, PASEO, DE, 63"
"442630,95","4478723,71",5  CHAMARTÍN,05-04 HISPANOAMÉRICA,24,-3.6766176,40.4571995,"COLOMBIA, CALLE, DE, 7"
"438745,93","4474862,31",9  MONCLOA-ARAVACA,09-01 CASA DE CAMPO,24,-3.7220624,40.4221372,"FLORIDA, PASEO, DE LA, 8"
"438754,04","4474853,3",9  MONCLOA-ARAVACA,09-01 CASA DE CAMPO,3,-3.7219659,40.4220566,"FLORIDA, PASEO, DE LA, 6"
"439688,47","4472787,76",2  ARGANZUELA,02-02 ACACIAS,24,-3.7107559,40.4035176,"OLMOS, PASEO, DE LOS, 28"
"440055,04","4472797,85",2  ARGANZUELA,02-02 ACACIAS,21,-3.7064372,40.4036349,"ESPERANZA, PASEO, DE LA, 0,0833333333333333"
"441063,58","4472068,5",2  ARGANZUELA,02-05 DELICIAS,24,-3.6944851,40.3971366,"DELICIAS, PASEO, DE LAS, 94"
"440794,37","4471598,57",2  ARGANZUELA,02-03 CHOPERA,27,-3.6976134,40.3928841,"CHOPERA, PASEO, DE LA, frente 49"
"439478,68","4473946,37",1  CENTRO,01-01 PALACIO,24,-3.7133382,40.4139396,"SEGOVIA, CALLE, DE, 21"
"439113,04","4473926,4",2  ARGANZUELA,02-01 IMPERIAL,24,-3.7176456,40.4137331,"SEGOVIA, CALLE, DE, 47 A"
"440948,66","4472895,98",2  ARGANZUELA,02-06 PALOS DE MOGUER,24,-3.6959159,40.4045828,"SANTA MARIA DE LA CABEZA, PASEO, DE, frente 32"
"439424,51","4472574,58",2  ARGANZUELA,02-02 ACACIAS,24,-3.713846,40.401578,"TOLEDO, CALLE, DE, 181"
"440225,41","4472515,53",2  ARGANZUELA,02-02 ACACIAS,24,-3.704403,40.4011039,"ESPERANZA, PASEO, DE LA, 21"
"440729,75","4472362,64",2  ARGANZUELA,02-05 DELICIAS,24,-3.6984459,40.3997626,"EMBAJADORES, CALLE, DE, 97"
"441146,63","4472482,09",2  ARGANZUELA,02-06 PALOS DE MOGUER,24,-3.6935448,40.4008683,"BUSTAMANTE, CALLE, DE, 1"
"440396,07","4472189,13",2  ARGANZUELA,02-02 ACACIAS,24,-3.7023615,40.3981757,"ESPERANZA, PASEO, DE LA, 59"
"440054,62","4472107,63",2  ARGANZUELA,02-02 ACACIAS,27,-3.7063771,40.397417,"YESERIAS, PASEO, DE LAS, 8"
"440738,79","4471974,72",2  ARGANZUELA,02-03 CHOPERA,21,-3.6983033,40.3962687,"JAIME EL CONQUISTADOR, CALLE, DE, 30"
"441133,61","4471746,54",2  ARGANZUELA,02-05 DELICIAS,24,-3.6936302,40.3942411,"ALICANTE, CALLE, DE, 3"
"441092,45","4471442,79",2  ARGANZUELA,02-05 DELICIAS,24,-3.694087,40.3915019,"BOLIVAR, CALLE, DE, 3"
"442391,73","4472711,75",3  RETIRO,03-01 PACÍFICO,24,-3.6788939,40.4030242,"LEON GIL DE PALACIO, CALLE, DE, 1"
"443221,91","4472140,39",13  PUENTE DE VALLECAS,13-02 SAN DIEGO,24,-3.6690602,40.3979341,"M-30, AUTOVIA, S/N"
"442636,16","4471722,03",2  ARGANZUELA,02-07 ATOCHA,24,-3.6759244,40.3941252,"RETAMA, CALLE, DE LA, 5"
"442595,87","4474391,99",3  RETIRO,03-04 IBIZA,27,-3.67664,40.4181748,"IBIZA, CALLE, DE, 18"
"443541,21","4474444,72",3  RETIRO,03-03 ESTRELLA,24,-3.6655023,40.4187145,"ALCALDE SAINZ DE BARANDA, CALLE, DEL, 90"
"443212,07","4475215,51",4  SALAMANCA,04-02 GOYA,24,-3.6694506,40.4256358,"HERMOSILLA, CALLE, DE, 135"
"443563,66","4475253,54",4  SALAMANCA,04-03 FUENTE DEL BERRO,24,-3.6653095,40.4260023,"MARQUES DE ZAFRA, PASEO, DEL, 24"
"443883,24","4475147,45",4  SALAMANCA,04-03 FUENTE DEL BERRO,24,-3.661533,40.4250682,"MARQUES DE ZAFRA, GLORIETA, DEL, frente 4"
"442466,16","4475602,3",4  SALAMANCA,04-05 LISTA,24,-3.6782783,40.429069,"GENERAL PARDIÑAS, CALLE, DEL, 56"
"443691,7","4475711,36",4  SALAMANCA,04-03 FUENTE DEL BERRO,24,-3.6638407,40.4301353,"ALEJANDRO GONZALEZ, CALLE, DE, 1"
"444111,11","4475822,61",15  CIUDAD LINEAL,15-01 VENTAS,27,-3.6589062,40.4311658,"DAROCA, AVENIDA, DE, 2"
"444399,55","4476248,37",15  CIUDAD LINEAL,15-04 CONCEPCIÓN,24,-3.6555431,40.4350206,"VIRGEN DE LA ALEGRIA, CALLE, DE LA, 18"
"442030,24","4476194,79",4  SALAMANCA,04-06 CASTELLANA,24,-3.6834711,40.4343761,"VELAZQUEZ, CALLE, DE, 91"
"442830,66","4476215,36",4  SALAMANCA,04-04 GUINDALERA,18,-3.6740365,40.4346168,"ALONSO HEREDIA, CALLE, DE, 1"
"443049,28","4475907,11",4  SALAMANCA,04-04 GUINDALERA,27,-3.6714315,40.431855,"TOREROS, AVENIDA, DE LOS, 3"
"443540,74","4475977,26",4  SALAMANCA,04-04 GUINDALERA,24,-3.665644,40.4325204,"TOREROS, AVENIDA, DE LOS, 47"
"442564,99","4476503,98",4  SALAMANCA,04-04 GUINDALERA,24,-3.6771947,40.4371986,"FRANCISCO SILVELA, CALLE, DE, 86"
"442711,2","4476730,39",5  CHAMARTÍN,05-02 PROSPERIDAD,24,-3.6754913,40.4392483,"PADRE INDALECIO HERNANDEZ, CALLE, DEL, 1"
"442749,2","4477268,2",5  CHAMARTÍN,05-03 CIUDAD JARDÍN,24,-3.6750918,40.4440957,"SUERO DE QUIÑONES, CALLE, DE, 2"
"442506,78","4478097,54",5  CHAMARTÍN,05-01 EL VISO,24,-3.6780252,40.4515501,"CONCHA ESPINA, AVENIDA, DE, S/N"
"441342,11","4476060,39",7  CHAMBERÍ,07-04 ALMAGRO,24,-3.6915713,40.4331172,"RUBEN DARIO, GLORIETA, DE, 2"
"439369,52","4476210,1",7  CHAMBERÍ,07-01 GAZTAMBIDE,27,-3.7148406,40.4343244,"FERNANDO EL CATOLICO, CALLE, DE, 61"
"440231,49","4476129,61",7  CHAMBERÍ,07-02 ARAPILES,24,-3.704671,40.4336617,"QUEVEDO, GLORIETA, DE, frente 4"
"440308,49","4476691,87",7  CHAMBERÍ,07-05 RÍOS ROSAS,24,-3.7038161,40.4387323,"JOSE ABASCAL, CALLE, DE, frente al 2"
"439947,59","4476965,21",7  CHAMBERÍ,07-06 VALLEHERMOSO,24,-3.7080969,40.4411686,"SANTANDER, CALLE, DE, S/N"
"439411,53","4477034,58",7  CHAMBERÍ,07-06 VALLEHERMOSO,24,-3.7144239,40.4417547,"GENERAL AMPUDIA, CALLE, DEL, 2"
"440286,36","4477683,16",6  TETUÁN,06-01 BELLAS VISTAS,24,-3.7041702,40.4476606,"DOCTOR SANTERO, CALLE, DEL, 1"
"440361,85","4478331,04",6  TETUÁN,06-01 BELLAS VISTAS,24,-3.7033408,40.4535024,"NAVARRA, CALLE, DE, 1"
"440732,11","4479138,12",6  TETUÁN,06-06 BERRUGUETE,24,-3.6990499,40.4607994,"MARQUES DE VIANA, CALLE, DEL, 5"
"440874,02","4479384,51",6  TETUÁN,06-05 VALDEACEDERAS,18,-3.6973991,40.4630291,"AZUCENAS, CALLE, DE LAS, 1"
"441615,82","4479765,37",5  CHAMARTÍN,05-06 CASTILLA,24,-3.6886852,40.4665125,"CASTELLANA, PASEO, DE LA, S/N"
"441606,43","4479673,82",5  CHAMARTÍN,05-05 NUEVA ESPAÑA,24,-3.6887875,40.4656872,"CASTILLA, PLAZA, DE, 9"
"440392,24","4474584,46",1  CENTRO,01-06 SOL,27,-3.702631,40.4197538,"TRES CRUCES, CALLE, DE LAS, 9"
"440400,99","4474680,19",1  CENTRO,01-05 UNIVERSIDAD,24,-3.7025369,40.4206168,"DESENGAÑO, CALLE, DEL, 3"
"439193,57","4472197,09",11  CARABANCHEL,11-03 SAN ISIDRO,24,-3.7165313,40.3981605,"MARQUES DE VADILLO, GLORIETA, DEL, 9"
"440574,99","4471162,08",12  USERA,12-05 MOSCARDÓ,24,-3.7001575,40.3889363,"ANTONIO LOPEZ, CALLE, DE, 129"
"444286,32","4477179,51",15  CIUDAD LINEAL,15-05 SAN PASCUAL,24,-3.6569597,40.4434012,"CONDESA DE VENADITO, CALLE, DE LA, 2"
"445631,32","4475647,64",15  CIUDAD LINEAL,15-02 PUEBLO NUEVO,24,-3.6409697,40.4296903,"GUTIERRE DE CETINA, CALLE, DE, 77"
"438158,91","4473969,7",10  LATINA,10-02 PUERTA DEL ÁNGEL,24,-3.7288948,40.4140528,"PUERTA DEL ANGEL, PLAZA, DE LA, 3"
"441592,41","4481374,08",8  FUENCARRAL-EL PARDO,08-05 LA PAZ,24,-3.6891094,40.4810028,"PEDRO RICO, CALLE, DE, frente al 4"
"444221,86","4473533,53",14  MORATALAZ,14-04 MEDIA LEGUA,24,-3.6573999,40.4105519,"CAMINO DE LOS VINATEROS, CALLE, DEL, 28"
"445121,32","4473287,59",14  MORATALAZ,14-03 MARROQUINA,24,-3.6467783,40.4083961,"CAMINO DE LOS VINATEROS, CALLE, DEL, 108"
"444725,09","4473041,7",14  MORATALAZ,14-04 MEDIA LEGUA,24,-3.6514264,40.4061548,"ARROYO DE LAS PILILLAS, CALLE, DEL, frente al 4"
"446141,03","4472399,01",14  MORATALAZ,14-01 PAVONES,24,-3.6346859,40.4004579,"HACIENDA DE PAVONES, CALLE, DE LA, 346"
"440362,66","4471479,61",12  USERA,12-05 MOSCARDÓ,24,-3.7026887,40.3917816,"EUGENIO CAXES, CALLE, DE, 5"
"438522,93","4473120,98",10  LATINA,10-01 CÁRMENES,24,-3.7245226,40.4064341,"ERMITA DEL SANTO, PASEO, DE LA, 48"
438160,"4473395,7",10  LATINA,10-02 PUERTA DEL ÁNGEL,24,-3.7288262,40.408882,"CARAMUEL, CALLE, DE, frente al 52"
"443978,28","4472656,95",13  PUENTE DE VALLECAS,13-06 NUMANCIA,24,-3.6601933,40.4026388,"SIERRA TOLEDANA, CALLE, DE LA, 33"
"443934,22","4472275,39",13  PUENTE DE VALLECAS,13-06 NUMANCIA,24,-3.6606789,40.3991986,"VALDERRIBAS, CAMINO, DE, 94"
"443466,29","4471705,78",13  PUENTE DE VALLECAS,13-02 SAN DIEGO,24,-3.6661421,40.3940355,"ARROYO DEL OLIVAR, CALLE, DEL, 4"
"439910,49","4471772,12",11  CARABANCHEL,11-01 COMILLA,24,-3.7080437,40.3943842,"SAN DELFIN, CALLE, DE, 9"
"444985,82","4476472,45",15  CIUDAD LINEAL,15-04 CONCEPCIÓN,24,-3.6486507,40.4370782,"JOSE DEL HIERRO, CALLE, DE, 5"
"444952,82","4477207,59",15  CIUDAD LINEAL,15-05 SAN PASCUAL,24,-3.6491034,40.4436986,"CARLOTA O'NEILL, CALLE, DE, 32"
"444380,2","4476773,28",15  CIUDAD LINEAL,15-05 SAN PASCUAL,24,-3.6558172,40.439748,"DERECHOS HUMANOS, CALLE, DE LOS, 14"
"444989,2","4476001,54",15  CIUDAD LINEAL,15-01 VENTAS,24,-3.6485701,40.4328362,"JOSE MARIA PEREDA, CALLE, DE, 1"
"444381,95","4474904,65",15  CIUDAD LINEAL,15-01 VENTAS,24,-3.655633,40.4229144,"MARQUES DE CORBERA, AVENIDA, DEL, 12"
"444767,03","4475262,41",15  CIUDAD LINEAL,15-01 VENTAS,24,-3.651125,40.426163,"MARQUES DE CORBERA, AVENIDA, DEL, 52"
"441336,7","4471161,52",2  ARGANZUELA,02-04 LEGAZPI,24,-3.6911834,40.3889853,"SODIO, CALLE, DEL, 1 B"
"439149,84","4473225,71",2  ARGANZUELA,02-01 IMPERIAL,24,-3.7171449,40.4074236,"IMPERIAL, PASEO, 20"
"439751,68","4478101,98",6  TETUÁN,06-01 BELLAS VISTAS,24,-3.7105146,40.451395,"FRANCISCO BALSEIRO, CALLE, DE, S/N"
"441220,07","4478625,73",6  TETUÁN,06-02 CUATRO CAMINOS,24,-3.6932474,40.4562183,"SAN GERMÁN, CALLE, DE, 5"
"439975,8","4478692,91",6  TETUÁN,06-06 BERRUGUETE,24,-3.7079276,40.4567345,"FRANCOS RODRIGUEZ, CALLE, DE, 62"
"443939,09","4476439,76",4  SALAMANCA,04-04 GUINDALERA,24,-3.6609886,40.4367138,"BRASILIA, AVENIDA, DE, frente al 9"
"443363,99","4476559,86",4  SALAMANCA,04-04 GUINDALERA,24,-3.6677796,40.4377568,"CAMILO JOSE CELA, AVENIDA, DE, 23"
"443778,78","4476746,49",4  SALAMANCA,04-04 GUINDALERA,24,-3.6629058,40.4394662,"BRUSELAS, AVENIDA, DE, 56"
"443165,91","4476273,63",4  SALAMANCA,04-04 GUINDALERA,24,-3.6700894,40.4351648,"CARTAGENA, CALLE, DE, 38"
"439144,97","4476825,45",7  CHAMBERÍ,07-06 VALLEHERMOSO,24,-3.7175468,40.4398513,"ISAAC PERAL, CALLE, DE, 44"
"439767,36","4476444,58",7  CHAMBERÍ,07-02 ARAPILES,24,-3.7101726,40.4364656,"GALILEO, CALLE, DE, 63"
"440693,2","4476388,4",7  CHAMBERÍ,07-03 TRAFALGAR,24,-3.699252,40.436026,"SANTA ENGRACIA, CALLE, DE, 87"
"441238,82","4476643,99",7  CHAMBERÍ,07-05 RÍOS ROSAS,24,-3.692843,40.4383672,"ZURBANO, CALLE, DE, 90"
"441694,11","4480631,92",8  FUENCARRAL-EL PARDO,08-05 LA PAZ,24,-3.6878414,40.4743243,"SINESIO DELGADO, CALLE, DE, 2"
"441914,27","4481195,42",5  CHAMARTÍN,05-06 CASTILLA,24,-3.6852959,40.4794159,"CASTELLANA, PASEO, DE LA, frente al 298"
"441812,82","4476911,24",5  CHAMARTÍN,05-01 EL VISO,24,-3.6861,40.4408151,"SERRANO, CALLE, DE, 113 b"
"443447,95","4477272,58",5  CHAMARTÍN,05-02 PROSPERIDAD,24,-3.6668532,40.444183,"SANTA HORTENSIA, CALLE, DE, 31"
"442025,04","4480322,99",5  CHAMARTÍN,05-06 CASTILLA,24,-3.6839094,40.4715645,"RODRIGUEZ JAEN, CALLE, DE, S/N"
"441626,91","4478554,58",5  CHAMARTÍN,05-04 HISPANOAMÉRICA,24,-3.688443,40.455606,"DOCTOR FLEMING, CALLE, DEL, 7"
"442639,53","4479150,36",5  CHAMARTÍN,05-05 NUEVA ESPAÑA,24,-3.6765549,40.4610436,"PIO XII, AVENIDA, DE, 3"
"441910,45","4479454,04",5  CHAMARTÍN,05-05 NUEVA ESPAÑA,24,-3.6851815,40.4637286,"GENERAL LOPEZ POZAS, CALLE, DEL, 2"
"439465,58","4477545,36",9  MONCLOA-ARAVACA,09-03 CIUDAD UNIVERSITARIA,24,-3.7138353,40.4463599,"BEATRIZ DE BOBADILLA, CALLE, DE, frente al 2"
"438063,25","4476718,06",9  MONCLOA-ARAVACA,09-03 CIUDAD UNIVERSITARIA,24,-3.73029,40.438804,"JUAN DE HERRERA, AVENIDA, DE, 1"
"438326,14","4477849,84",9  MONCLOA-ARAVACA,09-03 CIUDAD UNIVERSITARIA,24,-3.7273004,40.449019,"COMPLUTENSE, AVENIDA, frente al 14"
"438344,78","4477338,89",9  MONCLOA-ARAVACA,09-03 CIUDAD UNIVERSITARIA,24,-3.727031,40.4444176,"RAMON Y CAJAL, PLAZA, DE, S/N"
"438328,53","4477762,41",9  MONCLOA-ARAVACA,09-03 CIUDAD UNIVERSITARIA,24,-3.7272637,40.4482316,"JOSE ANTONIO NOVAIS, CALLE, DE, S/N"
"438161,53","4478015,95",9  MONCLOA-ARAVACA,09-03 CIUDAD UNIVERSITARIA,24,-3.7292576,40.4505032,"COMPLUTENSE, AVENIDA, frente al 7"
