id,type,name,address,latitude,longitude,detail,zip_code,city,district,subdistrict,tax_code,register_date,phone,email,website,category,geographical_scope,num_affiliates,asoc_madrid,belongs_to
3f647cadf56541fb9513cb63ec370187,Collective,Villaverde Cria,"Calle Getafe,14",40.3434423,-3.707986199999999,2º F,28021,Madrid,Villaverde,Villaverde Alto C.H.,,2019-12-02T00:00:00Z,,villaverde.cria@gmail.com,,Familias,Distrito,10,,
3e77a14629775492504515dc4b23deda,Collective,Plataforma Madrid Agroecologico,"Calle Mequinenza,20",40.4476757,-3.6055031,1º F,28022,Madrid,San Blas-Canillejas,Canillejas,,2019-12-02T00:00:00Z,,madridagroecologico@gmail.com,,Medioambientales Y Ecologistas,Municipio,19,,
c0e8517b1fe0b5270f3f41d4b56d6118,Collective,Plataforma Salvad Las Pequeñas Librerias De La Comunidad De Madrid,"Calle Sierra Molina,26",40.3874183,-3.6684634,Libreria Pencil,28053,Madrid,Puente De Vallecas,San Diego,,2019-02-25T00:00:00Z,606540367,plataformasplm@gmail.com,,"Comerciantes,empresarios,profesionales Y Autónomos",Comunidad De Madrid,250,,
e7e69cdf28f8ce6b69b4e1853ee21bab,Collective,Barraquianos De Tragycom,"Calle Sirio,42",40.4107377,-3.664185599999999,13º A,28007,Madrid,Retiro,Estrella,,2019-12-03T00:00:00Z,629910641,tragycom@gmail.com,,Culturales Y Casas Regionales,,28,,
c5b270a763686e776039618cc709f3a6,Collective,"Colectivo Ciudadano Por El Deporte, La Cultura Y La Convivencia Canchas Rojas","Calle Arroyo De La Bulera,11",40.3390247,-3.6804059,"Bloque D, 7ºa",28021,Madrid,Villaverde,Butarque,,2019-01-04T00:00:00Z,662422180,daysycuevaruiz@gmail.com,,Deportivas,Barrio,3,,
398475c83b47075e8897a083e97eb9f0,Collective,Asociacion Huerto De Ladis,"Calle Ciudadania,14",40.3563962,-3.6908013,Local,28041,Madrid,Villaverde,Los Rosales,,2019-04-22T00:00:00Z,680230149,huertoladis@gmail.com,,Medioambientales Y Ecologistas,Barrio,8,,
49c0fa7f96aa0a5fb95c62909d5190a6,Collective,Comunidad Cristiana Del Espiritu Santo,"Paseo Santa Maria De La Cabeza,12",40.4063662,-3.6947516,"Local, Puerta B",28045,Madrid,Arganzuela,Palos De Moguer,,2019-05-14T00:00:00Z,915130072,oficina.cer@gmail.com,,Otras De Acción Social,Estatal,3,,
74791edf1f8e8b8289a5067737630874,Collective,Sindicato Estatal De Profesionales De Seguridad Y Salud -sepross,"Calle Puente La Reina,39",40.5014143,-3.6763064,5º O,28050,Madrid,Fuencarral-El Pardo,Valverde,,2019-12-02T00:00:00Z,659906671,sepross@sepross.es,,"Comerciantes,empresarios,profesionales Y Autónomos",Estatal,557,,
2122c699d5e3d2fa6690771845bd7904,Collective,Ilustre Colegio De Procuradores De Madrid,"Calle Barbara De Braganza,6",40.42333,-3.6933476,Planta Baja,28004,Madrid,Centro,Justicia,,2019-12-02T00:00:00Z,913081323,decano@icpm.es,,"Comerciantes,empresarios,profesionales Y Autónomos",Comunidad De Madrid,2123,,
9426c311e76888b3b2368150cd05f362,Collective,Colectivo Csa Playa Gata,"Avenida Cardenal Herrera Oria,80",40.4912945,-3.691387599999999,Portal B,28034,Madrid,Fuencarral-El Pardo,Valverde,,2019-07-06T00:00:00Z,6253215109,csaplayagata@gmail.com,,Otras De Acción Social,Municipio,3,,
898aef0932f6aaecda27aba8e9903991,Collective,Apostolicas Del Corazon De Jesus Obras Sociales,"Calle Nicasio Gallego,24",40.4295972,-3.69691,,28010,Madrid,Chamberi,Trafalgar,,2019-12-02T00:00:00Z,914454169,covoluntario@proyectosluzcasanova.org,,Otras De Acción Social,Estatal,6,,
c90e274d55309db944076afb3ff9c391,Collective,Colegio Oficial De Agentes Comerciales De La Comunidad De Madrid,"Calle Ladera De Los Almendros,40",40.39712979999999,-3.6257361,,28032,Madrid,Vicalvaro,Valdebernardo,,2019-12-02T00:00:00Z,609282374,cjuntacolegial@coaccm.org,,"Comerciantes,empresarios,profesionales Y Autónomos",Comunidad De Madrid,1016,,
55a0df4b5a1786cd13a7a8de759859d4,Collective,"La Garbancita Ecologica, S. Coop. Mad. De Consumo Responsable Autogestionado","Calle Puerto Del Milagro,8",40.3850158,-3.6575418,Local,28018,Madrid,Puente De Vallecas,Palomeras Bajas,,2019-05-04T00:00:00Z,618215863,lacestabasica@lagarbancitaecologica.org,,Medioambientales Y Ecologistas,Municipio,33,,
9e406957d45fcb6c6f38c2ada7bace91,Collective,Madrid Borde Sur,"Calle Antonio De Leyva,41",40.3913134,-3.7153292,4º Dcha,28019,Madrid,Carabanchel,Comillas,,2019-08-23T00:00:00Z,638154659,a.lopezparejo@gmail.com,,Otras De Acción Social,Municipio,4,,
83ddfbd1c4f871159c148d7a010e69be,Collective,Fam Y Lias. Recursos Para La Diversidad S. Coop. Mad.,"Calle Esteban Carros,8",40.37357799999999,-3.658443,,28053,Madrid,Puente De Vallecas,Entrevias,,2020-01-27T00:00:00Z,918320114,contacta@famylias.org,http://www.famylias.org,Otras De Acción Social,Municipio,,,
c24fe9f765a44048868b5a620f05678e,Collective,Asociacion Bautista Reformada Del Pacto De Gracia,"Calle Fuendetodos,30",40.403529,-3.7306169,,28047,Madrid,Latina,Los Carmenes,,2020-08-25T00:00:00Z,671653536,info@ibrpg.org,http://www.ibrpg.org,Otras De Acción Social,Estatal,84,,
243be2818a23c980ad664f30f48e5d19,Collective,A3calles Cuidados En Territorio S Coop Mad,"Avenida Donostiarra,13",40.4350146,-3.6575855,,28027,Madrid,Ciudad Lineal,Concepcion,,2020-08-27T00:00:00Z,617879565,a3callescuidados@gmail.com,,De Personas Consumidoras Y Usuarias,Comunidad De Madrid,,,
dfa037a53e121ecc9e0926800c3e814e,Collective,Aeropuerto Participa,"Calle Garganchon,111",40.4509462,-3.584392,"Portal 1, 1ºb",28042,Madrid,Barajas,Aeropuerto,,2020-10-09T00:00:00Z,644011435,info@aeropuertoparticipa.es,http://www.aeropuertoparticipa.es,Vecinales,Comunidad De Madrid,7,,
6236c78e73f52110ae39e588ba88de0b,Collective,El Desvan Social S. Coop. Mad.,"Plaza Memoria Vinculante,3",40.3704842,-3.7099886,Bajo A,28041,Madrid,Usera,Orcasitas,,2020-09-15T00:00:00Z,658329085,alcira@eldesvansocialcoop.com,http://www.eldesvansocialcoop.com,Otras De Acción Social,Comunidad De Madrid,2,,
d35b05a832e2bb91f110d54e34e2da79,Collective,Plataforma Ciudadana De Bares Especiales Musicales (bem),"Calle Churruca,3",40.4268521,-3.7007524,2º Dcha,28004,Madrid,Centro,Justicia,,2021-01-25T00:00:00Z,676825180,plataformabem@gmail.com,,"Comerciantes,empresarios,profesionales Y Autónomos",Municipio,12,,
9854d7afce413aa13cd0a1d39d0bcec5,Collective,Asociacion De Profesionales De La Ilustracion De Madrid (apim),"Calle Hortaleza,20",40.4211825,-3.700276,4º B,28004,Madrid,Centro,Justicia,,2021-01-02T00:00:00Z,623193539,apim@apimadrid.net,,"Comerciantes,empresarios,profesionales Y Autónomos",Comunidad De Madrid,220,,
ee188463935a061dee6df8bf449cb882,Collective,Colectivo Ciudadano Escalada Cuña Verde,"Calle Vicente Camaron,41",40.4059878,-3.7406923,3º C,28011,Madrid,Latina,Puerta Del Angel,,2021-11-02T00:00:00Z,630722053,enriquemf06@hotmail.com,,Deportivas,Barrio,28,,
4d95d05a4fc4eadbc3b9dde67afdca39,Collective,El Hilo Verde,"Calle Puerto De Maspalomas,20",40.4791861,-3.7136347,,28029,Madrid,Fuencarral-El Pardo,El Pilar,,2021-04-23T00:00:00Z,666080506,pablolinaresgomezdelcastillo@gmail.com,,Culturales Y Casas Regionales,Barrio,3,,
d90e5b6628b4291225cba0bdc643c295,Collective,Asociacion Profesional De Tintorerias Y Lavanderias De La Comunidad De Madrid,"Calle Arlaban,7",40.4172127,-3.6987975,6ª - 63,28014,Madrid,Centro,Cortes,,2021-04-28T00:00:00Z,915319340,astylcam@astylcam.com,http://www.astylcam.com,"Comerciantes,empresarios,profesionales Y Autónomos",Comunidad De Madrid,,,
70fc5f043205720a49d973d280eb83e7,Collective,"Plataforma De Afectados De Ocupacion, Leyantiocupas","Calle Hachero,50",40.3908267,-3.6678613,2º D,28053,Madrid,Puente De Vallecas,San Diego,,2021-09-06T00:00:00Z,678981325,leyantiocupas@gmail.com,http://www.leyantiocupas.com,Otras De Acción Social,Estatal,10,,
a58616464d14208b2677a084f5d7456f,Collective,Ritmonia,"Calle Omega,93",40.4019849,-3.5983348,4º D,28032,Madrid,Vicalvaro,Valderrivas,,2021-04-08T00:00:00Z,630729469,enrique.cano2@gmail.com,,Culturales Y Casas Regionales,Barrio,4,,
9425be43ba92c2b4454ca7bf602efad8,Collective,Afectados Por El Plan Urbanistico Colonia Tercio Terol,"Calle Gorrion,7",40.39597330000001,-3.7278097,,28019,Madrid,Carabanchel,San Isidro,,2021-04-08T00:00:00Z,666681468,coloniatercioterol@gmail.com,,Vecinales,Barrio,11,,
4f9c76cf97f84048c5990dd4ef842ea2,Collective,Rondalla Y Coro El Madroño,"Calle San Eudaldo,14",40.40560989999999,-3.601747599999999,2º E,28032,Madrid,Vicalvaro,Casco H.Vicalvaro,,2021-09-15T00:00:00Z,917764109,felix.jimeno@yahoo.es,,Culturales Y Casas Regionales,Barrio,3,,
bbbe7ef28a0018c4484eaa8b2d0a0328,Collective,Grupo Aires De Madrid,"Avenida Guadalajara,111",40.4238362,-3.6105678,"Portal G, 5º A",28022,Madrid,San Blas-Canillejas,Rosas,,2021-09-15T00:00:00Z,635021291,larellanol@hotmail.com,,Culturales Y Casas Regionales,Barrio,25,,
7612936dcc85282c6fa4dd9d4ffe57f1,Collective,Grupo Valdeteatro,"Calle Mercurio,6",40.4052927,-3.6074742,Bajo,28032,Madrid,Vicalvaro,Casco H.Vicalvaro,,2021-09-15T00:00:00Z,649214685,agsalas@pharmamar.com,,Culturales Y Casas Regionales,Barrio,4,,
1bd69c7df3112fb9a584fbd9edfc6c90,Collective,Coral Polifonica Los Madroños De Vicalvaro,"Calle Villardondiego,36",40.4052801,-3.6087214,Centro Cultural El Madroño,28032,Madrid,Vicalvaro,Casco H.Vicalvaro,,2021-09-27T00:00:00Z,,anamariacoral88@gmail.com,,Culturales Y Casas Regionales,Barrio,3,,
f23b3df742bb9fbf6bbf30a05150ac19,Collective,"Plataforma Por La Dignidad, La Libertad Y La Vida","Calle Virtudes,20",40.4376417,-3.6982624,Bajo 5,28010,Madrid,Chamberi,Almagro,,2021-05-10T00:00:00Z,667330345,plataforma.cultural.n@gmail.com,,De Personas Consumidoras Y Usuarias,Estatal,30,,
671d8d05d795091118b1344f715307c4,Collective,Plataforma El Pueblo Por La Verdad,"Calle Virtudes,20",40.4376417,-3.6982624,Bajo 6,28010,Madrid,Chamberi,Almagro,,2021-05-10T00:00:00Z,667330345,africa.ruiz10@gmail.com,,Vecinales,Estatal,70,,
084a8a9aa8cced9175bd07bc44998e75,Collective,Entretejiendo,"Calle Los Galeote,1",40.4024066,-3.606280399999999,"Esc 1, 3º A",28032,Madrid,Vicalvaro,Casco H.Vicalvaro,,2021-02-12T00:00:00Z,619837020,antoniadomingobermejo@gmail.com,,De Mujeres,Barrio,3,,
3be0214185d6177a9aa6adea5a720b09,Collective,Grupo Brisa Flamenca,"Calle Pinillas,5",40.3994185,-3.6237784,4º B,28032,Madrid,Vicalvaro,Valdebernardo,,2021-02-12T00:00:00Z,686433907,brisaroci@gmail.com,,Culturales Y Casas Regionales,Distrito,3,,
4f81b1d964419548f01ca35bbaeeda75,Collective,Parroquia Santa Cecilia,"Calle Medina De Pomar,11",40.4518881,-3.5847593,,28042,Madrid,Barajas,Aeropuerto,,2021-12-14T00:00:00Z,628054417,macaes000@gmail.com,,Vecinales,Barrio,96,,
5b5e6cc50cefa5e9f1f5ca272b136475,Collective,Asociacion De Empresas Productoras De Artes Escenicas De La Comunidad De Madrid (artemad),"Calle Mayor,6",40.416509,-3.7057322,5- 5 Bis,28013,Madrid,Centro,Sol,,2021-12-14T00:00:00Z,915212164,secretaria@artemad.com,,Culturales Y Casas Regionales,Barrio,38,,
1cd73be1e256a7405516501e94e892ac,Collective,Organizacion Nacional De Ciegos Españoles,"Calle Jose Ortega Y Gasset,18",40.4301468,-3.6839949,,28006,Madrid,Salamanca,Castellana,,2021-12-15T00:00:00Z,915329774,ctmadrid@once.es,http://www.once.es,De Personas Con Discapacidad,Barrio,6051,,
ee0e95249268b86ff2053bef214bfeda,Collective,Asociacion  Española De Empresas De Mensajeria,"Avenida General Peron,25",40.4532767,-3.6945641,8º E,28020,Madrid,Tetuan,Cuatro Caminos,,2022-01-25T00:00:00Z,915567685,aem@aem-aem.es,,"Comerciantes,empresarios,profesionales Y Autónomos",Estatal,69,,
354ac345fd8c6d7ef634d9a8e3d47b83,Collective,Asociacion De Productores Y Teatros De Madrid -aptem,"Calle Juan Bravo,20",40.4325961,-3.6826111,1º Izq,28006,Madrid,Salamanca,Castellana,,2022-01-25T00:00:00Z,914352068,info@aptem.es,http://www.aptem.es,Culturales Y Casas Regionales,,28,,
5463b514e21fbd3fec3772fba142a46e,Collective,Union De Actores Y Actrices,"Calle Gran Via,62",40.4222347,-3.7083511,3º Izq,28013,Madrid,Centro,Universidad,,2022-01-24T00:00:00Z,608451253,finanzas@uniondeactores.com,,Culturales Y Casas Regionales,Estatal,2510,,
fb4c48608ce8825b558ccf07169a3421,Collective,Plataforma Cultural-ñ,"Calle Virtudes,20",40.4376417,-3.6982624,Bajo 5,28010,Madrid,Chamberi,Almagro,,2022-02-02T00:00:00Z,667330345,africa.ruiz10@gmail.com,,Vecinales,Barrio,7,,
fa8dbbcb682699544e4e8f2212115f73,Collective,Asociacion De Empresarias Y Empresarios Del Comercio Del Libro De Madrid,"Calle Santiago Rusiñol,8",40.44696750000001,-3.7165295,,28040,Madrid,Moncloa-Aravaca,Ciudad Universitaria,,2022-07-02T00:00:00Z,915338836,info@libreriasdemadrid.es,http://www.libreriasdemadrid.es,Culturales Y Casas Regionales,,134,,
3b9be7e15b46c42911f39a4a9e861022,Collective,Organizacion Sindical De Accion Directa,"Calle Rafael Salazar Alonso,7",40.4159229,-3.668030599999999,Local Izq,28007,Madrid,Retiro,Estrella,,2022-02-18T00:00:00Z,722735984,organizacion@osad.es,http://www.osad.es,Otras De Acción Social,Estatal,260,,
02bf86214e264535e3412283e817deaa,Collective,Redes,"Calle Carrero Juan Ramon,4",40.379227,-3.7284291,Planta Baja,28025,Madrid,Carabanchel,Abrantes,,2022-02-23T00:00:00Z,914624986,redes@redes.coop,,Familias,Distrito,4,,
3983e1512aa570c564fab522bdb3efa5,Collective,Federacion Profesional Del Taxi De Madrid,"Calle Payaso Fofo,24",40.3902521,-3.6605415,,28018,Madrid,Puente De Vallecas,Palomeras Bajas,,2022-03-17T00:00:00Z,914777021,juliosanz@fptaximadrid.es,http://www.fptaximadrid.es,"Comerciantes,empresarios,profesionales Y Autónomos",Comunidad De Madrid,,,
eca89c0554ce99eaf250504971789ede,Collective,Parroquia Nuestra Señora De Loreto,"Calle Alas,21",40.4728241,-3.5835123,,28042,Madrid,Barajas,Timon,,2022-03-17T00:00:00Z,618175840,antoniomotriloar@hotmail.com,,Otras De Acción Social,Barrio,4,,
9ca8c9b0996bbf05ae7753d34667a6fd,Collective,Agrupacion Vecinal Orotava Ca,"Calle Mazo,4",40.4306792,-3.6351989,3º Dcha,28017,Madrid,Ciudad Lineal,Pueblo Nuevo,,2022-03-29T00:00:00Z,605948150,avorotava@gmail.com,https://sites.google.com/view/avorotava/inicio?authuser=1,Vecinales,Barrio,4,,
5e02b868a91671f9140a41f3946f33cb,Collective,Plataforma Contra La Corrupcion En Adultos Tutelados,"Calle Doctor Casal,21",40.4273003,-3.7341872,3º Izq,28008,Madrid,Moncloa-Aravaca,Casa De Campo,,2022-03-29T00:00:00Z,628439468,adultostutelados@gmail.com,,Familias,,4,,
4ee78d4122ef8503fe01cdad3e9ea4ee,Collective,Llave 12,"Calle Botijo,3",40.4493793,-3.7737338,,28023,Madrid,Moncloa-Aravaca,Aravaca,,2022-04-21T00:00:00Z,609089235,frpcruz@telefonica.net,,Culturales Y Casas Regionales,,10,,
1b69ebedb522700034547abc5652ffac,Collective,Asociacion De Profesionales De Radio Y Television De Madrid,"Calle Evaristo San Miguel,8",40.427138,-3.7153689,,28008,Madrid,Moncloa-Aravaca,Arguelles,,2022-10-05T00:00:00Z,689522586,prensa@federacionartv.com,,De Comunicación,Comunidad De Madrid,320,,
a4d8e2a7e0d0c102339f97716d2fdfb6,Collective,Plataforma De Ayuda A Los Necesitados De Arganzuela,"Paseo Santa Maria De La Cabeza,92",40.3976584,-3.7028605,1º G,28045,Madrid,Arganzuela,Acacias,,2022-06-13T00:00:00Z,622287078,luis.miguel.ibanez.bravo@hotmail.com,,Vecinales,Barrio,4,,
f816dc0acface7498e10496222e9db10,Collective,Quedamos A Tocar,"Calle San Juan De Ortega,10",40.5024978,-3.6712353,Portal C,28050,Madrid,Fuencarral-El Pardo,Valverde,,2022-07-21T00:00:00Z,607963471,qatquedamosatocar@gmail.com,,Otras De Acción Social,Barrio,4,,
92977ae4d2ba21425a59afb269c2a14e,Federation,Plena Inclusion Madrid. Organizacion De Entidades En Favor De Personas Con Discapacidad Intelectual De Madrid,"Avenida Ciudad De Barcelona, 108",40.4048956,-3.683278199999999,Esc. 2 Bj. Dcha.,28007,Madrid,Retiro,Pacifico,G28729853,1994-03-05T00:00:00Z,915018335,info@plenamadrid.org,http://plenainclusionmadrid.org/,De Personas Con Discapacidad,Comunidad De Madrid,15000,65,
8c235f89a8143a28a1d6067e959dd858,Federation,Coordinadora Infantil Y Juvenil De Tiempo Libre De Vallecas,"Calle Javier De Miguel, 92",40.3851504,-3.6572793,"2, Local 5",28018,Madrid,Puente De Vallecas,Palomeras Bajas,G79896619,1992-10-30T00:00:00Z,912230414,coordinadora@asociaciones.org,http://www.coordinadora.org.es,Infantiles,Distrito,996,19,
c0f168ce8900fa56e57789e2a2f2c9d0,Federation,Federacion Catolica  De Asociaciones De Padres De Familia Y Padres De Alumnos De Madrid - Fecapa,"Calle Don Ramon De La Cruz, 90",40.4284091,-3.6720122,1º Izq.,28006,Madrid,Salamanca,Goya,G28719193,1991-12-11T00:00:00Z,,madrid@fecapa.e.telefonica.net,,De Madres Y Padres Del Alumnado,Comunidad De Madrid,180000,192,
735b90b4568125ed6c3f678819b6e058,Federation,Federacion Regional De Asociaciones Vecinales De Madrid - Fravm,"Calle Camino De Los Vinateros, 53",40.4108537,-3.6533376,Bis 1º,28030,Madrid,Moratalaz,Media Legua,G28749836,1988-07-04T00:00:00Z,917252909,administracion@aavvmadrid.org,http://www.aavvmadrid.org,Vecinales,Comunidad De Madrid,89663,184,
076a0c97d09cf1a0ec3e19c7f2529f2b,Federation,Fermad - Plataforma Madrileña De Entidades Para La Asistencia A La Persona Adicta Y Su Familia,"Calle Conde De Romanones, 9",40.4131278,-3.7047039,4º Dcha,28012,Madrid,Centro,Embajadores,G78406550,1990-05-10T00:00:00Z,913694448,fermad@telefonica.net,http://www.fermad.org,De Salud Y Apoyo Mutuo,Comunidad De Madrid,1158,19,
56c51a39a7c77d8084838cc920585bd0,Federation,Confederacion Española De Aulas De Tercera Edad,"Avenida De America, 1",40.4378694,-3.6775071,,,Madrid,Chamartin,Prosperidad,,2022-07-21T00:00:00Z,696297014,admin@ceate.es,http://www.ceate.es,"De Personas Mayores, Jubiladas Y Pensionistas",Estatal,1511,9,
ecf5631507a8aedcae34cef231aa7348,Federation,Federacion De Asociaciones Para La Defensa De La Sanidad Publica,"Calle Arroyo De La Media Legua, 29",40.4110982,-3.6560752,Puerta 49,,Madrid,Moratalaz,Media Legua,G81042236,2022-07-18T00:00:00Z,913339087,fadspu@gmail.com,http://www.fadsp.es,De Salud Y Apoyo Mutuo,Estatal,2042,9747,
770c0e7e2af0db73409aa2431aa8f33e,Federation,Federacion De Vecinos De Madrid - Vem,"Calle Victor Andres Belaunde, 52",40.4577508,-3.6800918,"Piso Bajo, Puerta Centro",,Madrid,Chamartin,Hispanoamerica,G67985150,2022-05-26T00:00:00Z,684183496,vem@vecinosmadrid.es,https://www.vecinosmadrid.es/,Vecinales,Comunidad De Madrid,1085,11,
101951fe7ebe7bd8c77d14f75746b4bc,Federation,Federacion De Asociaciones De Mujeres “libres Y Combativas” De La Comunidad De Madrid,"Calle Hermanos Del Moral, 33",40.3925198,-3.7211186,"Planta Baja, Puerta 2",,Madrid,Carabanchel,Opañel,G09837741,2022-03-15T00:00:00Z,605950727,libresycombativasmadrid@gmail.com,,De Mujeres,Comunidad De Madrid,792,3,
f4f6dce2f3a0f9dada0c2b5b66452017,Federation,"Federacion De La Comunidad De Madrid De Asociaciones De Padres Y Madres Del Alumnado ""francisco Giner De Los Rios""","Calle Pilar De Zaragoza, 22",40.43323350000001,-3.6687608,Bajo-jardin,28028,Madrid,Salamanca,Guindalera,G28848497,1989-06-30T00:00:00Z,915539773,info@fapaginerdelosrios.es,http://www.fapaginerdelosrios.org,De Madres Y Padres Del Alumnado,Comunidad De Madrid,56852,379,
4f4adcbf8c6f66dcfc8a3282ac2bf10a,Federation,Federacion De Asociaciones Ciudadanas De Consumidores Y Usuarios Madrid - Facum,"Calle Cava Baja, 30",40.4122855,-3.7095033,Local 7,28005,Madrid,Centro,Palacio,G79281424,1989-06-27T00:00:00Z,913640276,info@cecumadrid.org,,De Personas Consumidoras Y Usuarias,Comunidad De Madrid,1030,3,
ac4e7a4f341e7281b0f6f274f9ec3905,Federation,Federacion De Asociaciones Para La Prevencion Del Maltrato Infantil,"Calle Delicias, 8",40.4039829,-3.6947149,Entreplanta,,Madrid,Arganzuela,Delicias,G79986493,2021-11-25T00:00:00Z,914682662,alejandra.pascual@fapmi.es,http://www.fapmi.es,Otras De Acción Social,Estatal,,1,
3ce83f544dbe69bb4fb19211fc442c2f,Federation,Confederacion Española De Personas Con Discapacidad Fisica Y Organica (cocemfe),"Calle Eugenio Salazar, 2",40.444256,-3.6728057,,,Madrid,Chamartin,Ciudad Jardin,G28681955,2021-09-28T00:00:00Z,917443600,juridico@cocemfe.es,http://www.cocemfe.es,De Personas Con Discapacidad,Estatal,225340,30,
86c51678350f656dcc7f490a43946ee5,Federation,Federacion Madrileña De Espeleologia,"Avenida Salas De Los Infantes, 1",40.4860588,-3.6840019,3º - 7,,Madrid,Fuencarral-El Pardo,Valverde,G79008926,2021-06-28T00:00:00Z,629256870,fme@fmespeleologia.org,http://www.fmespeleologia.org,Deportivas,Comunidad De Madrid,326,19,
af8d9c4e238c63fb074b44eb6aed80ae,Federation,"Federacion De Peritos, Mediadores Y Arbitros - Fepeme","Calle Lope De Rueda, 50",40.4188687,-3.6779918,Bajo Ext,,Madrid,Retiro,Ibiza,G88616172,2021-06-29T00:00:00Z,910917266,admin@fepeme.org,http://www.fepeme.org,"Comerciantes,empresarios,profesionales Y Autónomos",Estatal,1500,10,
298f587406c914fad5373bb689300433,Federation,Federacion Erasmus Student Network España,"Calle Einstein, 7",40.5449645,-3.6934665,,,Madrid,Fuencarral-El Pardo,El Goloso,V83340406,2021-05-28T00:00:00Z,631482642,secretariado@esn-spain.org,,De Estudiantes /alumnado,Estatal,5190,5,
943b5fd1ef60d3a4db537af4a4d0c802,Federation,Femaden – Federacion Madrileña De Enfermedades Neurologicas,"Camino Valderribas, 115",40.3945701,-3.6560944,Bajo,,Madrid,Puente De Vallecas,Numancia,G83868778,2021-05-25T00:00:00Z,647620736,femaden@femaden.org,http://www.femaden.org,De Personas Con Discapacidad,Comunidad De Madrid,3470,4,
4175a4b46a45813fccf4bd34c779d817,Federation,Federacion De Asociaciones Regionales De Estudiantes De Ciencias Economicas Y Empresariales - Aiesec En España,"Calle La Regalada, 5",40.4045395,-3.6747033,3º A,,Madrid,Retiro,Pacifico,G80240096,2021-03-30T00:00:00Z,640194223,finanzasylegalidad@aiesec.es,,De Estudiantes /alumnado,Estatal,25,1,
4837ba5cd49c7f03caaa423049e66daf,Federation,Federacion Madrileña De Montañismo,"Avenida Salas De Los Infantes, 1",40.4860588,-3.6840019,5º - 3,,Madrid,Fuencarral-El Pardo,Valverde,G79488870,2021-11-02T00:00:00Z,915273801,cfballesteros@fmm.es,http://www.fmm.es,Deportivas,Comunidad De Madrid,13642,56,
4175f2ebb265d58c6d8877841d016d08,Federation,Plataforma De Organizaciones De Infancia De La Comunidad - Poi Madrid,"Calle Escosura, 3",40.4341454,-3.7070512,Local 2,,Madrid,Chamberi,Gaztambide,G84727627,2021-11-02T00:00:00Z,915340143,poimadrid@plataformadeinfancia.org,http://www.poimadrid.org,Infantiles,Comunidad De Madrid,160254,27,
5db60c98209913790e4fcce4597ee37c,Federation,Federacion Española De Tiro Con Arco,"Calle Altamirano, 30",40.4307512,-3.7195459,,,Madrid,Moncloa-Aravaca,Arguelles,Q2878039C,2021-08-02T00:00:00Z,619414033,rfeta@federarco.es,http://federarco.es,Deportivas,Estatal,,,
533fa796b43291fc61a9e812a50c3fb6,Federation,Federacion Madrileña De Piragüismo,"Carretera El Pardo, 2",40.4351633,-3.7351339,Km 1,,Madrid,Fuencarral-El Pardo,El Pardo,G79414611,2021-01-21T00:00:00Z,913950127,fmp@piraguamadrid.com,http://www.piraguamadrid.com,Deportivas,Comunidad De Madrid,6046,17,
4c2e5eaae9152079b9e95845750bb9ab,Federation,Federacion  De Asociaciones De Asistencia A Victimas De Violencia Sexual Y De Genero (famuvi),"Avenida Real De Pinto, 26",40.3465898,-3.7063735,1º D,,Madrid,Villaverde,Villaverde Alto C.H.,G80271588,2021-01-20T00:00:00Z,636858923,gestioneconomica@stopviolenciasexual.org,http://www.stopviolenciasexual.org,Familias,Estatal,,,
1c66f4627f1b9679f8db47d1287d7e98,Federation,Confederacion De Juventudes Musicales De España,"Calle Abdon Terradas, 3",40.4348237,-3.7121275,Puerta Izquierda,,Madrid,Chamberi,Gaztambide,G08490559,2020-08-27T00:00:00Z,629302595,info@jmspain.org,http://www.jmspain.org,Culturales Y Casas Regionales,Estatal,470,1,
46d3f6029f6170ebccb28945964d09bf,Federation,"Federacion Española De Mujeres Directivas, Ejecutivas, Profesionales Y Empresarias - Fedepe","Calle Peña Gorbea, 2",40.3957229,-3.6679256,6ª Planta,,Madrid,Puente De Vallecas,San Diego,G80160211,2020-08-27T00:00:00Z,691738260,secretaria@mujeresfedepe.com,,De Mujeres,Estatal,535483,5,
8068fee5f49946b3a8f85b1007cd40bb,Federation,Federacion Empresarial De Asociaciones Territoriales De Agencias De Viajes Españolas - Fetave,"Calle Miguel Angel, 1",40.433482,-3.6916037,Portal Dup Pl Baja,,Madrid,Chamberi,Almagro,G84563584,2020-07-24T00:00:00Z,600049413,fetave@fetave.es,,"Comerciantes,empresarios,profesionales Y Autónomos",Estatal,40,1,
64d52e08cc03e6090bc1ef30b73ccb85,Federation,Federacion Coral De Madrid,"Calle Goya, 99",40.4248464,-3.6738487,2º Dcha,28009,Madrid,Salamanca,Goya,G78175999,2019-10-25T00:00:00Z,655690680,fecormad@fecormad.es,http://www.fecormad.es,Culturales Y Casas Regionales,Comunidad De Madrid,2919,85,
b181eaa49f5924e16c772dcb718fcd0f,Federation,Federacion De Asociaciones Protectoras Y De Defensa Animal De La Comunidad De Madrid,"Calle Delfin, 13",40.4670624,-3.693543,3º A,28029,Madrid,Tetuan,Almenara,V84661164,2019-08-13T00:00:00Z,606994228,fapa@fapam.org,http://www.fapam.org,De Defensa De Los Animales,Comunidad De Madrid,2890,15,
f23d125da1e29e34c552f448610ff25f,Federation,Federacion Madrileña De Salvamento Y Socorrismo,"Avenida Salas De Los Infantes, 1",40.4860588,-3.6840019,Planta 4ª,28034,Madrid,Fuencarral-El Pardo,Valverde,G78420932,2019-08-13T00:00:00Z,650436842,gerente@fmss.es,http://www.fmss.es,Deportivas,Comunidad De Madrid,902,11,
45cef8e5b9570959bd9feaacae2bf38d,Federation,Federacion Española De Daño Cerebral,"Calle Agustin De Betancourt, 21",40.4449624,-3.6954474,Planta 8ª,28003,Madrid,Chamberi,Rios Rosas,G41792284,2019-05-14T00:00:00Z,914178905,mbarbero@fedace.org,,De Personas Con Discapacidad,Estatal,520,4,
820e694038fadbf9b60b834215b46fdb,Federation,Federacion De Asociaciones De Esclerosis Multiple De Madrid (fademm),"Calle San Lamberto, 5",40.4199686,-3.6520067,,28017,Madrid,Ciudad Lineal,La Elipa,G83715474,2019-01-04T00:00:00Z,606053326,presidencia@fademm.org,,De Salud Y Apoyo Mutuo,Comunidad De Madrid,1086,1,
5481b2f34a74e427a2818014b8e103b0,Federation,Federacion Madrileña De Karate Y Disciplinas Asociadas (da),"Calle Alberche, 21",40.4009266,-3.67788,,28007,Madrid,Retiro,Pacifico,G79206975,2019-01-31T00:00:00Z,915018144,info@fmkarate.com,http://fmkarate.com,Deportivas,Comunidad De Madrid,5203,120,
e6e713296627dff6475085cc6a224464,Federation,Union De Asociaciones De Tetuan Mercado De San Enrique,"Calle Mercedes, 6",40.4543954,-3.7020323,,28020,Madrid,Tetuan,Cuatro Caminos,,2019-07-02T00:00:00Z,915705679,unionsanenrique@gmail.com,,Otras De Acción Social,Comunidad De Madrid,13757,8,
1fd7b875d3473501d1b771ebe934ca59,Federation,Union De Asociaciones Familiares,"Calle Alberto Aguilera, 3",40.4296082,-3.7074294,1º Izq,28015,Madrid,Chamberi,Arapiles,G79040796,2018-10-19T00:00:00Z,914463162,unaf@unaf.org,http://unaf.org,Familias,Estatal,14752,16,
9a85c12a21b76392747906fc7b2aff92,Federation,Confederacion Nacional De Centros Especiales De Empleo - Conacee,"Paseo Castellana, 135",40.45955439999999,-3.6912194,Planta 7ª,28046,Madrid,Tetuan,Castillejos,V62552781,2018-09-10T00:00:00Z,911262254,gerencia@conacee.org,http://www.conacee.org,Otras De Acción Social,Estatal,52,1,
15e122e839dfdaa7ce969536f94aecf6,Federation,Federacion De Entidades Y Centros Para La Integracion Y Ayuda De Marginados - Faciam,"Calle Via Carpetana, 47",40.39879010000001,-3.7332751,,28047,Madrid,Carabanchel,San Isidro,G28697324,2018-09-10T00:00:00Z,915595923,faciam@faciam.org,,Otras De Acción Social,Estatal,10448,7,
e945de21a1bb5714a0bc8a897ed32e9f,Federation,Fed. De Coord Asoc De Personas Con Discapacidad Fisica De Las Comu. Aut. De España (fed. Coamificoa,"Calle Azabache, 1bis",40.3921248,-3.724725,Local 1,28019,Madrid,Carabanchel,Opañel,G46942645,2018-04-17T00:00:00Z,913016048,coamificoa@coamificoa.es,http://www.coamificoa.es,De Personas Con Discapacidad,Estatal,57,1,
57f04bb2975420e3b4c73920c687cad7,Federation,Amistad Internacional Scout Y Guia -españa,"Calle Entre Arroyos, 19",40.4087775,-3.6544819,Puerta Bis,28030,Madrid,Moratalaz,Media Legua,G80782139,2018-04-25T00:00:00Z,629393387,secretaria@aisg.es,,Otras De Acción Social,Estatal,80,1,
09060616068d2b9544dc33f2fbe4ce2d,Federation,Asociacion Red Madrileña De Lucha Contra La Pobreza Y La Exclusion Social (eapn Madrid),"Calle Melquiades Biencinto, 7",40.3971796,-3.669018,3º - 3,28053,Madrid,Arganzuela,Delicias,G81298531,2017-08-29T00:00:00Z,661552019,coordinacion@eapnmadrid.org,,Otras De Acción Social,Comunidad De Madrid,499374,61,
334467d41d5cf21e234465a1530ba647,Federation,Confederacion Española De Inmigrantes Emprendedores-cein,"Calle Amparo Usera, 9",40.3880589,-3.701030599999999,,28026,Madrid,Usera,Moscardo,G85978476,2017-09-08T00:00:00Z,629550411,confederaciones@yahoo.es,,De Inmigrantes,Estatal,3458,5,
9c8661befae6dbcd08304dbf4dcaf0db,Federation,Asociacion De Empresarios Y Profesionales De La Carne Y Derivados Carnicos De La Comunidad De Madrid-carnimad,"Caños Enrique Larreta, 5",40.467428,-3.6865853,1º,28036,Madrid,Chamartin,Castilla,G28966430,2006-04-18T00:00:00Z,915471324,abogado@fedecarne.es,,"Comerciantes,empresarios,profesionales Y Autónomos",Comunidad De Madrid,772,,
8deb8d1dd92840f975b6931ab3a3c61e,Federation,Federacion Nacional De Enfermos Y Trasplantados Hepaticos,"Calle Santiago De Compostela, 38",40.4832313,-3.702706499999999,7º,28034,Madrid,Fuencarral-El Pardo,La Paz,V91391375,2017-05-19T00:00:00Z,675952767,secretaria@fneth.org,,De Salud Y Apoyo Mutuo,Estatal,900,3,
4ad13f04ef4373992c9d3046200aa350,Federation,Colegas-confederacion Lgtb Española,"Calle Alamo, 5",40.4239957,-3.7092233,"Bj, Local",28015,Madrid,Centro,Universidad,G92469097,2017-05-16T00:00:00Z,607929460,ramirez.martin.francisco@gmail.com,http://www.colegas.lgbt,Culturales Y Casas Regionales,Estatal,183,3,
1e3b21cb226c39b6aa4634f820b372f3,Federation,Union Madrileña De Asociaciones De Personas Pro Salud Mental -umasam- Federacion Salud Mental Comunidad De Madrid,"Calle Poeta Esteban De Villegas, 12",40.4080152,-3.680045,Bajo Izq,28014,Madrid,Retiro,Jeronimos,G86653615,2017-10-05T00:00:00Z,915130243,coordinacion@saludmentalmadrid.org,http://www.saludmentalmadrid.org,De Personas Con Discapacidad,Comunidad De Madrid,1810,9,
504c296f8eb5fd521e744da4e8371f28,Federation,Federacion Intersectorial De Autonomos De La Comunidad De Madrid (fidacam),"Paseo Infanta Isabel, 17",40.4069569,-3.6874172,Local,28014,Madrid,Retiro,Jeronimos,G80380595,2017-10-05T00:00:00Z,915775142,administracion@fidacam.com,http://www.fidacam.com,"Comerciantes,empresarios,profesionales Y Autónomos",Comunidad De Madrid,415,2,
326fb04c3abf030fe3f4e341f39b573f,Federation,"Plataforma ""khetane"" Del Movimiento Asociativo Gitano Del Estado Español","Plaza Luca De Tena, 2",40.4025596,-3.6932088,Bajo Local,28045,Madrid,Arganzuela,Palos De Moguer,G86515087,2016-09-27T00:00:00Z,649548329,coordinacion@plataformakhetane.org,http://www.plataformakhetane.org,De Derechos Humanos,Estatal,375,1,
0e1ebad68af7f0ae4830b7ac92bc3c6f,Federation,Federacion De Planificacion Familiar Estatal,"Calle San Vicente Ferrer, 86",40.4264884,-3.7089656,Bajo Local,28015,Madrid,Centro,Universidad,V78419884,2017-04-21T00:00:00Z,915913449,info@fpfe.org,http://www.fpfe.org,De Salud Y Apoyo Mutuo,Estatal,53,1,
88e1ce84f9feef5a08d0df0334c53468,Federation,Union De Asociaciones De Trabajadores Autonomos Y Emprendedores De La Comunidad De Madrid (uatae Madrid),"Calle General Palanca, 37",40.3992867,-3.694561,,28045,Madrid,Arganzuela,Delicias,G86249182,2017-04-21T00:00:00Z,915177375,bproyectos@uatae.org,http://www.uatae.org,"Comerciantes,empresarios,profesionales Y Autónomos",Comunidad De Madrid,55339,48,
38811c5285e34e2e3319ab7d9f2cfa5b,Federation,Circulo Empresarial De Atencion A Las Personas (ceaps),"Calle Castello, 95",40.4334365,-3.6811617,2º B,28006,Madrid,Salamanca,Castellana,G87721593,2017-04-24T00:00:00Z,696656643,direccion@ceaps.org,,"Comerciantes,empresarios,profesionales Y Autónomos",Estatal,142,1,
320722549d1751cf3f247855f937b982,Federation,Coordinadora Asociaciones Culturales De Madrid - Coacum,"Calle Santa Julia, 11",40.3945818,-3.6674345,,28053,Madrid,Puente De Vallecas,San Diego,G79006672,1989-02-28T00:00:00Z,914773887,coacum@gmail.com,,Culturales Y Casas Regionales,Comunidad De Madrid,1504,7,
2e0aca891f2a8aedf265edf533a6d9a8,Federation,Federacion Red De Artemisa,"Calle Maestro Arbos, 3",40.3905637,-3.694780499999999,5º Despacho 511,28045,Madrid,Arganzuela,Legazpi,G86219219,2016-09-29T00:00:00Z,917787432,coordinacion@redartemisa.org,,Otras De Acción Social,Estatal,1496,6,
1cfead9959b76ce44a847c850b61c587,Federation,Confederacion Salud Mental España,"Calle Hernandez Mas, 20",40.3810104,-3.6703851,,28053,Madrid,Puente De Vallecas,Entrevias,G46245247,2016-05-09T00:00:00Z,915079248,confederacion@consaludmental.org,http://consaludmental.org,De Salud Y Apoyo Mutuo,Estatal,3568,21,
3b5020bb891119b9f5130f1fea9bd773,Federation,Federacion Española De Lupus,"Calle Moreto, 7",40.4142677,-3.6901571,5º Dcha,28014,Madrid,Retiro,Jeronimos,G29845096,2016-07-20T00:00:00Z,647081061,info@felupus.org,http://www.felupus.org,De Salud Y Apoyo Mutuo,Estatal,400,1,
fc325d4b598aaede18b53dca4ecfcb9c,Federation,Federacion Autismo Madrid,"Calle Costa Verde, 1",40.4678304,-3.6943138,,28029,Madrid,Tetuan,Almenara,G82095456,2016-11-04T00:00:00Z,910133095,info@autismomadrid.es,http://www.autismomadrid.es,Otras De Acción Social,Comunidad De Madrid,943,7,
c02f9de3c2f3040751818aacc7f60b74,Federation,"Faam ""sindicato De Estudiantes""","Calle Escalona, 80",40.3956692,-3.7649134,2º C,28024,Madrid,Latina,Aluche,G83303313,2016-08-02T00:00:00Z,605950727,sindicatoestudiantesmadrid@gmail.com,http://sindicatodeestudiantes.net,Juveniles,Comunidad De Madrid,813,42,
aa6b7ad9d68bf3443c35d23de844463b,Federation,Federacion Española De Enfermedades Metabolicas Hereditarias,"Calle Luis Ruiz, 75",40.4283667,-3.6353021,Local 30,28017,Madrid,Ciudad Lineal,Pueblo Nuevo,G41429440,2015-02-09T00:00:00Z,626225611,federacion@metabolicos.es,http://www.metabolicos.es,De Salud Y Apoyo Mutuo,Estatal,121,3,
e2f9247929b404b2fe98ba6f32301e3b,Federation,Federacion Madrileña De Deportes Para Discapacitados Intelectuales,"Avenida Salas De Los Infantes, 1",40.4860588,-3.6840019,,28034,Madrid,Fuencarral-El Pardo,Valverde,G80830730,2015-04-21T00:00:00Z,913646344,gerencia@femaddi.org,http://www.femaddi.org,Deportivas,Comunidad De Madrid,1123,27,
bc4e356fee1972242c8f7eabf4dff517,Federation,Federacion Española De Asociaciones De Espina Bifida E Hidrocefalia,"Calle Pechuan, 14",40.445334,-3.6759825,,28002,Madrid,Chamartin,Ciudad Jardin,G28726792,2015-04-15T00:00:00Z,650394896,presidencia@febhi.org,http://www.febhi.org,De Salud Y Apoyo Mutuo,Estatal,351,1,
892c3b1c6dccd52936e27cbd0ff683d6,Federation,Federacion  De Asociaciones De Mujeres De La Comunidad De Madrid-famcm,"Calle Bravo Murillo, 4",40.4342003,-3.7039705,Local,28015,Madrid,Chamberi,Trafalgar,G86535119,2015-11-03T00:00:00Z,914296241,f.asociacionesdemujerescm@gmail.com,http://www.federacionasociacionesdemujerescm.org,De Mujeres,Comunidad De Madrid,1000,9,
6e82873a32b95af115de1c414a1849cb,Federation,Federacion Española Del Pueblo Gitano,"Calle Ruidera, 10",40.3813426,-3.6743419,Local A,28053,Madrid,Puente De Vallecas,Entrevias,G87071676,2015-03-03T00:00:00Z,603165053,federacion.esppg@hotmail.com,,Otras De Acción Social,Estatal,315,2,
ec7f346604f518906d35ef0492709f78,Federation,Asociacion Red De Ongd De Madrid,"Calle Embajadores, 26",40.4092202,-3.705752,Local 4,28012,Madrid,Centro,Embajadores,V81310278,2015-06-02T00:00:00Z,915288033,coordinacion@redongdmad.org,www.redongdmad.org,Para La Cooperación Al Desarrollo,Comunidad De Madrid,785644,90,
e98741479a7b998f88b8f8c9f0b6b6f1,Federation,Federacion De Asociaciones Bolivianas Y Latinoamericanas (fedabol),"Calle Francisco Ruiz, 9",40.3821502,-3.7034895,"Bajo, Local 20 Y 36",28026,Madrid,Usera,Almendrales,G85434173,2014-06-05T00:00:00Z,912227352,fedefedabol@yahoo.es,,De Inmigrantes,Comunidad De Madrid,452,5,
e6af401c28c1790eaef7d55c92ab6ab6,Federation,Confederacion De Asociaciones De Enfermos De Crohn Y Colitis Ulcerosa De España - Accu España,"Calle Enrique Trompeta, 6",40.39267299999999,-3.6956669,Bajo 1,28045,Madrid,Arganzuela,Chopera,G82047143,2014-05-03T00:00:00Z,915426326,accuesp@accuesp.com,http://www.accuesp.com,De Salud Y Apoyo Mutuo,Estatal,716,1,
a78482ce76496fcf49085f2190e675b4,Federation,"Liga Reumatologica Española, Asociacion De Organizaciones Y Personas Con Enfermedades Reumaticas Y Musculoesqueleticas - Lire","Paseo Delicias, 30",40.4045482,-3.6938232,Planta 2ª,28045,Madrid,Arganzuela,Palos De Moguer,G28511848,2013-02-12T00:00:00Z,692271099,lire@lire.es,http://www.lire.es,De Salud Y Apoyo Mutuo,Estatal,125,3,
d53697441ef12a45422f6660202f9840,Federation,Down España - Federacion Española De Instituciones Para El Sindrome De Down,"Calle Machaquito, 58",40.4576841,-3.6259696,Bajo,28043,Madrid,Hortaleza,Piovera,G80245780,2013-11-11T00:00:00Z,917160710,downespana@sindromedown.net,http://www.sindromedown.net,De Salud Y Apoyo Mutuo,Estatal,1108,5,
d210cf373cf002a04ec72ee395f66306,Federation,Federacion De Personas Sordas De La Comunidad De Madrid - Fesorcam,"Calle Florestan Aguilar, 11",40.4308795,-3.6678839,Bajo,28028,Madrid,Salamanca,Guindalera,G78509288,2013-06-27T00:00:00Z,917253757,administracion2@fesorcam.org,http://www.fesorcam.org,De Personas Con Discapacidad,Comunidad De Madrid,380,2,
08f38e0434442128fab5ead6217ca759,Federation,Asociacion Madrileña De Organizaciones De Atencion A Las Personas Con Paralisis Cerebral Y Afines (aspace Madrid),"Calle Tabatinga, 11",40.4444406,-3.6322663,,28027,Madrid,San Blas-Canillejas,El Salvador,G82633256,2013-01-23T00:00:00Z,670318674,proyectos@aspacemadrid.org,http://www.aspacemadrid.org,De Salud Y Apoyo Mutuo,Comunidad De Madrid,581,10,
ad47a008a2f806aa6eb1b53852cd8b37,Federation,Asociacion De Clubes De Pelota De Madrid Y Sigla - Acpm,"Calle Benidorm, 28",40.4314632,-3.6515144,Bajo H,28017,Madrid,Ciudad Lineal,Ventas,G86519675,2012-05-12T00:00:00Z,913265350,ortegocuesta@gmail.com,http://www.asociacioncpm.org,Deportivas,Comunidad De Madrid,45,2,
cdd96eedd7f695f4d61802f8105ba2b0,Federation,Federacion De Grupos Tradicionales Madrileños,"Calle Sierra De Contraviesa, 14",40.384337,-3.6708604,Bajo,28053,Madrid,Puente De Vallecas,Entrevias,G79307955,2012-11-26T00:00:00Z,669751037,federacion.grupos.tradicionales@gmail.com,http://www..federaciongrupostradicionalesmadrilenos.com,Culturales Y Casas Regionales,Comunidad De Madrid,592,7,
2e74c2cf88f68a68c84e9509abc7ea56,Federation,Federacion Madrileña De Folclore,"Avenida Cordoba, 15",40.385096,-3.6978156,,28026,Madrid,Usera,Almendrales,G82620667,2012-10-22T00:00:00Z,609143675,director@balletfolcloricodemadrid.es,,Culturales Y Casas Regionales,Estatal,581,4,
3a0844cee4fcf57de0c71e9ad3035478,Federation,Federacion Española De Transplantados De Corazon (fetco),"Calle Cerro Blanco, 14",40.3817485,-3.7164792,Local 19,28026,Madrid,Usera,Zofio,G81414328,2012-03-09T00:00:00Z,917510479,presidencia@fetco.es,http://www.fetco.es,De Salud Y Apoyo Mutuo,Estatal,152,1,
e97c864e8ac67f7aed5ce53ec28638f5,Federation,"Confederacion De Asociaciones Independientes De Jubilados, Retirados Y Pensionistas - C.A.I.","Calle Concepcion Jeronima, 8",40.414001,-3.7051202,Centro - 3º Izq,28012,Madrid,Centro,Sol,G79044194,2012-02-08T00:00:00Z,913690738,ragaca55@gmail.com,,"De Personas Mayores, Jubiladas Y Pensionistas",Estatal,34,1,
028ee724157b05d04e7bdcf237d12e60,Federation,Federacion De Asociaciones De Ingenieros Industriales De España,"Calle General Arrando, 38",40.4316262,-3.6930899,,28010,Madrid,Chamberi,Almagro,G28214377,2012-07-26T00:00:00Z,915210070,faiie@iies.es,http://www.ingenierosindustriales.es,"Comerciantes,empresarios,profesionales Y Autónomos",Estatal,6867,1,
daaaf13651380465fc284db6940d8478,Federation,Union De Asociaciones De Ingenieros Tecnicos Industriales  Y Graduados En Ingenieria De La Rama Industrial De España (uaitie),"Avenida Pablo Iglesias, 2",40.4426774,-3.704842599999999,2ª Planta,28003,Madrid,Chamberi,Vallehermoso,G28196061,2012-07-23T00:00:00Z,915541806,uaitie@uaitie.es,http://www.uaitie.es,"Comerciantes,empresarios,profesionales Y Autónomos",Estatal,6867,1,
2417dc8af8570f274e6775d4d60496da,Federation,Federacion Española Sindrome X Fragil,"Plaza Carballo, 8",40.47774700000001,-3.7048894,10º - 3,28029,Madrid,Fuencarral-El Pardo,El Pilar,G61897948,2012-07-16T00:00:00Z,629964478,jguzman@xfragil.org,http://xfragil.org,De Salud Y Apoyo Mutuo,Estatal,114,1,
f35a2bc72dfdc2aae569a0c7370bd7f5,Federation,Federacion Española De Bancos De Alimentos,"Carretera Colmenar Viejo, Km. 12,800",40.5785398,-3.7052138,Ciudad Escolar,28049,Madrid,Fuencarral-El Pardo,El Pardo,G82410432,2012-06-19T00:00:00Z,917356390,angeles@fesbal.org,http://www.fesbal.org,Otras De Acción Social,Estatal,556,1,
f12f2b34a0c3174269c19e21c07dee68,Federation,Federacion De Mujeres Y Familias Del Ambito Rural - Amfar,"Calle Agustin De Betancourt, 17",40.4444395,-3.6954982,7ª Planta,28003,Madrid,Chamberi,Rios Rosas,V82616582,2012-06-20T00:00:00Z,667696906,amfarcr@mujerrural.com,http://www.mujerrural.com,De Mujeres,Estatal,1985,1,
09a5e2a11bea20817477e0b1dfe2cc21,Federation,Federacion De Asociaciones De Consumidores Y Usuarios De Los Medios (icmedia),"Calle Rufino Blanco, 8",40.4277879,-3.6664908,3º B,28028,Madrid,Salamanca,Fuente Del Berro,G80508682,2012-06-18T00:00:00Z,915349018,mpellico@icmedianet.org,,De Personas Consumidoras Y Usuarias,Estatal,80,1,
06c284d3f757b15c02f47f3ff06dc275,Federation,Organizacion Impulsora De Discapacitados (o.I.D.),"Calle Gran Via, 57",40.4218207,-3.708866499999999,7º B,28013,Madrid,Centro,Palacio,G47337118,2012-06-18T00:00:00Z,925054000,abogadosoid@gmail.com,,Otras De Acción Social,Internacional,79,1,
c60d870eaad6a3946ab3e8734466e532,Federation,Federacion De Comunidades Andaluzas Centro De España - Fecace,"Calle Gran Via, 29",40.4199556,-3.7032848,4º - 14,28013,Madrid,Centro,Sol,V79083754,2012-06-18T00:00:00Z,915320037,secretaria@fecace.com,http://www.fecace.es,Culturales Y Casas Regionales,Estatal,970,3,
48c3ec5c3a93a9e294a8a6392ccedeb4,Federation,Liga Española De La Educacion Y La Cultura Popular (l.E.E.C.P.),"Calle Vallehermoso, 54",40.4359481,-3.7083511,1º - 1,28015,Madrid,Chamberi,Arapiles,G78519543,2012-10-01T00:00:00Z,915945338,laliga@ligaeducacion.org,http://www.ligaeducacion.org,Culturales Y Casas Regionales,Estatal,45,1,
2288f691b58edecadcc9a8691762b4fd,Federation,Coordinadora Nacional De Artritis - Conartritis,"Calle Ferrocarril, 18",40.4010697,-3.6955924,2º -  Oficina 1,28045,Madrid,Arganzuela,Palos De Moguer,G84188671,2011-12-16T00:00:00Z,915352141,conartritis@conartritis.org,http://www.conartritis.org,De Salud Y Apoyo Mutuo,Estatal,432,1,
250413d2982f1f83aa62a3a323cd2a87,Federation,Federacion Ecom - Federacion De Entidades De Personas Con Discapacidad Fisica,"Calle German Perez Carrasco, 65",40.436857,-3.642721099999999,Local,28027,Madrid,Ciudad Lineal,Quintana,G08803801,2011-02-21T00:00:00Z,934515550,,,De Salud Y Apoyo Mutuo,Estatal,,9,
cb70ab375662576bd1ac5aaf16b3fca4,Federation,Federacion De Casas Regionales En Madrid,"Calle Hexagonos, S/n",40.4125075,-3.7416013,Recinto Ferial Casa De Campo,28011,Madrid,Moncloa-Aravaca,Casa De Campo,V28930287,1988-04-10T00:00:00Z,913166216,,,Culturales Y Casas Regionales,Comunidad De Madrid,53280,27,
d254c8a084d4545bd80577481aa03076,Federation,Federacion Madrileña De Escultismo (f.M.E.),"Calle Hortaleza, 19",40.42160579999999,-3.7003533,1º Izq,28004,Madrid,Hortaleza,Valdefuentes,G82839762,2010-02-24T00:00:00Z,914294321,info@madridscout.org,http://www.madridscout.org,Juveniles,Comunidad De Madrid,6150,2,
619205da514e83f869515c782a328d3c,Federation,Federacion Scout Regional De Madrid,"Avenida Ciudad De Barcelona, 208",40.3997274,-3.6723126,1º A,28007,Madrid,Retiro,Adelfas,G80727225,2009-12-11T00:00:00Z,914615591,oficinafsrm@gmail.com,http://federacionscoutregionaldemadrid.com,Juveniles,Comunidad De Madrid,321,4,
6211080fa89981f66b1a0c9d55c61d0f,Federation,Asociacion De Empresarios De La Pequeña Y Mediana Empresa De Villaverde - Usera (facovu),"Avenida Orovilla, 54",40.3586382,-3.6901373,Semillero De Empresas De Villaverde,28041,Madrid,Villaverde,Los Rosales,G83915421,2009-08-07T00:00:00Z,917160620,,,"Comerciantes,empresarios,profesionales Y Autónomos",Distrito,540,8,
ffedf5be3a86e2ee281d54cdc97bc1cf,Federation,Union De Federaciones Deportivas Madrileñas (ufedema),"Calle Castello, 107",40.4353352,-3.680824899999999,1º B,28006,Madrid,Salamanca,Castellana,G79163721,2009-01-07T00:00:00Z,915621232,ufedema@ufedema.es,http://www.ufedema.com,Deportivas,Comunidad De Madrid,3,57,
80537a945c7aaa788ccfcdf1b99b5d8f,Federation,Asociacion Madrileña De Empresas De Insercion (amei),"Calle Montera, 10",40.4175612,-3.702565899999999,"12, 2º 6ª",28013,Madrid,Centro,Sol,G81181380,2009-03-06T00:00:00Z,915220843,amei@amei.es,http://www.amei.es,"Comerciantes,empresarios,profesionales Y Autónomos",Comunidad De Madrid,8,8,
f6c79f4af478638c39b206ec30ab166b,Federation,Confederacion Nacional De Mujeres En Igualdad,"Calle Arroyo Del Olivar, 162",40.3881869,-3.6518792,Local Puerta De Calle,28018,Madrid,Puente De Vallecas,Portazgo,G80409105,2009-02-27T00:00:00Z,915577071,info@mujeresenigualdad.com,http://www.mujeresenigualdad.com,De Mujeres,Estatal,10633,29,
487d4c6a324446b3fa45b30cfcee5337,Federation,Federacion De Comercio Agrupado Y Mercados De La Comunidad De Madrid - Cocam,"Calle Conde De Torralba, 11",40.4784309,-3.6849439,1ª Planta,28046,Madrid,Chamartin,Castilla,G83185314,2009-02-17T00:00:00Z,914754148,gerenciacocam@comerciomadrid.org,http://comerciomadrid.org,"Comerciantes,empresarios,profesionales Y Autónomos",Comunidad De Madrid,1442,20,
2a8a812400df8963b2e2ac0ed01b07b8,Federation,Federacion De Asociaciones De Familias Y Mujeres Del Medio Rural De La Comunidad De Madrid - Federacion Afammer Comunidad De Madrid,"Calle Oviedo, 30",40.448746,-3.6989758,Bajo,28020,Madrid,Tetuan,Cuatro Caminos,G85603322,2009-09-02T00:00:00Z,918158449,,,De Mujeres,Comunidad De Madrid,747,1,
f3d9de86462c28781cbe5c47ef22c3e5,Federation,Federacion Catolica Española De Servicios A La Juventud Femenina (acisjf),"Calle Ramos Carrion, 9",40.4466139,-3.668543,Sotano A,28002,Madrid,Chamartin,Prosperidad,V28596534,2009-12-01T00:00:00Z,914130482,comunicacion@federacionacisjf.com,http://www.federacionacisjf.com,Otras De Acción Social,Estatal,31,1,
01894d6f048493d2cacde3c579c315a3,Federation,Plataforma De Asociaciones De Tetuan,"Calle Mundillo, 6",40.4653888,-3.6963103,,28029,Madrid,Tetuan,Valdeacederas,G84358340,2009-12-01T00:00:00Z,913151112,almenara@radioalmenara.net,,Otras De Acción Social,Distrito,,,
1368ba1ab6ed38bb1f26f36673739d54,Federation,"Confederacion De Empresarios De Comercio Minorista, Autonomos Y De Servicios De La Comunidad De Madrid - Cecoma","Calle Diego De Leon, 58",40.4343597,-3.6771202,1º Izq,28006,Madrid,Salamanca,Lista,G79415089,2008-12-15T00:00:00Z,913093016,,http://www.cecoma.org,"Comerciantes,empresarios,profesionales Y Autónomos",Comunidad De Madrid,35000,43,
e45823afe1e5120cec11fc4c379a0c67,Federation,Confederacion General De La Pequeña Y Mediana Empresa Del Estado Español - Copyme,"Paseo Infanta Isabel, 17",40.4069569,-3.6874172,Local,28014,Madrid,Retiro,Jeronimos,G28613792,2008-07-11T00:00:00Z,914350612,confederacion@copyme.es,http://www.copyme.es,"Comerciantes,empresarios,profesionales Y Autónomos",Estatal,6123,22,
5249ee8e0cff02ad6b4cc0ee0e50b7d1,Federation,Confederacion Del Comercio Especializado De La Comunidad De Madrid - Cocem,"Calle Alberto Aguilera, 66",40.4308283,-3.7151318,1º Dcha,28015,Madrid,Chamberi,Gaztambide,G83517748,2008-06-11T00:00:00Z,918285707,presidencia@cocem.es,http://www.cocem.es,"Comerciantes,empresarios,profesionales Y Autónomos",Comunidad De Madrid,20000,14,
2cad8fa47bbef282badbb8de5374b894,Federation,Federacion De Centros Juveniles Valdoco,"Calle Marques De La Valdavia, 2",40.4062522,-3.6962292,1º,28012,Madrid,Arganzuela,Palos De Moguer,G79462032,2008-08-01T00:00:00Z,911109140,valdoco@valdoco.org,http://www.valdoco.org,Juveniles,Estatal,2485,12,
978d76676f5e7918f81d28e7d092ca0d,Federation,Federacion De Plataformas Sociales Pinardi,"Calle Marques De La Valdavia, 2",40.4062522,-3.6962292,,28012,Madrid,Arganzuela,Palos De Moguer,G83169524,2008-08-01T00:00:00Z,914681252,pinardi@pinardi.com,http://www.pinardi.com,Otras De Acción Social,Estatal,150,4,
a1d7311f2a312426d710e1c617fcbc8c,Federation,Federacion De Empresarios De La Comunidad De Madrid - Fedecam,"Calle Arroyo De La Elipa, 12",40.4319447,-3.6434516,Local 2,28017,Madrid,Ciudad Lineal,Pueblo Nuevo,G82734724,2008-08-01T00:00:00Z,913680404,info@fedecam.es,http://www.fedecam.es,"Comerciantes,empresarios,profesionales Y Autónomos",Comunidad De Madrid,10000,43,
a03fa30821986dff10fc66647c84c9c3,Federation,Comite De Entidades Representantes De Personas Con Discapacidad De La Comunidad Autonoma De Madrid - Cermi,"Calle Prim, 3",40.4220662,-3.694831699999999,3º Despacho 321,28004,Madrid,Centro,Justicia,G82698846,2008-08-01T00:00:00Z,915229265,cermimadrid@cermimadrid.org,http://www.cermimadrid.org,De Salud Y Apoyo Mutuo,Comunidad De Madrid,103000,10,
584b98aac2dddf59ee2cf19ca4ccb75e,Federation,Union De Radios Libres Y Comunitarias De Madrid,"Calle Magnolias, 35",40.468715,-3.6923836,,28029,Madrid,Tetuan,Almenara,G81420093,2007-03-07T00:00:00Z,911410643,urcm.mariano@gmail.com,http://www.urcm.net,Culturales Y Casas Regionales,Comunidad De Madrid,502,6,
8d8818c8e140c64c743113f563cf750f,Federation,Federacion Madrileña De Asociaciones De Padres Y Amigos De Los Sordos - Femapas,"Calle Martinez Izquierdo, 80",40.43513129999999,-3.6629612,Local,28028,Madrid,Salamanca,Guindalera,G82687260,2007-03-22T00:00:00Z,913558964,,,De Salud Y Apoyo Mutuo,Comunidad De Madrid,395,2,
06964dce9addb1c5cb5d6e3d9838f733,Federation,"Femas - Federacion Madrileña De Federaciones Y Asociaciones De Prejubilados, Jubilados Y Pensionistas","Calle Montera, 34",40.4191302,-3.7018546,1º - 3,28013,Madrid,Centro,Sol,G83928861,2007-02-19T00:00:00Z,915239881,,,"De Personas Mayores, Jubiladas Y Pensionistas",Estatal,1083,1,
6f2688a5fce7d48c8d19762b88c32c3b,Federation,Federacion De Africanos En El Mundo - Fam,"Calle Puerto De Somiedo, 21",40.3888615,-3.6485536,Bajo A,28038,Madrid,Puente De Vallecas,Portazgo,G84855543,2006-11-14T00:00:00Z,648975968,,,De Inmigrantes,Estatal,311,3,
8d55a249e6baa5c06772297520da2051,Federation,Federacion De Asociaciones De Rumanos En España - Fedrom,"Calle Wad-ras, 19",40.4557784,-3.7080548,Bajo,28039,Madrid,Puente De Vallecas,Entrevias,G84130517,2006-10-25T00:00:00Z,913982336,,,De Inmigrantes,Estatal,,8,
29530de21430b7540ec3f65135f7323c,Federation,Federacion De Asociaciones De Distrofias Hereditarias De Retina De España Farpe,"Calle Montera, 24",40.4185112,-3.7019337,4º J,28013,Madrid,Centro,Sol,G79386348,2006-10-25T00:00:00Z,915320707,farpe@retinosisfarpe.org,http://www.retinosisfarpe.org,De Salud Y Apoyo Mutuo,Estatal,600,1,
e1314fc026da60d837353d20aefaf054,Federation,Federacion De Asociaciones De Mujeres Concepcion Arenal,"Plaza Cortes, 4",40.4159034,-3.6955958,4º Dcha,28014,Madrid,Centro,Cortes,G80825524,2006-05-06T00:00:00Z,913555462,,,De Mujeres,Estatal,262,1,
c164bbc9d6c72a52c599bbb43d8db8e1,Federation,Federacion Estatal De Asociaciones De Inmigrantes Y Refugiados En España - Ferine,"Calle Navarra, 35",40.4536051,-3.7054571,Local,28039,Madrid,Tetuan,Bellas Vistas,G84548825,2006-04-21T00:00:00Z,911539953,,http://www.ferine.es,De Inmigrantes,Estatal,440,30,
f5c3dd7514bf620a1b85450d2ae374b1,Federation,Federacion De Usuarios-consumidores Independientes De La Comunidad De Madrid - Cicm,"Calle Joaquin Costa, 61",40.441164,-3.6809392,Bj. Dcha,28002,Madrid,Chamartin,El Viso,G79453916,2006-02-21T00:00:00Z,915640118,fuciest@hotmail.com,http://www.fucimadrid.es,De Personas Consumidoras Y Usuarias,Comunidad De Madrid,4761,3,
d1e946f4e67db4b362ad23818a6fb78a,Federation,Union De Cooperativas De Consumidores Y Usuarios De Madrid - Uncuma,"Calle Ancora, 10",40.40280629999999,-3.6924793,1º B,28045,Madrid,Ciudad Lineal,Quintana,F28582435,2006-02-17T00:00:00Z,635543582,presidencia@uncuma.coop,http://www.uncuma.coop.,De Personas Consumidoras Y Usuarias,Comunidad De Madrid,21267,6,
442cde81694ca09a626eeddefd1b74ca,Federation,Fevocam-plataforma De Entidades De Voluntariado De La Comunidad Autonoma De Madrid,"Calle Melquiades Biencinto, 7",40.3971796,-3.669018,3ª Planta,28053,Madrid,Puente De Vallecas,San Diego,V80630957,2005-02-11T00:00:00Z,915410436,info@fevocam.org,http://www.fevocam.org,Otras De Acción Social,Comunidad De Madrid,144265,67,
515ab26c135e92ed8bf3a594d67e4ade,Federation,Federacion Union Civica Nacional De Consumidores Y Amas De Hogar De España - Unae,"Calle Villanueva, 8",40.4225496,-3.6892167,3º,28001,Madrid,Salamanca,Recoletos,G78405768,2005-09-26T00:00:00Z,915757219,jrlozano64@yahoo.es,http://www.federacionunae.com,De Personas Consumidoras Y Usuarias,Comunidad De Madrid,10712,2,
6a81681a7af700c6385d36577ebec359,Federation,Agrupacion De Desarrollo Los Molinos,"Calle Andres Mellado, 10",40.4313446,-3.7143379,Bajo D,28015,Madrid,Chamberi,Gaztambide,G83347088,2005-07-13T00:00:00Z,915912336,coordinacion@admolinos.org,http://www.admolinos.org,Otras De Acción Social,Estatal,90,1,
a0f3601dc682036423013a5d965db9aa,Federation,Federacion De Alcoholicos De La Comunidad De Madrid,"Paseo Delicias, 65",40.3986575,-3.6939817,"Bloq A, Esc. 1, Ofic. 1",28045,Madrid,Arganzuela,Delicias,G78431764,2005-06-28T00:00:00Z,639205084,facoma1986@outlook.com,https://facoma.org/,De Salud Y Apoyo Mutuo,Comunidad De Madrid,220,4,
faafda66202d234463057972460c04f5,Federation,Asde Exploradores De Madrid,"Calle Hortaleza, 19",40.42160579999999,-3.7003533,1º Izq.,28004,Madrid,Centro,Justicia,G78617362,2005-05-13T00:00:00Z,915219158,edm@exploradoresdemadrid.org,http://www.exploradoresdemadrid.org,Juveniles,Comunidad De Madrid,3903,32,
076023edc9187cf1ac1f1163470e479a,Federation,Federacion Independiente De Asociaciones De Vecinos De La Comunidad De Madrid - Fiavecam,"Calle Velero, 19",40.4532816,-3.5935518,,28042,Madrid,Barajas,Alameda De Osuna,G84199017,2005-04-21T00:00:00Z,913249830,fiavecam@gmail.com,,Vecinales,Comunidad De Madrid,1378,3,
d961e9f236177d65d21100592edb0769,Federation,Federacion Injucam Para La Promocion De La Infancia Y La Juventud,"Calle Carpinteria, 12",40.4257587,-3.6217941,1ª Planta,28037,Madrid,San Blas-Canillejas,Amposta,G82237827,2005-03-17T00:00:00Z,913240954,gestion@injucam.org,http://www.injucam.org,Infantiles,Comunidad De Madrid,850,18,
596f713f9a7376fe90a62abaaedecc2d,Federation,Confederacion De Asociaciones De Consumidores Y Usuarios De La Comunidad De Madrid - Cecu Madrid,"Calle Cava Baja, 30",40.4122855,-3.7095033,,28005,Madrid,Centro,Palacio,G80684004,2005-11-03T00:00:00Z,913640276,info@cecumadrid.org,http://www.cecumadrid.org,De Personas Consumidoras Y Usuarias,Comunidad De Madrid,2564,4,
fe70c36866add1572a8e2b96bfede7bf,Federation,Federacion De Mujeres Progresistas,"Calle Ribera De Curtidores, 3",40.409631,-3.7071221,,28005,Madrid,Centro,Embajadores,G78764966,2004-09-29T00:00:00Z,915390238,notificaciones@fmujeresprogresistas.org,http://www.fmujeresprogresistas.org,De Mujeres,Estatal,407,18,
01d8bae291b1e4724443375634ccfa0e,Federation,Federacion Española De Enfermedades Raras - Feder,"Calle Doctor Castelo, 49",40.4203172,-3.6711774,1ª Planta,28009,Madrid,Retiro,Ibiza,G91018549,2004-09-15T00:00:00Z,915334008,proyectos@enfermedades-raras.org,http://www.enfermedades-raras.org,De Salud Y Apoyo Mutuo,Estatal,65761,117,
c26820b8a4c1b3c2aa868d6d57e14a79,Federation,Federacion De Asociaciones De Personas Con Discapacidad Fisica Y Organica De La Comunidad De Madrid. Famma-cocemfe Madrid,"Calle Galileo, 69",40.437013,-3.710472199999999,Bajo Derecha,28015,Madrid,Chamberi,Arapiles,G78875408,2001-06-09T00:00:00Z,915933550,gestioninterna@famma.org,http://www.famma.org,De Personas Con Discapacidad,Comunidad De Madrid,10751,25,
28e209b61a52482a0ae1cb9f5959c792,Federation,Federacion De Grupos De Teatro Aficionado Y Amateur De La Comunidad De Madrid (fetam),"Plaza España, 6",40.4226402,-3.7119838,1ª Planta,28008,Madrid,Centro,Palacio,V82233974,2001-12-03T00:00:00Z,649745076,fetam@fetam.es,http://www.fetam.es,Culturales Y Casas Regionales,Comunidad De Madrid,170,16,
242c100dc94f871b6d7215b868a875f8,Federation,Federacion De Asociaciones Extremeñas En La Comunidad De Madrid,"Calle Gran Via, 59",40.4220172,-3.7090772,4º C,28013,Madrid,Centro,Palacio,V79110029,1999-12-23T00:00:00Z,,faecam@faecam.es,http://www.faecam.com,Culturales Y Casas Regionales,Comunidad De Madrid,1845,9,
bb04af0f7ecaee4aae62035497da1387,Federation,Federacion De Asociaciones De Vallecas Todo Cultura,"Calle La Diligencia, 19",40.383635,-3.6534126,Local B,28018,Madrid,Puente De Vallecas,Palomeras Bajas,G79918793,1999-09-15T00:00:00Z,917770760,vtc@vallecastodocultura.org,http://www.vallecastodocultura.org,Culturales Y Casas Regionales,Municipio,700,8,
f7cade80b7cc92b991cf4d2806d6bd78,Federation,Federacion De Comunidades Originarias De Castilla-la Mancha En La Comunidad De Madrid,"Calle Paz, 4",40.4154651,-3.7042353,1ª Planta,28012,Madrid,Centro,Sol,G80405368,1998-08-06T00:00:00Z,915227278,olgaalberca338@gmail.com,http://www.casaclmmadrid.org,Culturales Y Casas Regionales,Comunidad De Madrid,700,2,
12092a75caa75e4644fd2869f0b6c45a,Foundation,Fundacion Masnatur,"Calle Ferraz,55",40.429982,-3.7214953,Local,28008,Madrid,Moncloa-Aravaca,Arguelles,G81791147,2018-06-29T00:00:00Z,915474035,fundacion@masnatur.org,http://www.masnatur.org,De Personas Con Discapacidad,Estatal,3,, 
e1fc9c082df6cfff8cbcfff2b5a722ef,Foundation,Fundacion Ampao,"Calle Nuñez Morgado,4",40.46839629999999,-3.685121,1º - 11,28036,Madrid,Chamartin,Castilla,G82382482,2018-07-23T00:00:00Z,639846835,ampao@fundacionampao.com,http://www.fundacionampao.org,De Salud Y Apoyo Mutuo,Comunidad De Madrid,28,, 
13d63838ef1fb6f34ca2dc6821c60e49,Foundation,Fundacion Acobe,"Calle Virgen Del Sagrario,19",40.4373786,-3.6506484,Bajo Dcha,28027,Madrid,Ciudad Lineal,Concepcion,G85933984,2018-07-24T00:00:00Z,914049502,acobe@acobe.org,http://www.acobe.org,De Inmigrantes,Estatal,19144,, 
51e6d6e679953c6311757004d8cbbba9,Foundation,Fundacion Ser,"Calle Marques De Urquijo,47",40.4288,-3.721178,,28008,Madrid,Moncloa-Aravaca,Arguelles,G82725516,2018-08-17T00:00:00Z,915547443,fundacion-ser@fundacion-ser.org,,De Personas Con Discapacidad,Estatal,70,, 
73fed7fd472e502d8908794430511f4d,Foundation,Fundación Esplai Ciudadania Comprometida,"Calle La Latina,21",40.40066119999999,-3.7509673,Local 13,28047,Madrid,Latina,Lucero,G62090535,2018-08-20T00:00:00Z,911681686,fundacion@fundacionesplai.org,,Otras De Acción Social,Estatal,4,, 
735143e9ff8c47def504f1ba0442df98,Foundation,Fundación Arraigo Carlos Ara,"Calle Vieja De Pinto,14",40.3477281,-3.7089293,,28021,Madrid,Villaverde,Villaverde Alto C.H.,G87433991,2018-08-17T00:00:00Z,682244821,alfredomartin@ancesmei.com,http://fundacionarraigo.org,De Inmigrantes,Comunidad De Madrid,3,, 
2974788b53f73e7950e8aa49f3a306db,Foundation,Fundacion Al Fanar Para El Conocimiento Arabe,"Calle Colmenares,5",40.4205694,-3.6970138,4º Izq,28004,Madrid,Centro,Justicia,G86392776,2018-08-17T00:00:00Z,649635528,contacto@fundacionalfanar.org,http://www.fundacionalfanar.org,Culturales Y Casas Regionales,Estatal,5,, 
e91068fff3d7fa1594dfdf3b4308433a,Foundation,Fundacion Iniciativas Sur,"Plaza Asociacion,1",40.3697225,-3.7081405,,28041,Madrid,Usera,Orcasitas,G80663347,2018-08-20T00:00:00Z,913412698,gerencia@iniciativassur.com,,Otras De Acción Social,Comunidad De Madrid,8,, 
b071cfa81605a94ad80cfa2bbc747448,Foundation,Fundacion Ademo,"Calle Hacienda De Pavones,328",40.4003301,-3.6382839,,28030,Madrid,Moratalaz,Fontarron,G82047879,2018-08-21T00:00:00Z,917723500,gerencia@fundacionademo.org,http://www.ademo.org,De Personas Con Discapacidad,Comunidad De Madrid,7,, 
966b6dfb6b0819cc10644bea3115cf20,Foundation,Fundacion Tomillo,"Calle Albuñuelas,15",40.3659768,-3.6980386,,28041,Madrid,Usera,Orcasur,G28979136,2018-08-22T00:00:00Z,913698201,proyectos.sociales@tomillo.org,http://www.tomillo.org,Otras De Acción Social,Estatal,12,, 
944a5ae3483ed5c1e10bbccb7942a279,Foundation,Fundacion Exit,"Calle Serrano Anguita,13",40.4276989,-3.699074899999999,,28004,Madrid,Centro,Justicia,G62203047,2018-12-09T00:00:00Z,913551970,saradilullo@fundacionexit.org,,Juveniles,Estatal,33,, 
c7b90b0fc23725f299b47c5224e6ec0d,Foundation,Fundacion Cultura Islamica,"Calle Guzman El Bueno,3",40.4307905,-3.7136441,2º Dcha,28015,Madrid,Chamberi,Gaztambide,G79545547,2018-12-09T00:00:00Z,915434673,info@funci.org,http://www.funci.org,Culturales Y Casas Regionales,Estatal,8,, 
6c91724b896cdcf48285039ab05b3aaf,Foundation,Fundacion Privada Madrid Contra La Esclerosis Multiple (femm),"Avenida Asturias,35",40.4689724,-3.6955748,Local,28029,Madrid,Tetuan,Almenara,G82400284,2018-12-09T00:00:00Z,913993245,proyectos@femmadrid.org,http://www.femmadrid.org,De Salud Y Apoyo Mutuo,Comunidad De Madrid,1300,, 
7535bbb91c8fde347ad861f293126633,Foundation,Fundacion Rayo Vallecano,"Calle Rayo Vallecano De Madrid,2",40.3769632,-3.6124013,,28051,Madrid,Villa De Vallecas,Ensanche De Vallecas,G82999582,2018-09-19T00:00:00Z,917570551,informacion@fundacionrayovallecano.es,,Deportivas,Estatal,5,, 
87f7ee4fdb57bdfd52179947211b7ebb,Foundation,Fundacion Itaka Escolapios,"Calle Camarena,149",40.3897929,-3.7544996,,28047,Madrid,Latina,Aluche,G95146841,2018-09-10T00:00:00Z,636547778,sedemadrid@itakaescolapios.org,,Infantiles,Estatal,1145,, 
0e7c7d6c41c76b9ee6445ae01cc0181d,Foundation,Fundación Grandes Amigos En Acción,"Calle Embajadores,206",40.3910439,-3.6932683,1º C,28045,Madrid,Arganzuela,Legazpi,G83625509,2018-09-10T00:00:00Z,913599305,info@amigosdelosmayores.org,,De Salud Y Apoyo Mutuo,Estatal,1054,, 
7d2be41b1bde6ff8fe45150c37488ebb,Foundation,Fundacion Sindrome De Down De Madrid,"Calle Memorial 11 De Marzo De 2004,15",40.4570185,-3.6750005,,28016,Madrid,Chamartin,Castilla,G81854283,2018-09-10T00:00:00Z,913105364,fsdownmadrid@downmadrid.org,http://downmadrid.org,De Personas Con Discapacidad,Comunidad De Madrid,3055,, 
0dbb3fb9a5cd1d5f8a9075b5bb8070aa,Foundation,Fundacion Amigo,"Calle Zacarias Homs,18",40.4616058,-3.6562046,,28043,Madrid,Hortaleza,Canillas,G81454969,2018-09-10T00:00:00Z,913002385,accionsocial@fundacionamigo.org,http://www.fundacionamigo.org,Familias,Estatal,125,, 
7288251b27c8f0e73f4d7f483b06a785,Foundation,Fundacion Carlos Martin,"Avenida Rafael Alberti,4",40.3915276,-3.6383461,,28038,Madrid,Puente De Vallecas,Palomeras Sureste,G82736323,2018-10-19T00:00:00Z,913807370,fcm@fundacioncarlosmartin.com,,De Personas Con Discapacidad,Comunidad De Madrid,7,, 
cf1cf43cba274ae7f413e864682b80f8,Foundation,Fundacion Deporte Base,"Calle Arcos De Jalon,20",40.420519,-3.6219781,Planta 3ª,28037,Madrid,San Blas-Canillejas,Arcos,G82696006,2018-10-19T00:00:00Z,913062694,info@deportebase.org,http://www.deportebase.org,Deportivas,Estatal,5,, 
da9e6a4a4aeca98588e4dd77ceb37695,Foundation,Fundacion Red De Apoyo A La Integracion Sociolaboral (rais),"Calle Ardemans,42",40.43511669999999,-3.6730081,,28028,Madrid,Salamanca,Guindalera,G83207712,2018-10-19T00:00:00Z,917251726,proyectos@raisfundacion.org,https://hogarsi.org/,Otras De Acción Social,Estatal,837,, 
b87470782489389f344c4fa4ceb5260c,Foundation,Fundacion Amanecer,"Calle Matilde Diez,8",40.4458304,-3.6738317,,28002,Madrid,Chamartin,Ciudad Jardin,G28575348,2018-10-29T00:00:00Z,637059821,plaboralamanecer@yahoo.es,,De Personas Con Discapacidad,Estatal,5,, 
c5f5c23be1b71adb51ea9dc8e9d444a8,Foundation,Fundacion Voces Para La Conciencia Y El Desarrollo,"Calle Torpedero Tucuman,33",40.4638683,-3.6714684,,28016,Madrid,Chamartin,Nueva España,G85867521,2018-11-28T00:00:00Z,637751168,c.soriano@voces.org.es,http://voces.org.es,Para La Cooperación Al Desarrollo,Estatal,8,, 
e6ba70fc093b4ce912d769ede1ceeba8,Foundation,Fundacion Taller De Solidaridad,"Calle Lope De Rueda,46",40.4192744,-3.6778423,2º E,28009,Madrid,Retiro,Ibiza,G83105783,2018-12-18T00:00:00Z,915359558,proyectos@tallerdesolidaridad.org,,Para La Cooperación Al Desarrollo,Estatal,10,, 
285a25c17f351708754cdb6d56f3962e,Foundation,Fundacion Gestion Y Participacion Social,"Calle Javier De Miguel,92",40.3851504,-3.6572793,"Esc 2, Bajo 5",28018,Madrid,Puente De Vallecas,Palomeras Bajas,G83300194,2019-11-01T00:00:00Z,910611195,fgps@asociaciones.org,http://www.asociaciones.org,Familias,Estatal,3,, 
f11bec1411101c743f64df596773d0b2,Foundation,Fundacion Del Lesionado Medular,"Camino Valderribas,115",40.3945701,-3.6560944,,28038,Madrid,Puente De Vallecas,Numancia,G81842130,2019-11-01T00:00:00Z,917775544,administracion@medular.org,http://www.medular.org,De Personas Con Discapacidad,Comunidad De Madrid,,, 
630b7d8dd49a0bab667498f287d68c16,Foundation,Fundacion Dilaya,"Calle Ponzano,63",40.44214909999999,-3.6991425,"Esc 2, 1º A",28003,Madrid,Chamberi,Rios Rosas,G87074662,2019-02-18T00:00:00Z,616763796,cooperacion@fundaciondilaya.org,http://www.fundaciondilaya.org,Para La Cooperación Al Desarrollo,Estatal,352,, 
67606d48e361ce176ca71fd54fcf4286,Foundation,Fundacion Pro Derechos Humanos Miguel Angel Blanco,"Calle Mantuano,51",40.4483731,-3.6764618,,28002,Madrid,Chamartin,Ciudad Jardin,G81909012,2019-02-18T00:00:00Z,914203253,coordinacion@fmiguelangelblanco.es,,De Derechos Humanos,Estatal,4,, 
69f357fcc8e6d119f3d95f33cedb5915,Foundation,Fundacion Mayores De Hoy,"Calle Poeta Joan Maragall,56",40.4625653,-3.6913114,7º D,28020,Madrid,Tetuan,Castillejos,G87243127,2019-02-21T00:00:00Z,913734750,info@fundacionmayoresdehoy.org,,"De Personas Mayores, Jubiladas Y Pensionistas",Estatal,5,, 
6a450490f238b4ddff085d66a916a206,Foundation,Fundacion Tengo Hogar,"Calle Marques De Urquijo,5",40.4303433,-3.7167222,5º B,28008,Madrid,Moncloa-Aravaca,Arguelles,G86939048,2019-06-03T00:00:00Z,917958204,info@fundaciontengohogar.org,http://fundaciontengohogar.org,Otras De Acción Social,Comunidad De Madrid,37,, 
dd7970532bfa1449085b8f43fc39a7d5,Foundation,"Fundacion Cepaim, Accion Integral Con Migrantes","Calle Nicolas Morales,11",40.3906435,-3.7306169,3º D,28019,Madrid,Carabanchel,San Isidro,G73600553,2019-01-04T00:00:00Z,647411577,info@cepaim.org,http://www.cepaim.org,Otras De Acción Social,Estatal,12,, 
4f11b55f57612f06fe9638b99f6c66e6,Foundation,Fundacion Secretariado Gitano,"Calle Ahijones,s/n",40.3782105,-3.6581214,,28018,Madrid,Puente De Vallecas,Palomeras Bajas,G83117374,2019-04-22T00:00:00Z,914220960,fsg@gitanos.org,,Otras De Acción Social,Estatal,810,, 
d0aa518d4d3bfc721aa0b8ab4ef32269,Foundation,Fundacion Alas Madrid,"Calle Encomienda De Palacios,235",40.3976731,-3.6354247,,28030,Madrid,Moratalaz,Pavones,G79466553,2019-05-14T00:00:00Z,917724300,administracion@alasmadrid.org,http://www.alasmadrid.org,De Personas Con Discapacidad,Comunidad De Madrid,9,, 
30a237d18c50f563cba4531f1db44acf,Foundation,Fundacion Benefica San Martin De Porres,"Calle Via Carpetana,47",40.39879010000001,-3.7332751,Bajo,28047,Madrid,Carabanchel,San Isidro,G28763712,2019-05-14T00:00:00Z,616185767,fundacion@fundacionsmp.org,http://www.fundacionsmp.org,Otras De Acción Social,Comunidad De Madrid,3,, 
9627c45df543c816a3ddf2d8ea686a99,Foundation,Fundacion World Vision Internacional,"Calle Javier Ferrero,10",40.4484627,-3.670441,,28002,Madrid,Chamartin,Ciudad Jardin,G83006726,2019-04-29T00:00:00Z,913545020,leticia.delarica@wveu.org,,Para La Cooperación Al Desarrollo,Estatal,8,, 
2b346a0aa375a07f5a90a344a61416c4,Foundation,Fundacion Asispa,"Calle Martinez Villergas,6",40.4399184,-3.6515924,,28027,Madrid,Ciudad Lineal,San Pascual,G85736668,2019-04-25T00:00:00Z,911950095,fundacion@fundacionasispa.org,,Otras De Acción Social,Estatal,5,, 
f92586a25bb3145facd64ab20fd554ff,Foundation,Fundacion El Buen Samaritano,"Calle Matilde Hernandez,97",40.3862556,-3.7375535,Aprox. 99,28025,Madrid,Carabanchel,Vista Alegre,G82184615,2019-08-13T00:00:00Z,679073439,luis.sanchez@fundacionbuensamaritano.es,http://fundacionbuensamaritano.es,Otras De Acción Social,Estatal,6,, 
7553e94d39fd4649ff75386a83ed3789,Foundation,Fundacion Betesda,"Avenida Gran Via De Hortaleza,27",40.4676856,-3.6504821,,28043,Madrid,Hortaleza,Pinar Del Rey,G81111502,2019-08-19T00:00:00Z,913882501,fundacion@fundacionbetesda.org,http://www.fundacionbetesda.org,De Personas Con Discapacidad,Comunidad De Madrid,10,, 
56e6a93212e4482d99c84a639d254b67,Foundation,Fundacion Aucavi (autismo Calidad De Vida),"Calle Ricardo Ortiz,29",40.4276334,-3.6579275,3º,28017,Madrid,Ciudad Lineal,Ventas,G83848713,2019-08-23T00:00:00Z,636365367,administracion@fundacionaucavi.org,,De Personas Con Discapacidad,Comunidad De Madrid,3,, 
d8c24ca8f23c562a5600876ca2a550ce,Foundation,Fundacion Kirira,"Calle Bravo Murillo,279",40.4601992,-3.698977,"Portal 1, 6º Izq,",28020,Madrid,Tetuan,Berruguete,G13470935,2019-10-25T00:00:00Z,608817929,kirira@fundacionkirira.es,,Para La Cooperación Al Desarrollo,Estatal,6,, 
63ce12dcf1ede17589befd56bb5281a5,Foundation,Fundacion Mari Paz Jimenez Casado,"Calle Zigia,28",40.4389427,-3.6442956,,28027,Madrid,Ciudad Lineal,Quintana,G86630852,2019-11-27T00:00:00Z,677451146,info@fundacionmaripazjimenez.org,http://www.fundacionmaripazjimenez.org,Otras De Acción Social,Estatal,12,, 
21ce689121e39821d07d04faab328370,Foundation,Fundacion Carmen Pardo-valcarce,"Calle Monasterio De Las Huelgas,15",40.5023583,-3.7091242,,28049,Madrid,Fuencarral-El Pardo,Mirasierra,G79571014,2020-01-15T00:00:00Z,616386639,joseluis.castro@alapar.org,,De Personas Con Discapacidad,Estatal,7,, 
2e3d2c4f33a7a1f58bc6c81cacd21e9c,Foundation,Fundacion Naif - Nueva Ayuda Para La Infancia Y La Familia,"Calle Granada,41",40.4034922,-3.6761909,1º - 101,28007,Madrid,Retiro,Pacifico,G85606176,2020-07-01T00:00:00Z,620579074,a.perez@fundacionnaif.org,http://www.fundacionnaif.org,Infantiles,Comunidad De Madrid,138,, 
cbf22ab286e2ad4900bdf5d6a2e47009,Foundation,Fundacion Adsis,"Calle Los Peñascales,14",40.4239543,-3.666067,Bajo Izquierda,28028,Madrid,Salamanca,Fuente Del Berro,G81436099,2020-01-24T00:00:00Z,606208200,madrid@fundacionadsis.org,http://www.fundacionadsis.org,Otras De Acción Social,Estatal,538,, 
27e8e17134dd7083b050476733207ea1,Foundation,Fundacion Salud Y Naturaleza,"Calle Doctor Esquerdo,105",40.4151048,-3.669140999999999,,28007,Madrid,Retiro,Estrella,G84301423,2020-01-22T00:00:00Z,691059730,mar.garcia@fundaciontn.es,http://www.fundaciontn.es,"Comerciantes,empresarios,profesionales Y Autónomos",Estatal,11,, 
4625d8e31dad7d1c4c83399a6eb62f0c,Foundation,Fundacion Amoverse,"Calle Geranios,30",40.4720449,-3.693426799999999,,28029,Madrid,Tetuan,Almenara,G83181925,2020-03-02T00:00:00Z,917335449,fundacionamoverse@jesuitas.es,,Infantiles,Estatal,9,, 
5c151c2a9b76f9ef26d7e0f0d00c9a89,Foundation,Fundacion San Juan Del Castillo,"Calle Geranios,30",40.4720449,-3.693426799999999,,28029,Madrid,Tetuan,Almenara,G83666503,2020-01-27T00:00:00Z,652901834,fsanjuandelcastillo@jesuitas.es,,De Inmigrantes,Estatal,10,, 
73f104c9fba50050eea11d9d075247cc,Foundation,Fundacion Economistas Sin Fronteras,"Calle Gaztambide,50",40.4369964,-3.7152613,,28015,Madrid,Chamberi,Gaztambide,G82316522,2020-01-29T00:00:00Z,915497279,ecosfron@ecosfron.org,,De Derechos Humanos,Municipio,260,, 
1aa3d9c6ce672447e1e5d0f1b5207e85,Foundation,Fundacion Domingo Malagon,"Calle Carlos Sole,66",40.3917454,-3.6485021,,28038,Madrid,Puente De Vallecas,Portazgo,G82574666,2020-01-28T00:00:00Z,616034684,fundacion.domingomalagon@yahoo.es,,Culturales Y Casas Regionales,Comunidad De Madrid,8,, 
e16e74a63567ecb44ade5c87002bb1d9,Foundation,Fundacion Prodis,"Bulevar Indalecio Prieto,2",40.4052142,-3.6197618,,28032,Madrid,Vicalvaro,Valdebernardo,G82622580,2020-01-28T00:00:00Z,6766355997,prodis@fundacionprodis.org,http://www.fundacionprodis.org,De Personas Con Discapacidad,Comunidad De Madrid,15,, 
44feb0096faa8326192570788b38c1d1,Foundation,Fundacion Triangulo,"Calle Melendez Valdes,52",40.4331596,-3.71492,1º-d,28015,Madrid,Chamberi,Gaztambide,G81393548,2020-01-28T00:00:00Z,915930540,madrid@fundaciontriangulo.es,http://www.fundaciontriangulo.org,De Personas Lgtbi,Estatal,3,, 
335d3d1cd7ef05ec77714a215134914c,Foundation,Fundacion Altius España,"Ronda Segovia,34",40.4078297,-3.7152598,Local,28005,Madrid,Arganzuela,Imperial,G83317610,2020-01-31T00:00:00Z,912224050,azarza@fundacionaltius.org,http://www.fundacionaltius.org,Otras De Acción Social,Estatal,450,, 
4ecb679fd35dcfd0f0894c399590be1a,Foundation,Fundación Juan Xxiii-roncalli,"Avenida Gran Via Del Este,1",40.40279880000001,-3.5950625,,28032,Madrid,Vicalvaro,Valderrivas,G78280880,2020-01-30T00:00:00Z,603815857,mesperanza@fundacionjuan23.org,http://www.fundacionjuanxxiii.org,De Personas Con Discapacidad,Comunidad De Madrid,10,, 
c157297d1a1ff043255bfb18530caaa2,Foundation,Fundacion Aprocor,"Calle Vicente Morales,5",40.4621442,-3.6358336,,28043,Madrid,Hortaleza,Piovera,G81985558,2020-01-30T00:00:00Z,913886367,administracion@fundacionaprocor.com,http://www.fundacionaprocor.org,De Personas Con Discapacidad,Estatal,8,, 
42547f5a44d87da3bc40ee5d09624606,Foundation,Fundacion Abrazando Ilusiones,"Calle Narciso Serra,14",40.4049702,-3.6780513,4º B,28007,Madrid,Retiro,Pacifico,G87632964,2020-02-14T00:00:00Z,660684775,secretariaabrazandoilusiones@gmail.com,http://www.abrazandoilusiones.es,Otras De Acción Social,Estatal,4,, 
41c542dfe6e4fc3deb251d64cf6ed2e4,Foundation,Fundacion Atilano Sanchez Sanchez,"Calle Pechuan,14",40.445334,-3.6759825,Planta Baja,28002,Madrid,Chamartin,Ciudad Jardin,G86258290,2020-02-14T00:00:00Z,910294422,info@fundacionfass.org,http://www.fundacionfass.org,"De Personas Mayores, Jubiladas Y Pensionistas",Estatal,3,, 
5e7264477cf9b6b237a0d254cf0324e2,Foundation,Fundacion Inversion Duplicacion Del Cromosoma 15q,"Calle Camino Viejo De Leganes,146",40.3811871,-3.7313278,4º C,28025,Madrid,Carabanchel,Puerta Bonita,G87036893,2020-10-03T00:00:00Z,609124880,amorsal@cemad.es,,De Personas Con Discapacidad,Estatal,8,, 
c911241d00294e8bb714eee2e83fa475,Foundation,Fundacion Pilares Para La Autonomia Personal,"Calle Rodriguez San Pedro,10",40.4317229,-3.7079313,3º C,28015,Madrid,Chamberi,Arapiles,G86020732,2020-07-24T00:00:00Z,911305228,pilares@fundacionpilares.org,,"De Personas Mayores, Jubiladas Y Pensionistas",Estatal,10,, 
91e50fe1e39af2869d3336eaaeebdb43,Foundation,Fundacion Plan Internacional España,"Calle Pantoja,10",40.4475986,-3.6705876,,28002,Madrid,Chamartin,Ciudad Jardin,G82895475,2020-08-25T00:00:00Z,696728511,begona.solorzano@plan-international.org,http://plan-international.es/,Infantiles,Estatal,13,, 
bca382c81484983f2d437f97d1e141f3,Foundation,Fundacion Accion Contra El Hambre,"Calle Duque De Sevilla,3",40.4418158,-3.679478,,28002,Madrid,Chamartin,El Viso,G81164105,2020-08-26T00:00:00Z,626252901,lgonzalez@achesp.org,,Otras De Acción Social,Estatal,73072,, 
a292f1c5874b2be8395ffd75f313937f,Foundation,Fundacion De Estudios Socialistas Federico Engels,"Calle Hermanos Del Moral,33",40.3925198,-3.7211186,Bajo 3,28019,Madrid,Carabanchel,Opañel,G78772548,2020-08-26T00:00:00Z,629724830,libreria@fundacionfedericoengels.net,http://www.fundacionfedericoengels.net,Culturales Y Casas Regionales,Estatal,250,, 
494c08f7a144d3cc4cfa661ed1244039,Foundation,Fundacion Balia Por La Infancia,"Calle Fereluz,44",40.4647223,-3.7007001,,28039,Madrid,Tetuan,Valdeacederas,G82920851,2020-09-15T00:00:00Z,667247076,info@fundacionbalia.org,http://www.fundacionbalia.org,Infantiles,Estatal,7,, 
582967e09f1b30ca2539968da0a174fa,Foundation,Fundacion Gabeiras-legalmusic,"Paseo Pintor Rosales,82",40.4323639,-3.7246877,Bajo Izq,28008,Madrid,Moncloa-Aravaca,Arguelles,G87619110,2020-09-30T00:00:00Z,915215160,m.lorenzo@fundaciongabeiras.com,,Culturales Y Casas Regionales,Estatal,5,, 
a6197a578fe7778e8d49a95ac425bcfc,Foundation,Fundacion Para La Accion Social Por La Musica,"Calle Moreto,10",40.4131649,-3.6904413,,28014,Madrid,Retiro,Jeronimos,G86780525,2021-01-21T00:00:00Z,651582435,administracion@fasm.es,,Juveniles,Estatal,8,, 
4f8bc5ac1dc2b49434efe9e72f183de8,Foundation,"Fundacion Alianza Por Los Derechos, La Igualdad Y La Solidaridad Internacional","Calle Jaen,13",40.4505711,-3.7013367,Local,28020,Madrid,Tetuan,Cuatro Caminos,G78426558,2021-01-21T00:00:00Z,915986290,aps@aporsolidaridad.org,http://www.alianzaporlasolidaridad.org,De Derechos Humanos,Estatal,24,, 
866d90e0921ac7b024b47d672445a086,Foundation,Fundacion Diversitas,"Calle General Alvarez De Castro,14",40.4352251,-3.7017506,1º D,28010,Madrid,Chamberi,Trafalgar,G86103355,2021-01-22T00:00:00Z,915943222,ignacio.sanguesa@fundaciondiversitasmadrid.org,http://www.fundaciondiversitasmadrid.org,Otras De Acción Social,Comunidad De Madrid,5,, 
2ed80f6311c1825feb854d78fa969d34,Foundation,Fundacion Manantial,"Calle Poeta Esteban De Villegas,12",40.4080152,-3.680045,Bajo,28014,Madrid,Retiro,Jeronimos,G81237257,2021-01-02T00:00:00Z,913717292,manantial@fundacionmanantial.org,http://fundacionmanantial.org,De Personas Con Discapacidad,Estatal,8,, 
c2c2a04512b35d13102459f8784f1a2d,Foundation,Fundacion Yehudi Menuhin España (fyme),"Avenida Ciudad De Barcelona,208",40.3997274,-3.6723126,1º A,28007,Madrid,Retiro,Adelfas,G82260282,2021-10-02T00:00:00Z,677305465,fyme@fundacionyehudimenuhin.org,http://www.fundacionyehudimenuhin.org,Infantiles,Estatal,715,, 
fd5ac6ce504b74460b93610f39e481f7,Foundation,Fundacion Luz Casanova,"Calle Santa Engracia,11",40.429502,-3.6967564,,28010,Madrid,Chamberi,Trafalgar,G85130771,2021-11-02T00:00:00Z,914454169,proyectos@proyectosluzcasanova.org,http://www.proyectosluzcasanova.org,Otras De Acción Social,Estatal,7,, 
3341f6f048384ec73a7ba2e77d2db48b,Foundation,Fundacion Deportiva Y Cultural Marathon,"Calle Fuencarral,139",40.4322079,-3.7041291,3º D,28010,Madrid,Chamberi,Trafalgar,G83926410,2021-02-18T00:00:00Z,696126313,info@fundacionmarathon.org,http://www.fundacionmarathon.org,Deportivas,Estatal,7,, 
1597d21403f63da1bb0539592597a525,Foundation,Fundacion Odontologia Solidaria,"Calle Maria Teresa Leon,11",40.3632981,-3.5955171,,28051,Madrid,Villa De Vallecas,Ensanche De Vallecas,G81833667,2021-05-27T00:00:00Z,938792479,odadmin@odsolidaria.org,http://www.odsolidaria.org,De Salud Y Apoyo Mutuo,Estatal,9,, 
acff1af62d0f91f4be73f4857552d70c,Foundation,Fundacion Inclusive,"Calle Edgar Neville,28",40.4514414,-3.6964806,Bajo 3,28020,Madrid,Tetuan,Cuatro Caminos,G86627015,2021-05-28T00:00:00Z,917708090,inclusive@fundacioninclusive.org,http://www.fundacioninclusive.org,De Personas Con Discapacidad,Comunidad De Madrid,7,, 
da21bae82c02d1e2b8168d57cd3fbab7,Foundation,Fundacion Talita Fundacion Privada Madrid,"Calle Emiliano Barral,7",40.4490822,-3.6608584,Local 6,28043,Madrid,Ciudad Lineal,San Juan Bautista,G85941359,2021-06-28T00:00:00Z,915630713,info@fundaciontalitamadrid.es,http://www.fundaciontalitamadrid.es,De Personas Con Discapacidad,Comunidad De Madrid,6,, 
f51238cd02c93b89d8fbee5667d077fc,Foundation,Fundacion Pedro Zerolo,"Paseo Pintor Rosales,56",40.4298232,-3.722109999999999,2º Dcha,28008,Madrid,Moncloa-Aravaca,Arguelles,G88193206,2021-07-07T00:00:00Z,915498678,info@fundacionpedrozerolo.es,http://www.fundacionpedrozerolo.es,De Personas Lgtbi,Estatal,19,, 
adf8d7f8c53c8688e63a02bfb3055497,Foundation,Fundacion Jose Maria De Llanos,"Calle Los Barros,11",40.3767149,-3.6679756,,28053,Madrid,Puente De Vallecas,Entrevias,G78511292,2021-09-15T00:00:00Z,917858955,fundacion@fundacionjosemariadellanos.es,http://www.fundacionjosemariadellanos.es,De Mujeres,Comunidad De Madrid,9,, 
6693a7aacb8a2e74c6f5fe91bc39864b,Foundation,Fundacion Asam Familia - Salud Y Ayuda Mutua,"Calle Los Yebenes,241",40.3908522,-3.7501118,Planta Baja,28047,Madrid,Latina,Aluche,G86258399,2021-04-11T00:00:00Z,639881345,fundacionasam@fundacionasamfamilia.org,http://www.fundacionasamfamilia.org,De Salud Y Apoyo Mutuo,Comunidad De Madrid,6,, 
bd3ef5c19067fe179f71c8b86ea4b39b,Foundation,Fundacion Plaza De Los Oficios,"Avenida Guadalajara,28",40.42118790000001,-3.6150129,,28032,Madrid,San Blas-Canillejas,Arcos,G87403150,2021-04-11T00:00:00Z,661469723,rvaliente@colegionicoli.org,https://www.plazadelosoficios.org,Juveniles,Comunidad De Madrid,6,, 
fbfe5ba2ce3309f522c335e949435612,Foundation,Fundacion Investigacion En Epilepsias Geneticas,"Calle Toledo,46",40.4124249,-3.708034,Planta 1ª,28005,Madrid,Centro,Palacio,G87042701,2021-04-11T00:00:00Z,660426603,abmmontesinos@gmail.com,,De Personas Con Discapacidad,Estatal,5,, 
587524833eaf98eb779a387e33768c6a,Foundation,Fundacion Dalma,"Calle Claudio Coello,91",40.4307039,-3.6858888,Bajo,28006,Madrid,Salamanca,Castellana,G85352938,2021-10-11T00:00:00Z,917814540,belen.ibanez@fundaciondalma.org,http://www.fundaciondalma.org,De Personas Con Discapacidad,Estatal,8,, 
455cb2657aaa59e32fad80cb0b65b9dc,Foundation,Fundacion Alamedillas,"Avenida Abrantes,45",40.381211,-3.7272219,,28025,Madrid,Carabanchel,Abrantes,G86465580,2021-10-11T00:00:00Z,915651468,administracion@alamedillas.org,,Infantiles,Estatal,9,, 
d5ff135377d39f1de7372c95c74dd962,Foundation,"Fundacion Your Own Water (tu Propia Agua),","Calle Velazquez,25",40.424164,-3.684628899999999,6º A,28001,Madrid,Salamanca,Recoletos,G87697553,2021-11-23T00:00:00Z,654963812,prieres@gmail.com,,Para La Cooperación Al Desarrollo,Estatal,8,, 
015e31933548461020e2ba448e85995e,Foundation,Fundacion Nantik Lum,"Paseo Castellana,89",40.4496248,-3.6919802,Bajo,28046,Madrid,Tetuan,Cuatro Caminos,G83662098,2021-11-30T00:00:00Z,917374827,patriciaalguero@nantiklum.org,http://www.nantiklum.org,Otras De Acción Social,Estatal,7,, 
3cc578f087ea520aefaaf92c802c1a34,Foundation,Fundacion Kyrios De Apoyo Personal,"Calle Laurel,21",40.4028764,-3.704466,1º B,28005,Madrid,Arganzuela,Acacias,G85846145,2021-02-12T00:00:00Z,914574694,aliciajm@ftkyrios.org,http://www.ftkyrios.org,De Personas Con Discapacidad,Estatal,6,, 
ca4b33532855080dfa79cf8a925d146d,Foundation,Fundacion Psicologia Sin Fronteras,"Cuesta San Vicente,4",40.4217363,-3.713807,Planta 6ª,28008,Madrid,Moncloa-Aravaca,Arguelles,G86887411,2022-11-01T00:00:00Z,600425769,psf@psicologossinfronteras.net,,De Salud Y Apoyo Mutuo,Estatal,3,, 
4b04b0dcd2ade339a3d7ce13252a29d4,Foundation,Fundacion Educativa Agora,"Calle Marques De Portugalete,17",40.4467656,-3.6454729,,28027,Madrid,Ciudad Lineal,San Pascual,G87934782,2022-01-24T00:00:00Z,619762602,contacto@fundagora.org,http://www.fundagora.com,De Estudiantes /alumnado,Comunidad De Madrid,5,, 
ab2481c9f93d0ed3033a3281d865ccb2,Foundation,Fundacion Aspen Institute España,"Calle Princesa,18",40.4267414,-3.7124525,Bajo Izq,28008,Madrid,Centro,Universidad,G86104965,2022-01-24T00:00:00Z,684280445,diego.herrero@aspeninstitute.es,https://aspeninstitute.es/,Otras De Acción Social,Estatal,13,, 
f3a3a63a79eb1831b0a2776bfd20d838,Foundation,Fundacion Hay Salida,"Calle Enrique Larreta,7",40.4675506,-3.686626,Entreplanta A,28036,Madrid,Chamartin,Castilla,G85913358,2022-01-24T00:00:00Z,912504875,info@fundacionhaysalida.com,https://www.fundacionhaysalida.com,De Salud Y Apoyo Mutuo,Comunidad De Madrid,9,, 
06f2e099b4f87109d52e15d7c05f0084,Foundation,Fundacion Psico-ballet Maite Leon,"Calle Vizconde De Los Asilos,5",40.4406732,-3.638266999999999,,28027,Madrid,Ciudad Lineal,Quintana,G78392941,2022-03-15T00:00:00Z,917422320,psicoballet@psicoballetmaiteleon.org,http://www.psicoballetmaiteleon.org,Culturales Y Casas Regionales,Estatal,7,, 
b2b7c555125ecacf4bb7678d9dc39a21,Foundation,Fundacion Acompañando Procesos,"Calle Principe De Vergara,122",40.4411734,-3.6785117,5º B,28002,Madrid,Chamartin,Prosperidad,G02731156,2022-03-29T00:00:00Z,661584994,acomprocesos@gmail.com,,Familias,Estatal,4,, 
ab24cd2b811ee48a416fc7a833d736a9,Foundation,Fundacion Padre Garralda-horizontes Abiertos,"Calle Padre Rubio,76",40.4721616,-3.6966202,Bajo,28029,Madrid,Tetuan,Almenara,G83618850,2022-04-26T00:00:00Z,918317533,cfavieres@horizontesabiertos.org,http://www.horizontesabiertos.org,Otras De Acción Social,Estatal,10,, 
a5ff5d4b0a0d7b3e4d64147037d8c344,Foundation,Fundacion Ibn Battuta,"Calle Puerto Del Milagro,6",40.3845541,-3.6578536,,28018,Madrid,Puente De Vallecas,Palomeras Bajas,G66052960,2022-04-26T00:00:00Z,914682859,aallaouzi@fundacionibnbattuta.org,http://www.fundacionibnbattuta.org,De Inmigrantes,Estatal,8,, 
de3c1a733c9c51de130bc7ae775fd930,Foundation,"Radio Ecca, Fundacion Canaria","Calle Geranios,30",40.4720449,-3.693426799999999,,28029,Madrid,Tetuan,Almenara,G35103431,2022-10-05T00:00:00Z,915931165,s.bueno@radioecca.org,http://www.radioecca.org,Otras De Acción Social,Comunidad De Madrid,15,, 
7dc3338d429a3114842ca29dbbfccfef,Foundation,Fundacion Railes,"Avenida Rafael Alberti,4",40.3915276,-3.6383461,,28038,Madrid,Puente De Vallecas,Palomeras Sureste,G67887000,2022-10-05T00:00:00Z,913807370,direccion.general@fundacionrailes.org,,De Personas Con Discapacidad,Comunidad De Madrid,10,, 
5bf8aaef51c6e0d363cbe554acaf3f20,Foundation,Fundacion Segunda Parte,"Plaza Puerto De La Cruz,3",40.4784279,-3.7157047,Bajo 2,28029,Madrid,Fuencarral-El Pardo,El Pilar,G06764062,2022-05-25T00:00:00Z,625325109,juanjo.gh@fundacionsegundaparte.org,https://fundacionsegundaparte.org/,Deportivas,Estatal,8,, 
0314c9b108b8c39f1cf878ed93fdd5ae,Foundation,Fundacion San Ezequiel Moreno,"Calle German Perez Carrasco,85",40.4380941,-3.6398711,,28027,Madrid,Ciudad Lineal,Quintana,G50884907,2022-10-06T00:00:00Z,622259179,infomadrid@fundacionsanezequiel.org,,Otras De Acción Social,Estatal,8,, 
a6a767bbb2e3513233f942e0ff24272c,Foundation,Fundacion La Salle San Jose,"Calle La Salle,8",40.4661392,-3.7809325,,28023,Madrid,Moncloa-Aravaca,Valdemarin,G80442452,2022-06-13T00:00:00Z,676121523,comunicacion@lasallesanjoseobrasocial.es,,Otras De Acción Social,Comunidad De Madrid,3,, 
6734fa703f6633ab896eecbdfad8953a,Foundation,Fundacion M.Trinidad Carreras,"Calle Bueso Pineda,21",40.4535772,-3.6564115,,28043,Madrid,Ciudad Lineal,San Juan Bautista,G86199221,2022-06-13T00:00:00Z,682927615,bdiaz@fundacionmtrinidadcarreras.org,http://www.fundacionmtrinidadcarreras.org,Para La Cooperación Al Desarrollo,Estatal,6,, 
440924c5948e05070663f88e69e8242b,Foundation,Fundacion Hospitalaria De La Orden De Malta En España,"Calle Flora,3",40.4182682,-3.7081616,Bajo,28013,Madrid,Centro,Sol,G78135498,2022-05-07T00:00:00Z,691817987,gerente@ordendemalta.es,,De Derechos Humanos,Estatal,6,, 
0777acff7c9ab34562699e4e1d05affb,Foundation,Save The Children,"Calle Doctor Esquerdo,138",40.40550630000001,-3.6713078,,28007,Madrid,Retiro,Pacifico,G79362497,2022-05-07T00:00:00Z,667933764,accion.social@savethechildren.org,,Infantiles,Estatal,14,, 
8b5c8441a8ff8e151b191c53c1842a38,Foundation,Mensajeros De La Paz,"Calle Ribera De Curtidores,2",40.4094639,-3.707531699999999,,28005,Madrid,Centro,Embajadores,G82040684,2022-05-07T00:00:00Z,913645112,nieves@mensajerosdelapaz.org,,Familias,Estatal,10,, 
26ff6f4ca1cfca4861eb91876f706746,Foundation,Fundacion Esperanza Y Alegria,"Calle Zurbaran,30",40.4293578,-3.6903113,Bajo E,28010,Madrid,Chamberi,Almagro,G83014233,2022-07-19T00:00:00Z,913106962,administracion@fundacionesperanzayalegria.org,http://www.fundacionesperanzayalegria.org,Para La Cooperación Al Desarrollo,Estatal,6,, 
bba6bca05fecde04c682328e44b974b7,Foundation,Fundacion Social District,"Calle Alameda,22",40.4107962,-3.6939125,,28014,Madrid,Centro,Cortes,G99443871,2022-07-18T00:00:00Z,666552050,proyectos@musicosporlasalud.org,https://musicosporlasalud.org/,Otras De Acción Social,Estatal,5,, 
b837305e43f7e535a1506fc263eee3ed,Foundation,Fundacion Mariana Allsopp,"Calle Garcia De Paredes,21",40.4369512,-3.7007391,Portal A,28010,Madrid,Chamberi,Trafalgar,G87835351,2022-07-18T00:00:00Z,600698527,direccion@fundacionmarianaallsopp.org,http://www.fundacionmarianaallsopp.org,De Mujeres,Estatal,5,, 
861578d797aeb0634f77aff3f488cca2,Foundation,Fundacion Soysol,"Calle Lagunas De Neila,10",40.3524493,-3.7075843,2º E,28041,Madrid,Villaverde,Villaverde Alto C.H.,G42937482,2022-03-08T00:00:00Z,636926941,pnovoa@fundacionsoysol.org,http://www.fundacionsoysol.org,Medioambientales Y Ecologistas,Estatal,3,, 
65ae450c5536606c266f49f1c08321f2,Foundation,Fundacion Canis Majoris,"Calle Barbara De Braganza,10",40.4233502,-3.6927134,1º Izq,28004,Madrid,Centro,Justicia,G86214749,2022-05-08T00:00:00Z,609109351,ceo@fcmajoris.es,http://www.canismajoris.es,Otras De Acción Social,Estatal,6,, 
